번호,MANAGEMENT_NUMBER,영업상태구분코드,영업상태명,상세영업상태코드,상세영업상태명,SUB_ZIPCODE,SUB_ADDRESS,ADDRESS,ZIP_CODE,NAME,데이터갱신일자,LONGITUDE,LATITUDE
4412,362000001020120003,1,영업/정상,0000,정상,,광주광역시 북구 일곡동 843-5번지,광주광역시 북구 양일로305번길 8 (일곡동),61040.0,일곡동물병원,2018-08-31 23:59:59.0,35.21424373818521,126.88076332875889
4413,362000001020150001,1,영업/정상,0000,정상,,광주광역시 북구 임동 5-16번지,광주광역시 북구 태봉로 37-6 (임동),61244.0,우리동물병원,2019-04-25 02:40:00.0,35.21920887072988,126.83004314149666
4414,362000001020150002,1,영업/정상,0000,정상,,광주광역시 북구 양산동 254-123,"광주광역시 북구 하서로 371, 1층 (양산동)",61074.0,참좋은 동물병원,2021-05-20 02:40:00.0,35.1947843389032,126.88681707847309
4415,362000001020150003,1,영업/정상,0000,정상,,광주광역시 북구 오치동 1028-27,광주광역시 북구 서하로 319-1 (오치동),61124.0,김앤강 동물병원,2021-01-16 02:40:00.0,35.22929721864333,126.86112496693956
4416,362000001020150004,1,영업/정상,0000,정상,,광주광역시 북구 우산동 609-3,광주광역시 북구 중문로 74 (우산동),61172.0,빛고을 동물의료센터,2022-01-21 02:40:00.0,35.23343252152513,126.85138240512205
4417,362000001020160002,1,영업/정상,0000,정상,,광주광역시 북구 매곡동 370-7번지,광주광역시 북구 하백로5번길 1 (매곡동),61066.0,24시 언제나 동물병원,2019-04-25 02:40:00.0,35.20866641911114,126.86215547549139
4418,362000001019960001,1,영업/정상,0000,정상,,광주광역시 북구 우산동 232-10번지,광주광역시 북구 동문대로 79 (우산동),,말바우동물병원,2018-08-31 23:59:59.0,35.23501337587759,126.8418733113718
4419,362000001019960002,1,영업/정상,0000,정상,,광주광역시 북구 신안동 479-36,광주광역시 북구 서암대로 167 (신안동),,유동물병원,2021-01-16 02:40:00.0,35.218543181014105,126.83950494967014
4420,362000001020170002,1,영업/정상,0000,정상,,광주광역시 북구 삼각동 780-1,광주광역시 북구 설죽로471번길 101-102 (삼각동),61057.0,이든동물병원,2021-10-27 02:40:00.0,35.21568420360165,126.87853083328905
4421,362000001020170003,1,영업/정상,0000,정상,,광주광역시 북구 지야동 802-35번지,"광주광역시 북구 하서로 652-6, 103호 (지야동)",61027.0,소담동물병원,2019-03-19 02:40:00.0,35.20583056304915,126.91442471065194
4422,362000001020180001,1,영업/정상,0000,정상,,광주광역시 북구 본촌동 378-6 동물보호소,"광주광역시 북구 본촌마을길 27, 동물보호소 (본촌동)",61027.0,광주동물보호소 부속동물병원,2021-07-08 02:40:00.0,35.20137164626689,126.90434101843186
4423,345000001019840001,1,영업/정상,0000,정상,,대구광역시 북구 산격동 1370-1 경북대학교 수의과대학,"대구광역시 북구 대학로 80 (산격동, 경북대학교 수의과대학)",41566.0,경북대학교 수의과대학 부속동물병원,2021-10-14 02:40:00.0,36.60651781422191,127.74460103600326
4424,345000001019920002,1,영업/정상,0000,정상,,대구광역시 북구 검단동 700-2,대구광역시 북구 검단북로 154 (검단동),,대구축협동물병원,2022-01-12 02:40:00.0,36.61649169200537,127.7759860709667
4425,345000001020010001,1,영업/정상,0000,정상,,대구광역시 북구 관음동 1383-14,대구광역시 북구 칠곡중앙대로 483 (관음동),,강동물병원,2021-10-15 02:40:00.0,36.55594180399044,127.80279010080875
4426,345000001020150002,1,영업/정상,0000,정상,,대구광역시 북구 태전동 1113,대구광역시 북구 칠곡중앙대로 189 (태전동),41471.0,다온동물병원,2021-10-15 02:40:00.0,36.55558219276228,127.77069664695756
4427,345000001020170001,1,영업/정상,0000,정상,,대구광역시 북구 칠성동2가 2-2,"대구광역시 북구 침산로21길 23 (칠성동2가, 침산1차푸르지오)",41593.0,신한동물병원,2021-10-15 02:40:00.0,36.58871416459753,127.73729314577284
4428,345000001019810001,1,영업/정상,0000,정상,,대구광역시 북구 읍내동 781-1,대구광역시 북구 칠곡중앙대로 531 (읍내동),41442.0,동명동물병원,2021-10-15 02:40:00.0,36.556775701815035,127.80815161615543
4429,345000001020030003,1,영업/정상,0000,정상,,대구광역시 북구 동천동 932-4,대구광역시 북구 대천로 72-1 (동천동),,굿모닝동물병원,2021-10-15 02:40:00.0,36.56241711209339,127.80066552794322
4430,345000001020030004,1,영업/정상,0000,정상,,대구광역시 북구 산격동 1216-4,대구광역시 북구 산격로 109 (산격동),,가나동물병원,2021-10-15 02:40:00.0,36.604866711284785,127.75524363064065
4431,345000001020030005,1,영업/정상,0000,정상,,대구광역시 북구 관음동 1386-7,대구광역시 북구 칠곡중앙대로 471 (관음동),,늘푸른종합동물병원,2021-10-15 02:40:00.0,36.555687681480656,127.80145447776553
4432,345000001020040001,1,영업/정상,0000,정상,,대구광역시 북구 동천동 668-1 13통5반 칠곡홈플러스 301호,"대구광역시 북구 동암로12길 8, 2층 (동천동, 칠곡홈플러스)",41422.0,도그플러스 동물병원(미유펫 대구점),2021-10-15 02:40:00.0,36.561221211485815,127.81039627666628
4433,345000001020050003,1,영업/정상,0000,정상,,대구광역시 북구 태전동 1195,"대구광역시 북구 학정로 149, 한우리메디타워 2층 204호 (태전동)",41467.0,순풍동물병원,2021-10-15 02:40:00.0,36.557876818319045,127.78131064115092
4434,318000001020210002,1,영업/정상,0000,정상,,서울특별시 영등포구 신길동 324-49 영민빌딩 1층,"서울특별시 영등포구 가마산로 449-1, 영민빌딩 1층 (신길동)",7383.0,다움동물병원,2021-07-02 00:23:01.0,35.19423947768166,129.68604685064886
4435,541000001019750001,1,영업/정상,0000,정상,,경상남도 창녕군 남지읍 남지리 534-11 2통2반,경상남도 창녕군 남지읍 동포로 9,50358.0,남지가축병원,2021-01-20 02:40:00.0,36.51174499668663,127.12147832345299
4436,541000001020040001,1,영업/정상,0000,정상,,경상남도 창녕군 창녕읍 하리 421-1,경상남도 창녕군 창녕읍 갈전길 153,,창녕축협동물병원,2021-03-24 02:40:00.0,36.51044422949012,127.33655214293334
4437,541000001020070001,1,영업/정상,0000,정상,,경상남도 창녕군 영산면 동리 134-26번지,경상남도 창녕군 영산면 원다리길 45-2,50345.0,미래동물병원,2018-10-10 02:35:48.0,36.54956931338744,127.20116620958581
4438,541000001019940001,1,영업/정상,0000,정상,,경상남도 창녕군 창녕읍 말흘리 747-11번지,경상남도 창녕군 창녕읍 창녕대로 153-1,50333.0,광진동물병원,2018-08-31 23:59:59.0,36.525087725255574,127.29859034775058
4439,541000001020020001,1,영업/정상,0000,정상,,경상남도 창녕군 영산면 서리 216-9번지,경상남도 창녕군 영산면 영산장마로 745,50342.0,김수의과병원&lt;산업동물출장진료전문병원&gt;,2018-08-31 23:59:59.0,36.54650721848338,127.20576290875059
4440,541000001019690001,1,영업/정상,0000,정상,,경상남도 창녕군 창녕읍 술정리 294-7,경상남도 창녕군 창녕읍 창녕대로 54,,남창가축병원,2021-08-13 02:40:00.0,36.51866055551488,127.30616395166535
4441,541000001019630001,1,영업/정상,0000,정상,,경상남도 창녕군 영산면 서리 110-3번지 5통3반,경상남도 창녕군 영산면 로터리길 38,50345.0,영산가축병원<산업동물출장진료전문병원>,2018-08-31 23:59:59.0,36.55048434243518,127.20227166320112
4442,542000001020120001,1,영업/정상,0000,정상,,경상남도 고성군 고성읍 송학리 416-58번지,경상남도 고성군 고성읍 송학고분로 317,52931.0,미소종합동물병원,2020-03-08 02:40:00.0,36.38823869981769,126.61387036582524
4443,542000001020140001,1,영업/정상,0000,정상,,경상남도 고성군 고성읍 수남리 542-31번지,경상남도 고성군 고성읍 남포로 75-3,52935.0,서울동물병원,2019-09-06 02:40:00.0,36.384690720592,126.59928882709444
4444,546000001020030001,1,영업/정상,0000,정상,,경상남도 함양군 함양읍 교산리 189-1번지 6통2반,경상남도 함양군 함양읍 함양로 1182-1,50033.0,현대동물병원(출장진료전문병원),2018-08-31 23:59:59.0,35.89429149480391,127.27683908820774
4445,546000001020030002,1,영업/정상,0000,정상,,경상남도 함양군 안의면 금천리 115-5번지,경상남도 함양군 안의면 종로길 11-6,50011.0,이수의과동물병원,2019-01-18 02:40:00.0,35.962083582560496,127.40555136763425
4446,546000001020030006,1,영업/정상,0000,정상,,경상남도 함양군 함양읍 교산리 396-1번지,경상남도 함양군 함양읍 함양로 1271,50031.0,진동물병원,2019-03-08 02:40:00.0,35.89824810070931,127.28497098364845
4447,546000001020030007,1,영업/정상,0000,정상,,경상남도 함양군 함양읍 용평리 646-2번지,경상남도 함양군 함양읍 중앙시장길 17 (신성가축병원),50046.0,신성가축병원,2019-01-18 02:40:00.0,35.895342560681634,127.26906746075844
4448,546000001020030008,1,영업/정상,0000,정상,,경상남도 함양군 함양읍 백연리 340,경상남도 함양군 함양읍 돌북1길 27,50044.0,형제동물병원,2020-11-01 02:40:00.0,35.88844866084658,127.26749565335899
4449,546000001020170001,1,영업/정상,0000,정상,,경상남도 함양군 함양읍 용평리 628-7번지 105호,"경상남도 함양군 함양읍 용평중앙길 43, 1층 105호",50039.0,함양동물병원,2018-08-31 23:59:59.0,35.89630302415323,127.27086034404232
4450,461000001019770001,1,영업/정상,0000,정상,,충청남도 예산군 예산읍 주교리 225-1번지 2통우영연립 A동 203호,충청남도 예산군 예산읍 예산로 31,32431.0,새마을동물병원,2018-08-31 23:59:59.0,35.15003333970572,128.68611404534323
4451,461000001019860001,1,영업/정상,0000,정상,,충청남도 예산군 덕산면 읍내리 234-12번지 2통,충청남도 예산군 덕산면 예덕로 8,32406.0,김태오 동물병원,2018-08-31 23:59:59.0,35.02046277842268,128.70696423278247
4452,461000001019900001,1,영업/정상,0000,정상,,충청남도 예산군 예산읍 예산리 182,충청남도 예산군 예산읍 아리랑로 236,32434.0,흙 동물병원,2021-08-12 02:40:00.0,35.16791872163383,128.6807832849521
4453,461000001019960001,1,영업/정상,0000,정상,,충청남도 예산군 고덕면 대천리 663번지 1통삼미아파트 B동 603호,충청남도 예산군 고덕면 고덕중앙로 86,32403.0,중앙 동물병원,2018-08-31 23:59:59.0,35.04639614218252,128.75852649680493
4454,461000001019980001,1,영업/정상,0000,정상,,충청남도 예산군 예산읍 주교리 240-5번지 1통,충청남도 예산군 예산읍 역전로 51,32431.0,예산 동물병원,2018-08-31 23:59:59.0,35.14930043742304,128.68371391773866
4455,461000001020060001,1,영업/정상,0000,정상,,충청남도 예산군 삽교읍 송산리 73-5번지,충청남도 예산군 삽교읍 충의로 170,340901.0,한솔가축병원,2018-08-31 23:59:59.0,35.034677954413134,128.69528225637822
4456,461000001020090002,1,영업/정상,0000,정상,,충청남도 예산군 예산읍 예산리 880번지 한양아파트 30동 1103호,충청남도 예산군 예산읍 사직로 24,32435.0,협동동물병원,2018-08-31 23:59:59.0,35.16496433392582,128.68142195341505
4457,461000001020100002,1,영업/정상,0000,정상,,충청남도 예산군 광시면 광시리 657-2번지 104호,충청남도 예산군 광시면 예당로 190 (104호),,강이동물병원,2018-08-31 23:59:59.0,35.10834928997606,128.52203745577916
4458,449000001019960001,1,영업/정상,0000,정상,,충청남도 천안시 동남구 청당동 511,충청남도 천안시 동남구 청수11로 12 (청당동),31198.0,천안축산업협동조합 부설동물병원,2020-11-07 02:40:00.0,35.40873934868131,128.80976314401323
4459,449000001019980001,1,영업/정상,0000,정상,,충청남도 천안시 서북구 쌍용동 1169번지,충청남도 천안시 서북구 쌍용대로 51 (쌍용동),31155.0,우리동물병원,2018-08-31 23:59:59.0,35.39048007793215,128.83317349552905
4460,449000001019980002,1,영업/정상,0000,정상,,충청남도 천안시 동남구 원성동 587-10번지,충청남도 천안시 동남구 충무로 475 (원성동),31186.0,장원동물병원,2019-03-09 02:40:00.0,35.411920028080004,128.8298309242241
4461,449000001020000002,1,영업/정상,0000,정상,,충청남도 천안시 서북구 성환읍 매주리 330-1,충청남도 천안시 서북구 성환읍 매주4길 20,31011.0,하나동물병원,2021-10-03 02:40:00.0,35.38544339214529,128.96689054193743
4462,449000001020020006,1,영업/정상,0000,정상,,충청남도 천안시 동남구 성황동 10-16번지,충청남도 천안시 동남구 대흥로 320 (성황동),,그림동물병원,2018-08-31 23:59:59.0,35.40576539585328,128.85092374448365
4463,449000001020030001,1,영업/정상,0000,정상,,충청남도 천안시 동남구 신부동 816번지 대흥빌딩,충청남도 천안시 동남구 터미널2로 8 (신부동),31119.0,에니펫동물병원,2018-08-31 23:59:59.0,35.41190994730806,128.85517802341175
4464,449000001020040001,1,영업/정상,0000,정상,,충청남도 천안시 서북구 두정동 1263번지 주차빌딩101,"충청남도 천안시 서북구 두정로 203 (두정동,주차빌딩101)",,펫프렌즈동물병원,2018-08-31 23:59:59.0,35.39643751232828,128.87229906182662
4465,449000001020040004,1,영업/정상,0000,정상,,충청남도 천안시 서북구 쌍용동 1544-1번지 쌍용메디칼,"충청남도 천안시 서북구 월봉로 85, 쌍용메디칼 (쌍용동)",31171.0,김수영 동물병원,2019-01-17 02:40:00.0,35.37969539052942,128.8284165804214
4466,461000001020130002,1,영업/정상,0000,정상,,충청남도 예산군 예산읍 대회리 1 공주대학교 산업과학대학 내,충청남도 예산군 예산읍 대학로 54 (공주대학교 산업과학대학 내),,충남야생동물구조센터,2021-05-27 02:40:00.0,35.17414460684041,128.6675680037154
4467,461000001020160002,1,영업/정상,0000,정상,,충청남도 예산군 예산읍 산성리,충청남도 예산군 예산읍 벚꽃로 153,32428.0,KU건국동물병원,2018-08-31 23:59:59.0,35.15497694636976,128.69656390932525
4468,461000001020170001,1,영업/정상,0000,정상,,충청남도 예산군 고덕면 대천리 728-18번지,충청남도 예산군 고덕면 황금뜰로 215,32403.0,윤동물병원·약품(출장진료전문),2019-05-01 02:40:00.0,35.0479277877883,128.75819698098252
4469,461000001020180001,1,영업/정상,0000,정상,,충청남도 예산군 덕산면 신평리 91-5,충청남도 예산군 덕산면 수암산로 160,32406.0,마일스톤피그클리닉(출장진료전문),2020-09-20 02:40:00.0,35.02217467361136,128.68906669356443
4470,565000001020130001,1,영업/정상,0000,정상,,충청남도 천안시 동남구 신부동 319-37번지,충청남도 천안시 동남구 중앙로 281-2 (신부동),31117.0,고려동물병원,2018-08-31 23:59:59.0,35.406969685122526,128.8597149055946
4471,565000001020130003,1,영업/정상,0000,정상,,충청남도 천안시 동남구 청수동 262번지 청솔LG아파트 상가 지하1층 2호,"충청남도 천안시 동남구 청수로 98 (청수동, 청솔LG아파트 상가 지하1층 2호)",31194.0,서현동물병원,2018-08-31 23:59:59.0,35.41065294539746,128.82049783177678
4472,565000001020130004,1,영업/정상,0000,정상,,충청남도 천안시 동남구 청수동 261번지 청솔LG아파트 상가 지하1층1호,"충청남도 천안시 동남구 청수로 98 (청수동, 청솔LG아파트 상가 지하1층1호)",31194.0,다산동물병원,2018-08-31 23:59:59.0,35.411832481555614,128.82128987161005
4474,565000001020150004,1,영업/정상,0000,정상,,충청남도 천안시 동남구 청당동 153-15,"충청남도 천안시 동남구 남부대로 344, 1층 (청당동)",31211.0,가온동물병원,2021-12-23 02:40:00.0,35.40993402211781,128.80780292176684
4475,565000001020160002,1,영업/정상,0000,정상,,충청남도 천안시 동남구 신부동 388-5번지 천광빌딩,"충청남도 천안시 동남구 대흥로 339, 천광빌딩 (신부동)",31121.0,열린동물병원,2019-07-20 02:40:00.0,35.40633091294252,128.85311970126023
4477,449000001019850001,1,영업/정상,0000,정상,,충청남도 천안시 서북구 성환읍 성환리 449-118번지,충청남도 천안시 서북구 성환읍 성환1로 235,,충일,2018-08-31 23:59:59.0,35.385312483978154,128.97182731207567
4478,449000001019860001,1,영업/정상,0000,정상,,충청남도 천안시 동남구 신방동 263-3번지,충청남도 천안시 동남구 풍세로 614 (신방동),,유일동물병원(산업동물에 대한 출장진료를 전문으로 함.),2018-08-31 23:59:59.0,35.3919268672985,128.79159303900738
4479,449000001019910001,1,영업/정상,0000,정상,,충청남도 천안시 서북구 성환읍 성환리 449-342번지,충청남도 천안시 서북구 성환읍 성환1로 275,,태성동물병원,2019-05-01 02:40:00.0,35.38488814763954,128.97624282561378
4480,565000001020160003,1,영업/정상,0000,정상,,충청남도 천안시 동남구 신방동 1536번지,충청남도 천안시 동남구 통정10로 33-10 (신방동),31208.0,나음동물병원,2018-08-31 23:59:59.0,35.3916532122856,128.79865030238747
4481,565000001020160005,1,영업/정상,0000,정상,,충청남도 천안시 동남구 신방동 49-14번지 이화빌딩,"충청남도 천안시 동남구 수곡2길 8-3, 이화빌딩 (신방동)",31176.0,다솜동물병원,2019-12-01 02:40:00.0,35.38835399353159,128.8171787760178
4482,565000001020170001,1,영업/정상,0000,정상,,충청남도 천안시 동남구 봉명동 32-1,"충청남도 천안시 동남구 봉정로 6, 2층 (봉명동)",31153.0,치유동물병원,2021-04-11 02:40:00.0,35.396954365864836,128.83421105596705
4483,565000001020170002,1,영업/정상,0000,정상,,충청남도 천안시 동남구 수신면 속창리 134-6번지,충청남도 천안시 동남구 수신면 수신로 455,31251.0,다나동물병원(산업동물에 대한 출장진료를 전문으로 함.),2019-05-01 02:40:00.0,35.514150078843144,128.75084323656804
4484,565000001020180001,1,영업/정상,0000,정상,,충청남도 천안시 동남구 신부동 88-3,충청남도 천안시 동남구 충절로 35 (신부동),31125.0,서울88동물의료원,2021-12-23 02:40:00.0,35.412066801252735,128.8505432266095
4485,449000001019910002,1,영업/정상,0000,정상,,충청남도 천안시 서북구 성정동 434-9,충청남도 천안시 서북구 쌍용대로 317 (성정동),,늘푸른동물병원두정의료센터,2020-08-30 02:40:00.0,35.39453521948222,128.8615785752914
4486,449000001019920001,1,영업/정상,0000,정상,,충청남도 천안시 동남구 원성동 601-1번지,충청남도 천안시 동남구 원거리7길 2 (원성동),,중앙동물병원,2018-08-31 23:59:59.0,35.40853521778498,128.8298356085429
4487,449000001019940001,1,영업/정상,0000,정상,,충청남도 천안시 동남구 영성동 67-3번지 18통3반,충청남도 천안시 동남구 대흥로 94-1 (영성동),31131.0,녹십자,2018-08-31 23:59:59.0,35.40704875407283,128.83026881664856
4488,449000001019940002,1,영업/정상,0000,정상,,충청남도 천안시 서북구 성환읍 매주리 435-1번지,충청남도 천안시 서북구 성환읍 성환1로 116,31019.0,천안공주낙농축산업협동조합부설동물병원,2018-08-31 23:59:59.0,35.386755393540064,128.95852703299087
4489,449000001019950003,1,영업/정상,0000,정상,,충청남도 천안시 동남구 다가동 373-3번지,충청남도 천안시 동남구 차돌로 50 (다가동),,대전충남 양돈축산업협동조합 부설동물병원,2020-04-19 02:40:00.0,35.39431830017336,128.83166559095505
4490,566000001020120002,1,영업/정상,0000,정상,,충청남도 천안시 서북구 불당동 1220 1층호,"충청남도 천안시 서북구 불당7길 25, 1층 (불당동)",31164.0,동물병원닥터스,2021-03-13 02:40:00.0,35.37489218616987,128.8341271945753
4491,440000001020070001,1,영업/정상,0000,정상,,충청북도 제천시 명동 11-9번지,충청북도 제천시 의병대로 55-3 (명동),27169.0,한일동물병원,2018-08-31 23:59:59.0,36.243694754347786,129.27430389926823
4492,440000001020160001,1,영업/정상,0000,정상,,충청북도 제천시 하소동 165-59번지,충청북도 제천시 원뜰로 34 (하소동),27187.0,명진동물병원,2018-08-31 23:59:59.0,36.234216463504524,129.2687865596674
4493,440000001020170001,1,영업/정상,0000,정상,,충청북도 제천시 장락동 635-27,"충청북도 제천시 죽하로 5, 1층 (장락동)",27148.0,제천 그레이스 동물병원,2020-09-04 02:40:00.0,36.25548475623978,129.29327893084232
4494,447000001019840001,1,영업/정상,0000,정상,,충청북도 음성군 삼성면 덕정리 525-19번지,충청북도 음성군 삼성면 대성로 613,27652.0,삼성가축병원,2019-04-17 02:40:00.0,35.679960263330955,129.1061282507104
4495,447000001019870001,1,영업/정상,0000,정상,,충청북도 음성군 음성읍 읍내리 549-12 6통3반,충청북도 음성군 음성읍 중앙로 142,27695.0,음성동물병원,2020-09-23 02:40:00.0,35.835886453685696,129.0109344224401
4496,447000001019900001,1,영업/정상,0000,정상,,충청북도 음성군 금왕읍 금석리 275-10번지,충청북도 음성군 금왕읍 대금로 1498,,금왕동물병원,2018-08-31 23:59:59.0,35.76102992306918,129.07300995743887
4497,447000001019990001,1,영업/정상,0000,정상,,충청북도 음성군 음성읍 읍내리 398-7번지,충청북도 음성군 음성읍 중앙로40번길 24,27706.0,남영가축병원 (출장진료전문병원),2018-08-31 23:59:59.0,35.83780419771948,128.9999098107091
4499,447000001020070002,1,영업/정상,0000,정상,,충청북도 음성군 대소면 대풍리 524-2번지,충청북도 음성군 대소면 대금로54번길 8,27671.0,반석가금진료연구소,2018-08-31 23:59:59.0,35.64360167215092,129.0647023980791
4500,447000001020160002,1,영업/정상,0000,정상,,,"충청북도 음성군 대소면 대금로 822, A단지 나동 104호 (대왕하이텍공구타운A단지)",27663.0,전동물병원 (출장진료전문병원),2018-08-31 23:59:59.0,35.704419055441306,129.06014643774662
4501,447000001020160004,1,영업/정상,0000,정상,,충청북도 음성군 대소면 태생리 519번지,충청북도 음성군 대소면 대금로 502,27666.0,대소동물병원,2018-08-31 23:59:59.0,35.67755122580469,129.04280005025652
4502,447000001020180001,1,영업/정상,0000,정상,,충청북도 음성군 맹동면 동성리 501,"충청북도 음성군 맹동면 대하1길 4, 위너스타워 2층 205, 206호",27738.0,그린벨동물의료센터,2020-10-14 02:40:00.0,35.71715277430327,128.97172056302176
4503,447000001020110001,1,영업/정상,0000,정상,,충청북도 음성군 음성읍 읍내리 314-9,충청북도 음성군 음성읍 시장로 99,,음성축산업협동조합 동물병원,2021-12-09 02:40:00.0,35.83757594683296,129.01065471397115
4504,440000001019900001,1,영업/정상,0000,정상,,충청북도 제천시 중앙로2가 27-10번지 9통3반,충청북도 제천시 의림대로15길 24 (중앙로2가),27169.0,진주동물병원,2018-08-31 23:59:59.0,36.245902185058895,129.27718730323525
4505,301000001019920001,1,영업/정상,0000,정상,,서울특별시 중구 신당동 336-3번지 명덕빌딩,"서울특별시 중구 다산로 175, 명덕빌딩 (신당동)",4608.0,바우미우동물병원,2019-03-08 02:40:00.0,35.27756488361892,129.7540079102787
4506,301000001019950001,1,영업/정상,0000,정상,,서울특별시 중구 묵정동 32-1번지,서울특별시 중구 퇴계로 254-1 (묵정동),4619.0,황동물병원,2019-03-08 02:40:00.0,35.26726910193043,129.7574120587127
4507,307000001020000004,1,영업/정상,0000,정상,,서울특별시 성북구 보문동2가 49번지,서울특별시 성북구 보문로 137 (보문동2가),2871.0,서울종합동물병원,2019-04-26 02:40:00.0,35.28104268858353,129.78804291248863
4508,307000001020010002,1,영업/정상,0000,정상,,서울특별시 성북구 장위동 8-2 석계역 한일노벨리아시티 210호,"서울특별시 성북구 화랑로 299, 2층 210호 (장위동, 석계역 한일노벨리아시티)",2779.0,대학동물병원,2021-02-19 02:40:00.0,35.31440739987203,129.82151553779892
4509,307000001020010004,1,영업/정상,0000,정상,,서울특별시 성북구 종암동 19-1번지,서울특별시 성북구 종암로 65 (종암동),2810.0,강북동물병원,2018-08-31 23:59:59.0,35.2942752375845,129.7996051644217
4510,311000001020140001,1,영업/정상,0000,정상,,서울특별시 은평구 응암동 194-23,서울특별시 은평구 백련산로 145 (응암동),3463.0,스머프동물병원,2021-07-21 02:40:00.0,35.20670536323286,129.79904714592777
4511,311000001020140002,1,영업/정상,0000,정상,,서울특별시 은평구 불광동 554-1번지 1층,"서울특별시 은평구 불광로 60, 1층 (불광동)",3365.0,다루동물병원,2019-03-08 02:40:00.0,35.21189548510335,129.81649255212827
4512,311000001020150001,1,영업/정상,0000,정상,,서울특별시 은평구 역촌동 51-22번지,서울특별시 은평구 역말로 7 (역촌동),3415.0,도담동물병원,2019-03-08 02:40:00.0,35.19541561028019,129.8078354446134
4513,311000001020000002,1,영업/정상,0000,정상,,서울특별시 은평구 갈현동 498-3번지,서울특별시 은평구 서오릉로 192 (갈현동),3335.0,미래동물병원,2020-05-29 02:40:00.0,35.196138261994655,129.81766808104157
4514,311000001020010001,1,영업/정상,0000,정상,,서울특별시 은평구 대조동 224-24번지,서울특별시 은평구 서오릉로 140 (대조동),3394.0,더독동물병원,2018-08-31 23:59:59.0,35.20040231433689,129.81486978203154
4515,303000001020030007,1,영업/정상,0000,정상,,서울특별시 성동구 행당동 322-100번지,서울특별시 성동구 행당로8길 41-2 (행당동),,오렌지동물병원,2019-03-08 02:40:00.0,35.294461902406276,129.7506209569103
4516,301000001020110001,1,영업/정상,0000,정상,,서울특별시 중구 신당동 373-64번지,서울특별시 중구 동호로 178 (신당동),4590.0,웰펫동물병원,2019-03-08 02:40:00.0,35.27662544473692,129.7479013363587
4517,321000001019970001,1,영업/정상,0000,정상,,서울특별시 서초구 방배동 809-1,서울특별시 서초구 방배로34길 12 (방배동),6585.0,남서울동물병원,2020-11-21 02:40:00.0,35.26253226288468,129.67198722571163
4518,321000001019980001,1,영업/정상,0000,정상,,서울특별시 서초구 서초동 1603-66,서울특별시 서초구 효령로57길 4 (서초동),6643.0,서초동물병원,2021-09-05 02:40:00.0,35.28293589245614,129.6641507765216
4519,321000001020130004,1,영업/정상,0000,정상,,서울특별시 서초구 서초동 1648-9번지,"서울특별시 서초구 사임당로 97, 1층 (서초동)",6637.0,강남서초 동물병원,2019-01-16 02:40:00.0,35.28545609609077,129.67011135636903
4520,321000001020130005,1,영업/정상,0000,정상,,서울특별시 서초구 서초동 1534-2번지 명성빌딩,"서울특별시 서초구 반포대로 45, 1층 (서초동, 명성빌딩)",6671.0,아델 동물병원,2019-01-16 02:40:00.0,35.277996026339665,129.6628483035036
4521,321000001020130006,1,영업/정상,0000,정상,,서울특별시 서초구 방배동 894-2 선빌딩 101호,"서울특별시 서초구 서초대로 124, 101호 (방배동, 선빌딩)",6661.0,동물제중원금손이 동물병원,2021-04-10 02:40:00.0,35.26616416493334,129.6668276635244
4522,321000001020050004,1,영업/정상,0000,정상,,서울특별시 서초구 서초동 1486-2 삼양빌딩,"서울특별시 서초구 효령로 214, 삼양빌딩 2층 (서초동)",6709.0,다니엘동물병원,2020-10-23 02:40:00.0,35.27557003633924,129.66105742688572
4523,314000001019900001,1,영업/정상,0000,정상,,서울특별시 양천구 신월동 501-12,서울특별시 양천구 중앙로 295 (신월동),8028.0,우신동물병원,2021-03-19 02:40:00.0,35.15009481502999,129.70510259905595
4524,314000001019900002,1,영업/정상,0000,정상,,서울특별시 양천구 목동 657-16,서울특별시 양천구 등촌로 160 (목동),7951.0,강현림 종합동물병원,2020-11-12 02:40:00.0,35.158323899558496,129.7315431886944
4525,314000001019940001,1,영업/정상,0000,정상,,서울특별시 양천구 신정동 1020-17번지,서울특별시 양천구 은행정로 10 (신정동),8087.0,해성동물병원,2019-01-18 02:40:00.0,35.157091975521745,129.7029571390173
4526,321000001020090004,1,영업/정상,0000,정상,,서울특별시 서초구 반포동 18-3 래미안퍼스티지 중심상가 147-8호,"서울특별시 서초구 반포대로 287, 래미안퍼스티지 중심상가 1층 147,148호 (반포동)",6547.0,두리종합동물병원,2021-06-11 02:40:00.0,35.26953491452985,129.68672840013798
4527,321000001020100001,1,영업/정상,0000,정상,,서울특별시 서초구 방배동 925-8번지,"서울특별시 서초구 방배로 119, 1층 (방배동)",6682.0,디아나동물병원,2019-01-13 02:40:00.0,35.26560242867547,129.6625990029211
4528,321000001020040009,1,영업/정상,0000,정상,,서울특별시 서초구 잠원동 50-5 신사쇼핑센터 102-2호,"서울특별시 서초구 나루터로 37, 신사쇼핑센터 1층 102-2호 (잠원동)",6515.0,이상록동물병원,2020-11-21 02:40:00.0,35.280243517349625,129.70149776818465
4529,314000001020080002,1,영업/정상,0000,정상,,서울특별시 양천구 신월동 446-4번지,서울특별시 양천구 월정로 46 (신월동),7936.0,햇살동물병원,2019-01-18 02:40:00.0,35.1428345850079,129.7064069175956
4530,314000001020080004,1,영업/정상,0000,정상,,서울특별시 양천구 목동 917-6 지하2층,서울특별시 양천구 목동동로 309 (목동),7997.0,행복한세상동물병원,2021-06-12 02:40:00.0,35.16955863957927,129.71400023997853
4531,303000001020160002,1,영업/정상,0000,정상,,서울특별시 성동구 성수동2가 339-23번지,서울특별시 성동구 뚝섬로 395 (성수동2가),4781.0,제인동물병원,2019-03-08 02:40:00.0,35.31142527049704,129.73047312062602
4532,311000001020120001,1,영업/정상,0000,정상,,서울특별시 은평구 대조동 187-24번지,서울특별시 은평구 통일로 817 (대조동),3385.0,Dr.윤24시동물병원,2019-07-25 02:40:00.0,35.20467864538946,129.82132931526397
4533,303000001020040004,1,영업/정상,0000,정상,,서울특별시 성동구 금호동2가 485-1,서울특별시 성동구 금호산길 58(금호동2가),4726.0,한빛동물병원,2021-07-03 02:40:00.0,35.28306829695955,129.74694004930282
4534,303000001020060001,1,영업/정상,0000,정상,,서울특별시 성동구 금호동4가 1108번지 지상1층,"서울특별시 성동구 독서당로 289 (금호동4가,지상1층)",,아지동물병원,2019-06-29 02:40:00.0,35.28440522132909,129.7405153996146
4535,303000001020070002,1,영업/정상,0000,정상,,서울특별시 성동구 행당동 318-36,서울특별시 성동구 고산자로 207 (행당동),4714.0,24시센트럴동물메디컬센터,2021-10-20 02:40:00.0,35.29416746685456,129.75382760687882
4536,314000001020070002,1,영업/정상,0000,정상,,서울특별시 양천구 신정동 117-37,서울특별시 양천구 신목로 78 (신정동),8009.0,리더스 동물병원,2020-11-12 02:40:00.0,35.16829792056931,129.70456877622783
4537,303000001020160001,1,영업/정상,0000,정상,,서울특별시 성동구 옥수동 561번지 래미안옥수리버젠 상가동 420호,"서울특별시 성동구 매봉길 13, 1층 420호 (옥수동, 래미안옥수리버젠상가)",4733.0,오석헌동물병원,2018-08-31 23:59:59.0,35.27876311094404,129.73657025881334
4538,311000001020120002,1,영업/정상,0000,정상,,서울특별시 은평구 진관동 20번지 상림마을 821동 101호,"서울특별시 은평구 진관3로 70 (진관동, 상림마을 821동 101호)",3302.0,뉴타운동물병원,2019-03-08 02:40:00.0,35.203547422713875,129.85257123684502
4539,311000001020120003,1,영업/정상,0000,정상,,"서울특별시 은평구 갈현동 431-5번지 지층, 2층","서울특별시 은평구 연서로29길 24, 지, 2층 (갈현동, 정운빌딩)",3330.0,도그원 동물의료센터,2020-02-20 02:40:00.0,35.20026759886474,129.82495070838934
4540,311000001020130001,1,영업/정상,0000,정상,,서울특별시 은평구 응암동 91-5,서울특별시 은평구 은평로 93 (응암동),3461.0,24시스마트동물메디컬센터,2021-11-06 02:40:00.0,35.201126423926866,129.80078491745817
4541,321000001019950001,1,영업/정상,0000,정상,,서울특별시 서초구 잠원동 8-24 크레신타워 1층,"서울특별시 서초구 강남대로 631, 1층 (잠원동, 크레신타워)",6524.0,유림동물안과병원,2021-09-05 02:40:00.0,35.28320946484895,129.70394671509348
4542,306000001020030002,1,영업/정상,0000,정상,,서울특별시 중랑구 상봉동 137-7,서울특별시 중랑구 중랑천로 71 (상봉동),,서울우유협동조합유우진료소,2022-01-23 02:40:00.0,35.323983247712896,129.7951819872305
4543,303000001020140003,1,영업/정상,0000,정상,,서울특별시 성동구 상왕십리동 811번지 텐즈힐몰 221동 134호,"서울특별시 성동구 마장로 137, 221동 134호 (상왕십리동, 텐즈힐몰)",4700.0,텐즈힐링동물병원,2019-05-31 02:40:00.0,35.28672765063673,129.766602122626
4544,303000001020150002,1,영업/정상,0000,정상,,서울특별시 성동구 금호동4가 1338번지 10통4반 현대ESA아파트 910호,서울특별시 성동구 독서당로 328 (금호동4가),4737.0,펫365동물병원,2019-06-16 02:40:00.0,35.2877822071381,129.7404734433376
4545,314000001019990002,1,영업/정상,0000,정상,,서울특별시 양천구 신월동 50-5번지,서울특별시 양천구 남부순환로 347 (신월동),7905.0,민병철동물병원,2018-08-31 23:59:59.0,35.1314714837163,129.72110784894923
4546,303000001020120001,1,영업/정상,0000,정상,,서울특별시 성동구 성수동2가 333-3번지 1층,서울특별시 성동구 뚝섬로 386 (성수동2가),4775.0,서울숲동물병원,2019-03-08 02:40:00.0,35.31026171795701,129.73049323374084
4547,303000001020120002,1,영업/정상,0000,정상,,서울특별시 성동구 옥수동 560 어울림상가 지하 301~4호,"서울특별시 성동구 독서당로40길 39, 어울림상가 지하 301~304호 (옥수동)",4739.0,옥수수 동물병원,2022-01-19 02:40:00.0,35.28229407678931,129.73345637380325
4548,314000001020090003,1,영업/정상,0000,정상,,서울특별시 양천구 목동 962 목동트라팰리스,"서울특별시 양천구 오목로 299, 목동트라팰리스 (목동)",8001.0,쿨펫이마트 목동점 동물병원,2021-06-11 02:40:00.0,35.16510924598765,129.70974316287422
4549,311000001020160002,1,영업/정상,0000,정상,,서울특별시 은평구 불광동 104-94번지,"서울특별시 은평구 연서로 317 (불광동, 동윤빌딩)",3343.0,둘레길동물병원,2019-03-08 02:40:00.0,35.208075011843086,129.8302272772822
4550,311000001020160004,1,영업/정상,0000,정상,,서울특별시 은평구 대조동 14-27번지 2층,"서울특별시 은평구 통일로 727-5, 2층 (대조동)",3397.0,개와냥이동물병원,2019-03-08 02:40:00.0,35.2096562772873,129.81377152271287
4551,311000001020160005,1,영업/정상,0000,정상,,서울특별시 은평구 응암동 244-212번지,서울특별시 은평구 백련산로 29 (응암동),3470.0,참좋은동물병원,2019-03-08 02:40:00.0,35.20488611378056,129.7868175017668
4552,311000001020030005,1,영업/정상,0000,정상,,서울특별시 은평구 역촌동 22-49번지 101호,"서울특별시 은평구 연서로 72, 1층 101호 (역촌동)",3402.0,우신동물병원,2018-08-31 23:59:59.0,35.19904760553753,129.80776739390208
4553,311000001020040004,1,영업/정상,0000,정상,,서울특별시 은평구 갈현동 394-27번지,서울특별시 은평구 통일로 885 (갈현동),3329.0,메디펫동물병원,2018-08-31 23:59:59.0,35.20162664938241,129.82784830328848
4554,301000001019900001,1,영업/정상,0000,정상,,서울특별시 중구 필동2가 53번지,서울특별시 중구 퇴계로 226 (필동2가),4624.0,윤신근박사동물병원,2019-03-08 02:40:00.0,35.26478458304117,129.75642198871415
4555,314000001019960001,1,영업/정상,0000,정상,,서울특별시 양천구 신정동 294-62번지,서울특별시 양천구 목동동로10길 6 (신정동),8014.0,노아동물병원,2018-10-15 23:59:59.0,35.16554977007947,129.70056977703405
4556,314000001019970002,1,영업/정상,0000,정상,,서울특별시 양천구 신월동 444-11번지,서울특별시 양천구 오목로 45 (신월동),7930.0,양천종합동물병원,2019-07-07 02:40:00.0,35.14312178389629,129.7045474034666
4557,311000001020050004,1,영업/정상,0000,정상,,서울특별시 은평구 증산동 174-6번지 103호,"서울특별시 은평구 증산로 267, 103호 (증산동)",3500.0,한수24시동물병원,2020-06-24 02:40:00.0,35.19280169683705,129.77860495054384
4558,311000001020060001,1,영업/정상,0000,정상,,서울특별시 은평구 구산동 1-1번지,서울특별시 은평구 연서로 137 (구산동),3412.0,로얄동물병원,2020-06-07 02:40:00.0,35.199763097392605,129.81459259842782
4559,321000001020060001,1,영업/정상,0000,정상,,서울특별시 서초구 서초동 1690-2번지 지상1층,"서울특별시 서초구 서초대로 325 (서초동,지상1층)",,교대동물병원,2019-01-13 02:40:00.0,35.28268090522134,129.67571827573065
4560,314000001020020002,1,영업/정상,0000,정상,,서울특별시 양천구 목동 805-1,서울특별시 양천구 등촌로 16 (목동),7966.0,필동물종합병원,2021-07-16 02:40:00.0,35.15999234490049,129.71621633336284
4561,321000001020110003,1,영업/정상,0000,정상,,서울특별시 서초구 반포동 20-51 베리스타운102/108호,서울특별시 서초구 사평대로45길 10-25 (반포동),6544.0,반포자이동물병원,2021-09-05 02:40:00.0,35.27988942415527,129.68992382474204
4562,321000001020120001,1,영업/정상,0000,정상,,서울특별시 서초구 신원동 412-5번지 힐스테이트서초잰트리스 103호,"서울특별시 서초구 헌릉로8길 10-12, 1층 3호 (신원동, 힐스테이트서초잰트리스)",6798.0,하나동물병원,2019-01-16 02:40:00.0,35.31506733823337,129.62866453419426
4563,314000001020090005,1,영업/정상,0000,정상,,서울특별시 양천구 목동 907번지 현대월드타워 160호,"서울특별시 양천구 목동서로 77, 현대월드타워 160호 (목동)",7983.0,가나종합동물병원,2019-12-20 02:40:00.0,35.17094482967946,129.72209734996648
4564,314000001020110002,1,영업/정상,0000,정상,,서울특별시 양천구 목동 919-7 홈플러스목동점,"서울특별시 양천구 목동서로 170, 홈플러스목동점 (목동)",7992.0,닥터펫동물병원,2020-11-12 02:40:00.0,35.16729983835877,129.71509097916837
4565,303000001020170001,1,영업/정상,0000,정상,,,"서울특별시 성동구 왕십리로 410, 127동 지하층 030호 (하왕십리동, 센트라스)",4701.0,바라봄동물병원,2019-03-08 02:40:00.0,35.28691303182884,129.7617011809243
4566,311000001020170001,1,영업/정상,0000,정상,,"서울특별시 은평구 불광동 643 북한산 힐스테이트7차, 상가동 지하2층 128호, 지하1층 228호","서울특별시 은평구 통일로 796, 상가동 지하2층 128호, 지하1층 228호 (불광동, 북한산 힐스테이트7차)",3357.0,담은동물병원,2021-08-27 02:40:00.0,35.20747045092418,129.82140473269808
4567,314000001020030006,1,영업/정상,0000,정상,,서울특별시 양천구 신정동 987-3 1층,"서울특별시 양천구 오목로 198-1 (신정동,1층)",,신정 동물병원,2020-11-12 02:40:00.0,35.15643798628754,129.70858975756497
4568,314000001020030007,1,영업/정상,0000,정상,,서울특별시 양천구 목동 657-21번지 등촌빌딩,"서울특별시 양천구 등촌로 172, 등촌빌딩 A동 102호 (목동)",7951.0,토론토 동물병원,2019-01-18 02:40:00.0,35.15843061921145,129.732701243875
4569,303000001020180001,1,영업/정상,0000,정상,,서울특별시 성동구 하왕십리동 1070번지 센트라스,"서울특별시 성동구 왕십리로 410 (하왕십리동, 센트라스)",4701.0,다온동물병원,2019-04-27 02:40:00.0,35.2891504441438,129.7627187880721
4570,303000001020180002,1,영업/정상,0000,정상,,서울특별시 성동구 성수동1가 718번지 트리마제,"서울특별시 성동구 왕십리로 16 (성수동1가, 트리마제)",4773.0,달링동물병원,2019-04-27 02:40:00.0,35.303758310133375,129.7299364992846
4571,301000001020160002,1,영업/정상,0000,정상,,서울특별시 중구 황학동 2523 황학 아크로타워,"서울특별시 중구 퇴계로 447, 1층 131호 (황학동, 황학 아크로타워)",4575.0,바른동물병원,2020-07-18 02:40:00.0,35.28458548018574,129.7626366703796
4572,311000001019990002,1,영업/정상,0000,정상,,서울특별시 은평구 응암동 589-12번지 2층,"서울특별시 은평구 가좌로 239, 2층 (응암동, 스타이루)",3484.0,오거리동물병원,2018-08-31 23:59:59.0,35.19965728115347,129.78979045817454
4573,311000001020000001,1,영업/정상,0000,정상,,서울특별시 은평구 응암동 74-14번지,서울특별시 은평구 은평로 208 (응암동),3472.0,LOVE MY PET 동물병원,2019-03-08 02:40:00.0,35.211117246198285,129.80265711693968
4574,321000001020130001,1,영업/정상,0000,정상,,서울특별시 서초구 양재동 215번지 이마트 양재점 지하1층,"서울특별시 서초구 매헌로 16, 지하1층 (양재동, 이마트 양재점)",6771.0,이리온 양재점,2019-01-16 02:40:00.0,35.29943791011447,129.637779673729
4575,321000001020130002,1,영업/정상,0000,정상,,서울특별시 서초구 반포동 30-25번지 반포리체상가 106호,"서울특별시 서초구 서초중앙로 238, 106호 (반포동, 반포리체상가)",6597.0,꿈꾸는 동물병원,2019-01-16 02:40:00.0,35.27849799658203,129.68533448997627
4576,321000001020130003,1,영업/정상,0000,정상,,서울특별시 서초구 양재동 4-14,서울특별시 서초구 바우뫼로 211 (양재동),6740.0,에이블 동물병원,2021-01-31 02:40:00.0,35.30266966732907,129.65926202650095
4577,303000001020160006,1,영업/정상,0000,정상,,서울특별시 성동구 성수동1가 22-28번지 1층,"서울특별시 성동구 성수일로 33, 1층 (성수동1가, 정인숙보습학원)",4779.0,포레동물병원,2019-03-08 02:40:00.0,35.30692846764929,129.7359094800128
4578,321000001019990002,1,영업/정상,0000,정상,,서울특별시 서초구 서초동 1332-7,"서울특별시 서초구 사임당로 139, 104호 (서초동)",6624.0,서이동물병원,2021-11-06 02:40:00.0,35.28898889993422,129.67204384268572
4579,321000001020040004,1,영업/정상,0000,정상,,서울특별시 서초구 우면동 66-2 우면세신상가 201호,"서울특별시 서초구 바우뫼로7길 8, 201호 (우면동,우면세신상가)",,우면동물병원,2021-09-05 02:40:00.0,35.28996774766472,129.6465599495995
4580,303000001020140001,1,영업/정상,0000,정상,,서울특별시 성동구 하왕십리동 892-4번지,서울특별시 성동구 왕십리로 381 (하왕십리동),4710.0,왕십리조은동물병원,2019-02-10 02:40:00.0,35.28937842136932,129.76084355712192
4581,303000001020140002,1,영업/정상,0000,정상,,서울특별시 성동구 용답동 74-2번지,서울특별시 성동구 천호대로 288 (용답동),4804.0,24시LC동물의료센터,2018-11-07 02:36:02.0,35.309106318129935,129.76376795571142
4582,314000001020170003,1,영업/정상,0000,정상,,"서울특별시 양천구 신정동 329 목동신시가지아파트14단지 B상가 117,호","서울특별시 양천구 목동동로 130, 117, 118호 (신정동, 목동신시가지아파트14단지)",8018.0,페토브 동물병원,2021-06-04 02:40:00.0,35.16532586620758,129.69781349777844
4583,314000001020170004,1,영업/정상,0000,정상,,서울특별시 양천구 신정동 1182-11,"서울특별시 양천구 중앙로 237, 1층 (신정동)",8073.0,24시 서울 탑 동물병원,2020-09-30 02:40:00.0,35.15198410579499,129.699268967608
4584,321000001020030002,1,영업/정상,0000,정상,,서울특별시 서초구 방배동 790-27번지,서울특별시 서초구 방배중앙로 149 (방배동),6560.0,수동물병원,2019-01-13 02:40:00.0,35.2583899710288,129.67191938671397
4585,321000001020030003,1,영업/정상,0000,정상,,서울특별시 서초구 방배동 898-3,"서울특별시 서초구 서초대로 108, 2층 (방배동)",6664.0,내방동물병원,2020-11-12 02:40:00.0,35.26463546789907,129.66599092462764
4586,303000001020160007,1,영업/정상,0000,정상,,서울특별시 성동구 옥수동 528번지 이편한세상옥수파크힐스,"서울특별시 성동구 매봉길 50 (옥수동, 이편한세상옥수파크힐스)",4731.0,스테이동물병원,2019-04-27 02:40:00.0,35.27870504064035,129.74068100853916
4587,321000001019990003,1,영업/정상,0000,정상,,서울특별시 서초구 반포동 56-1번지,서울특별시 서초구 서초중앙로 245 (반포동),,신반포종합동물병원,2019-01-13 02:40:00.0,35.27747562141559,129.68578873874912
4588,314000001020170005,1,영업/정상,0000,정상,,서울특별시 양천구 목동 507-2 덕수프라자,"서울특별시 양천구 목동중앙북로 73, 덕수프라자 2층 (목동)",7947.0,두암동물병원,2020-11-03 02:40:00.0,35.16535679346709,129.73517709127188
4589,314000001020170006,1,영업/정상,0000,정상,,서울특별시 양천구 신정동 202-13 쌍용빌딩 4층,"서울특별시 양천구 목동남로2길 21, 쌍용빌딩 4층 (신정동)",8104.0,캐슬동물종합병원,2020-11-14 02:40:00.0,35.1609307859735,129.68746256692685
4590,321000001020110002,1,영업/정상,0000,정상,,서울특별시 서초구 반포동 20-45 반포자이프라자 133호,"서울특별시 서초구 잠원로 24 (반포동,반포자이프라자 133호)",,24시예스동물병원,2020-11-17 02:40:00.0,35.27661518387371,129.69036143839733
4591,312000001020040004,1,영업/정상,0000,정상,,서울특별시 서대문구 영천동 299,서울특별시 서대문구 통일로 197 (영천동),3734.0,우리동물병원,2021-07-30 02:40:00.0,35.23623821480345,129.7667937303391
4592,312000001020040006,1,영업/정상,0000,정상,,서울특별시 서대문구 홍제동 90-67번지,서울특별시 서대문구 통일로 375 (홍제동),3730.0,빛가온동물병원,2019-01-13 02:40:00.0,35.22635807593155,129.78181950654854
4593,321000001020000001,1,영업/정상,0000,정상,,서울특별시 서초구 양재동 2-43 동리빌딩,"서울특별시 서초구 논현로 173, 동리빌딩 1층 (양재동)",6739.0,레스펫동물병원,2021-06-16 02:40:00.0,35.30224308547986,129.6641410520374
4594,314000001020150002,1,영업/정상,0000,정상,,"서울특별시 양천구 목동 903번지 목동신시가지아파트3단지 상가동 105호, 204호","서울특별시 양천구 목동서로 100, 상가동 105, 204호 (목동, 목동신시가지아파트3단지)",7982.0,파리스동물병원,2019-08-10 02:40:00.0,35.166934496194244,129.71998876683017
4595,314000001020150003,1,영업/정상,0000,정상,,서울특별시 양천구 신정동 1320-2번지 신정프라자 203호,"서울특별시 양천구 신정이펜2로 22, 203호 (신정동, 신정프라자)",8049.0,구름동물병원,2018-08-31 23:59:59.0,35.135330588717785,129.69287317593302
4596,314000001020150004,1,영업/정상,0000,정상,,서울특별시 양천구 신정동 321-6번지 센트럴프라자 104호,"서울특별시 양천구 목동서로 349, 104호 (신정동, 센트럴프라자)",8095.0,공원옆동물병원,2018-08-31 23:59:59.0,35.16143980179459,129.699278731308
4597,314000001020160001,1,영업/정상,0000,정상,,서울특별시 양천구 신정동 1028-4번지,서울특별시 양천구 신월로 320 (신정동),8082.0,밀리언동물병원,2019-03-08 02:40:00.0,35.15415155711106,129.70371457652257
4598,314000001020160002,1,영업/정상,0000,정상,,서울특별시 양천구 목동 408-115,"서울특별시 양천구 오목로 280, 1층 (목동)",8003.0,리베동물메디컬센터,2021-08-14 02:40:00.0,35.16341330990427,129.7086759479405
4599,321000001020160003,1,영업/정상,0000,정상,,"서울특별시 서초구 방배동 442-3 대광빌딩 1,2층","서울특별시 서초구 동작대로 36, 1,2층 (방배동, 대광빌딩)",6691.0,VIP동물의료센터 서초동작점,2022-01-13 02:40:00.0,35.25531021626964,129.65618924987245
4600,321000001020160004,1,영업/정상,0000,정상,,서울특별시 서초구 서초동 1624-1 영빌딩,"서울특별시 서초구 서초중앙로 72, 영빌딩 1층 105호,  층 2층 205호 (서초동)",6640.0,서초M동물의료센터,2021-01-30 02:40:00.0,35.28115275156109,129.66747595007553
4601,321000001020170001,1,영업/정상,0000,정상,,서울특별시 서초구 방배동 464-11번지,"서울특별시 서초구 방배천로8길 34, 1층 (방배동)",6691.0,이삭동물병원,2019-01-16 02:40:00.0,35.257071440574045,129.6571531814623
4602,303000001020080001,1,영업/정상,0000,정상,,서울특별시 성동구 행당동 346번지 한진노변상가 109호,"서울특별시 성동구 행당로 76, 한진노변상가 1,2층 108호109호203호 (행당동)",4717.0,이윤세동물병원,2019-03-08 02:40:00.0,35.29067936964046,129.75029412238527
4603,303000001020100001,1,영업/정상,0000,정상,,서울특별시 성동구 행당동 226-3번지,서울특별시 성동구 왕십리로 282 (행당동),4751.0,한양동물메디컬센터,2019-03-08 02:40:00.0,35.29678296246105,129.75511563216398
4604,301000001020110002,1,영업/정상,0000,정상,,서울특별시 중구 만리동2가 288번지 서울역한라비발디센트럴,"서울특별시 중구 만리재로 177, 105호 (만리동2가, 서울역한라비발디센트럴)",4501.0,백슬동물병원,2019-03-08 02:40:00.0,35.24025720538304,129.7467500273661
4605,314000001020020004,1,영업/정상,0000,정상,,서울특별시 양천구 목동 613-8번지 혜인빌딩,"서울특별시 양천구 등촌로 218, 혜인빌딩 (목동)",7946.0,혜인종합 동물병원,2019-01-18 02:40:00.0,35.15935393320238,129.7377600371341
4606,314000001020170001,1,영업/정상,0000,정상,,서울특별시 양천구 신정동 1052-3,서울특별시 양천구 중앙로 230 (신정동),8091.0,다온동물병원,2021-01-29 02:40:00.0,35.15280287584093,129.69863582054816
4607,311000001020090002,1,영업/정상,0000,정상,,서울특별시 은평구 응암동 107-12번지,서울특별시 은평구 응암로 286 (응암동),3465.0,야옹동물병원,2019-03-08 02:40:00.0,35.202737227906404,129.79741424417352
4608,321000001020180001,1,영업/정상,0000,정상,,서울특별시 서초구 반포동 18-3번지 래미안퍼스티지 중심상가 143호,"서울특별시 서초구 반포대로 287, 래미안퍼스티지 중심상가 1층 143호 (반포동)",6547.0,신세계 동물병원,2019-01-16 02:40:00.0,35.26953491452985,129.68672840013798
4609,311000001020160001,1,영업/정상,0000,정상,,서울특별시 은평구 진관동 82번지 은평뉴타운우물골아파트 두산위브 202동 B01호,"서울특별시 은평구 진관2로 67, 202동 B층 01호 (진관동, 은평뉴타운우물골아파트)",3306.0,서울햇빛동물병원,2019-03-08 02:40:00.0,35.205274205559675,129.84332312096336
4610,321000001020060004,1,영업/정상,0000,정상,,서울특별시 서초구 반포동 91-10,서울특별시 서초구 서래로 38 (반포동),6577.0,서래동물병원,2020-11-21 02:40:00.0,35.26784351897118,129.67937787528444
4611,311000001020100001,1,영업/정상,0000,정상,,서울특별시 은평구 진관동 5번지 은평뉴타운상림마을 629동 116호,"서울특별시 은평구 진관4로 87, 629동 116호 (진관동, 은평뉴타운상림마을)",3304.0,한빛동물병원,2018-08-31 23:59:59.0,35.2083137453492,129.8597255132669
4612,321000001020180002,1,영업/정상,0000,정상,,서울특별시 서초구 방배동 871-3 동오빌딩,"서울특별시 서초구 서초대로15길 8-10, 동오빌딩 1층 (방배동)",6571.0,HELP 유기동물 의료센터,2021-11-14 02:40:00.0,35.26189915910089,129.66553499939596
4613,321000001020180004,1,영업/정상,0000,정상,,서울특별시 서초구 방배동 951-3 대진빌딩,"서울특별시 서초구 서초대로4길 4, 대진빌딩 1층 (방배동)",6675.0,심바동물병원,2021-07-21 02:40:00.0,35.25759037944893,129.66332912081788
4614,321000001020180005,1,영업/정상,0000,정상,,서울특별시 서초구 잠원동 58-24 뉴타운,"서울특별시 서초구 신반포로 257, 뉴타운 지하1층 (잠원동)",6523.0,해뜨는 동물병원 해질녘책방,2021-06-11 02:40:00.0,35.27928317404639,129.69349121130048
4615,306000001020130001,1,영업/정상,0000,정상,,서울특별시 중랑구 상봉동 99-10,"서울특별시 중랑구 망우로 315, 2층 (상봉동)",2098.0,닥터 아이펫 동물병원,2021-06-03 02:40:00.0,35.3358311293799,129.80231818264866
4616,306000001020140001,1,영업/정상,0000,정상,,서울특별시 중랑구 신내동 645번지 홈플러스 2층,"서울특별시 중랑구 신내로 201, 2층 (신내동, 홈플러스)",2024.0,도그플러스 동물병원,2018-08-31 23:59:59.0,35.340286195184504,129.8251355488775
4617,306000001020140002,1,영업/정상,0000,정상,,서울특별시 중랑구 신내동 405-5번지,"서울특별시 중랑구 봉화산로 232, B동 1층 (신내동)",2067.0,행복이 있는 동물병원,2018-08-31 23:59:59.0,35.34417582382925,129.8155422144558
4618,306000001020160001,1,영업/정상,0000,정상,,서울특별시 중랑구 면목동 17-31번지,"서울특별시 중랑구 용마산로 434 (면목동, 청파빌딩)",2189.0,보담동물병원,2018-08-31 23:59:59.0,35.34393964474943,129.79372507027102
4619,303000001020160004,1,영업/정상,0000,정상,,서울특별시 성동구 금호동2가 1217번지 래미안하이리버 상가동 비201호,"서울특별시 성동구 금호로 105, 비201호 (금호동2가, 래미안하이리버 상가동)",4728.0,금호동물병원,2019-06-30 02:40:00.0,35.287095861725255,129.74457595996816
4620,314000001020130005,1,영업/정상,0000,정상,,서울특별시 양천구 목동 603-2번지 대우마이빌 102호,"서울특별시 양천구 공항대로 552 (목동, 대우마이빌 102호)",7946.0,오라고동물병원,2018-08-31 23:59:59.0,35.16173185374548,129.73826653816081
4621,314000001020140002,1,영업/정상,0000,정상,,서울특별시 양천구 목동 799-1번지 1층,"서울특별시 양천구 목동중앙서로 42, 1층 (목동)",7967.0,팜랜드동물병원,2018-08-31 23:59:59.0,35.16342488166306,129.718024631164
4622,314000001020140003,1,영업/정상,0000,정상,,서울특별시 양천구 목동 531-13번지 101호,"서울특별시 양천구 목동중앙본로 100, 101호 (목동)",7973.0,대현동물병원,2018-08-31 23:59:59.0,35.16503695587202,129.73224733282998
4623,314000001020140004,1,영업/정상,0000,정상,,서울특별시 양천구 신월동 130-5번지 1층,"서울특별시 양천구 남부순환로 421, 1층 (신월동)",7921.0,서서울호수동물병원,2019-03-08 02:40:00.0,35.13478453955801,129.71402904120922
4624,303000001020130006,1,영업/정상,0000,정상,,서울특별시 성동구 금호동4가 800번지 금호동대우아파트 상가동 206호,"서울특별시 성동구 독서당로 270, 상가동 2층 206호 (금호동4가, 금호동 대우아파트)",4738.0,바른동물병원,2018-08-31 23:59:59.0,35.28337910032851,129.73796169791873
4625,303000001020130007,1,영업/정상,0000,정상,,서울특별시 성동구 마장동 791-9번지,서울특별시 성동구 마장로 296 (마장동),4758.0,기린동물병원,2018-08-31 23:59:59.0,35.3011958834589,129.76262293256684
4626,321000001020140001,1,영업/정상,0000,정상,,서울특별시 서초구 방배동 758-2번지,"서울특별시 서초구 방배로 269, 109호 (방배동)",6553.0,한나동물병원,2019-01-16 02:40:00.0,35.25929933441962,129.6770028448523
4627,321000001020140003,1,영업/정상,0000,정상,,서울특별시 서초구 우면동 737 6단지상가 104호,서울특별시 서초구 태봉로2길 30 (우면동),6764.0,서초힐스동물병원,2020-11-21 02:40:00.0,35.29110829080863,129.63513292982753
4628,311000001019960001,1,영업/정상,0000,정상,,서울특별시 은평구 신사동 20-24번지,서울특별시 은평구 은평로 29 (신사동),3423.0,늘푸른동물병원,2020-05-31 02:40:00.0,35.19550832806059,129.79874708347268
4629,321000001020070002,1,영업/정상,0000,정상,,서울특별시 서초구 방배동 984-1 머리재빌딩 105호,"서울특별시 서초구 방배로 76, 머리재빌딩 1층 105호 (방배동)",6704.0,프렌즈동물병원,2020-09-18 02:40:00.0,35.26815471139639,129.65846008692577
4630,321000001020100005,1,영업/정상,0000,정상,,서울특별시 서초구 방배동 915-10 우성빌딩,"서울특별시 서초구 효령로 95, 우성빌딩 1층 (방배동)",6687.0,반려동물 의료센터 다울,2021-02-04 02:40:00.0,35.26519373606657,129.65784429757662
4631,321000001020030011,1,영업/정상,0000,정상,,서울특별시 서초구 서초동 1343-1,서울특별시 서초구 효령로 384 (서초동),,메디펫 동물병원,2021-09-10 02:40:00.0,35.289961045484816,129.66695578818303
4632,321000001020150001,1,영업/정상,0000,정상,,서울특별시 서초구 반포동 19-1 르본시티 2층,"서울특별시 서초구 신반포로 162 (반포동, 르본시티 2층)",6546.0,헬릭스동물메디컬센터,2021-05-01 02:40:00.0,35.27050607188586,129.68742975379112
4633,321000001020160001,1,영업/정상,0000,정상,,서울특별시 서초구 서초동 1538-9 유민빌딩 1층,"서울특별시 서초구 반포대로 89, 1층 (서초동, 유민빌딩)",6657.0,에이원동물병원,2020-09-24 02:40:00.0,35.27653914889108,129.66720119626154
4634,311000001019960002,1,영업/정상,0000,정상,,서울특별시 은평구 녹번동 117-112번지,서울특별시 은평구 통일로 697 (녹번동),3375.0,녹번동물병원,2018-08-31 23:59:59.0,35.21172173914226,129.81126227872144
4635,314000001020040005,1,영업/정상,0000,정상,,서울특별시 양천구 신월동 546-25,서울특별시 양천구 신월로 149 (신월동),8032.0,파란종합 동물병원,2020-10-18 02:40:00.0,35.14136379753587,129.6987430056212
4636,311000001020070004,1,영업/정상,0000,정상,,서울특별시 은평구 대조동 179-8번지,서울특별시 은평구 서오릉로 86 (대조동),3392.0,은평동물병원,2019-11-24 02:40:00.0,35.203818973192796,129.8107416735905
4637,321000001020040005,1,영업/정상,0000,정상,,서울특별시 서초구 양재동 257-2,서울특별시 서초구 마방로6길 18 (양재동),6777.0,사랑의동물병원,2020-11-07 02:40:00.0,35.30323313775855,129.6518539448968
4638,321000001020040006,1,영업/정상,0000,정상,,서울특별시 서초구 양재동 377-4,서울특별시 서초구 동산로 66 (양재동),,한 동물병원,2020-11-17 02:40:00.0,35.30635043167616,129.64835162246885
4639,303000001020030001,1,영업/정상,0000,정상,,서울특별시 성동구 옥수동 263-1번지,서울특별시 성동구 독서당로 200 (옥수동),,함께하는동물병원,2019-03-08 02:40:00.0,35.27824476512012,129.73418486918803
4640,321000001020000006,1,영업/정상,0000,정상,,서울특별시 서초구 반포동 722-29,서울특별시 서초구 강남대로 525-3 (반포동),6536.0,라파엘동물병원,2020-10-17 02:40:00.0,35.28616662751843,129.6926930766201
4641,314000001020060001,1,영업/정상,0000,정상,,서울특별시 양천구 신월동 972-6,서울특별시 양천구 지양로 52 (신월동),8040.0,일오삼동물병원,2020-11-12 02:40:00.0,35.137025928294506,129.7022027429047
4642,314000001020060003,1,영업/정상,0000,정상,,서울특별시 양천구 목동 515-1,서울특별시 양천구 공항대로 636 (목동),7968.0,행복한동물병원,2020-11-12 02:40:00.0,35.16855597826208,129.73506560497162
4643,314000001020120001,1,영업/정상,0000,정상,,서울특별시 양천구 신정동 995-4번지,서울특별시 양천구 목동로 181 (신정동),8022.0,상아동물병원,2018-08-31 23:59:59.0,35.160381020839445,129.70797382171537
4644,314000001020120002,1,영업/정상,0000,정상,,서울특별시 양천구 목동 907-10번지,서울특별시 양천구 목동서로 57 (목동),7983.0,목동 동물병원,2019-04-28 02:40:00.0,35.17236491970291,129.7229795163627
4645,306000001020170001,1,영업/정상,0000,정상,,서울특별시 중랑구 중화동 207-6번지,"서울특별시 중랑구 망우로 241, 지하1층 (중화동, 영해빌딩)",2117.0,한국동물영상의학센터,2018-08-31 23:59:59.0,35.329494957487455,129.79942389064223
4646,306000001020180001,1,영업/정상,0000,정상,,서울특별시 중랑구 상봉동 137-16번지,서울특별시 중랑구 중랑천로 81 (상봉동),2118.0,중랑차 동물병원,2019-07-03 02:40:00.0,35.32417519102583,129.7960577311323
4647,301000001020140001,1,영업/정상,0000,정상,,서울특별시 중구 신당동 44-17번지,"서울특별시 중구 다산로36길 83, 1층 (신당동)",4584.0,좋아요 동물병원,2019-11-29 02:40:00.0,35.282517047307536,129.75568095192648
4648,303000001020120003,1,영업/정상,0000,정상,,서울특별시 성동구 행당동 344번지 111호,"서울특별시 성동구 독서당로59길 84, 신동아아파트상가동 1층 111호 (행당동)",4716.0,도담동물병원(출장진료전문 동물병원),2019-03-08 02:40:00.0,35.293609015603295,129.7485534319434
4649,303000001020130001,1,영업/정상,0000,정상,,서울특별시 성동구 홍익동 398-2번지,서울특별시 성동구 무학로 16 (홍익동),4707.0,라임동물병원,2019-03-08 02:40:00.0,35.291290746176685,129.76209521039698
4650,306000001019910001,1,영업/정상,0000,정상,,서울특별시 중랑구 묵동 175-2번지 3층,"서울특별시 중랑구 동일로 920, 3층 (묵동)",2033.0,태능동물병원,2019-04-04 02:40:00.0,35.327517200985476,129.82077353034245
4651,306000001019920001,1,영업/정상,0000,정상,,서울특별시 중랑구 면목동 497-7번지 혜원동물병원,"서울특별시 중랑구 면목로 341, 혜원동물병원 (면목동)",2228.0,혜원동물병원,2018-10-12 23:59:59.0,35.33691599886861,129.7841979733005
4652,306000001019950001,1,영업/정상,0000,정상,,서울특별시 중랑구 면목동 353-4번지,서울특별시 중랑구 면목로 269 (면목동),2240.0,보람동물병원,2019-03-08 02:40:00.0,35.33505057763694,129.77763485159423
4653,306000001019960001,1,영업/정상,0000,정상,,서울특별시 중랑구 면목동 102-51번지,서울특별시 중랑구 겸재로 187 (면목동),2161.0,엔젤동물병원,2019-03-08 02:40:00.0,35.33679099548651,129.79206188313557
4654,306000001019970001,1,영업/정상,0000,정상,,서울특별시 중랑구 묵동 239-76번지,"서울특별시 중랑구 동일로 899, 1층 (묵동)",2006.0,홍상희동물병원,2018-08-31 23:59:59.0,35.32742314771428,129.81841403400225
4655,306000001020000001,1,영업/정상,0000,정상,,서울특별시 중랑구 면목동 225-7,"서울특별시 중랑구 면목로 442-1, 1층 (면목동)",2160.0,하스펫탈동물병원,2021-06-20 02:40:00.0,35.33558693262922,129.79540588220473
4656,314000001020060004,1,영업/정상,0000,정상,,서울특별시 양천구 목동 601-6,서울특별시 양천구 목동중앙북로 37 (목동),7947.0,미니주동물병원,2020-11-12 02:40:00.0,35.162511220903475,129.73652600256693
4657,306000001020000002,1,영업/정상,0000,정상,,서울특별시 중랑구 중화동 11-36번지 삼일시티빌 1층,"서울특별시 중랑구 봉화산로 103, 1층 (중화동, 삼일시티빌)",2048.0,신내동물병원,2018-08-31 23:59:59.0,35.3342752031078,129.80895838590973
4658,306000001020010003,1,영업/정상,0000,정상,,서울특별시 중랑구 중화동 303-16번지 진정훈동물병원,"서울특별시 중랑구 동일로 777, 진정훈동물병원 (중화동)",2102.0,진정훈동물병원,2018-10-12 23:59:59.0,35.329415299098656,129.80543144439875
4659,306000001020010004,1,영업/정상,0000,정상,,서울특별시 중랑구 면목동 634-5,서울특별시 중랑구 면목로 311 (면목동),2238.0,성지동물병원,2021-08-01 02:40:00.0,35.33657424644379,129.78121309032673
4660,306000001020020003,1,영업/정상,0000,정상,,서울특별시 중랑구 망우동 364-27번지 금란동물병원,"서울특별시 중랑구 용마산로 532, 금란동물병원 (망우동)",2176.0,금란동물병원,2019-04-12 02:40:00.0,35.346228810560426,129.80418072153836
4661,306000001020020004,1,영업/정상,0000,정상,,서울특별시 중랑구 중화동 207 지하1층,"서울특별시 중랑구 망우로 247, 지하1층 (중화동, 로얄스포츠센터)",2117.0,24시 동물응급의료센터,2021-08-13 02:40:00.0,35.32995818616902,129.79992061797813
4662,312000001020030005,1,영업/정상,0000,정상,,서울특별시 서대문구 연희동 89-9번지,서울특별시 서대문구 연희로25길 101 (연희동),3699.0,연희동물병원,2019-01-13 02:40:00.0,35.213058430956025,129.76387306239536
4663,321000001020080005,1,영업/정상,0000,정상,,서울특별시 서초구 잠원동 49-8번지,"서울특별시 서초구 잠원로 221, 상가동 2층 (잠원동, 한강아파트)",6514.0,리즈동물병원,2019-06-16 02:40:00.0,35.280437490190515,129.7077954867201
4664,303000001020030006,1,영업/정상,0000,정상,,서울특별시 성동구 행당동 346번지 한진노변상가 110호,"서울특별시 성동구 행당로 76, 110호 (행당동, 한진노변상가)",4717.0,평화와생명동물병원,2019-03-08 02:40:00.0,35.29067936964046,129.75029412238527
4665,314000001020030011,1,영업/정상,0000,정상,,서울특별시 양천구 목동 773-3 106호,"서울특별시 양천구 목동중앙로 43 (목동,106호)",,리즈동물병원,2020-11-12 02:40:00.0,35.16420296126522,129.71890207526317
4666,314000001020040001,1,영업/정상,0000,정상,,서울특별시 양천구 신정동 337-7,서울특별시 양천구 목동남로4길 6-11 (신정동),8104.0,참사랑동물병원,2021-06-01 02:40:00.0,35.16136045318981,129.68798537532132
4667,311000001020020003,1,영업/정상,0000,정상,,서울특별시 은평구 갈현동 462-25번지,서울특별시 은평구 연서로 185 (갈현동),3334.0,금쪽같은내새끼 동물병원,2018-08-31 23:59:59.0,35.20046145046229,129.8197401698632
4668,311000001020020004,1,영업/정상,0000,정상,,서울특별시 은평구 신사동 9-34번지,서울특별시 은평구 갈현로 35 (신사동),3435.0,한마음동물병원,2018-08-31 23:59:59.0,35.194725959905504,129.8020489539
4669,311000001020170002,1,영업/정상,0000,정상,,서울특별시 은평구 진관동 83번지 은평뉴타운우물골 205동 B104호,"서울특별시 은평구 진관2로 77, 205동 지하1층 B104호 (진관동, 은평뉴타운우물골)",3306.0,우리덕구동물병원,2019-03-08 02:40:00.0,35.20767157494602,129.84338139001588
4670,311000001020170003,1,영업/정상,0000,정상,,서울특별시 은평구 증산동 202-27번지 지하1층,"서울특별시 은평구 증산로9길 26-23, 지하1층 (증산동)",3496.0,가든펫동물병원,2019-03-08 02:40:00.0,35.193871678443486,129.78489766104371
4671,311000001019750002,1,영업/정상,0000,정상,,서울특별시 은평구 응암동 119-17번지,서울특별시 은평구 응암로 261 (응암동),3455.0,응암동물병원,2018-08-31 23:59:59.0,35.20142127624931,129.79529172179903
4672,311000001019880001,1,영업/정상,0000,정상,,서울특별시 은평구 갈현동 394-19번지,서울특별시 은평구 통일로 879 (갈현동),3329.0,김정복동물병원,2019-03-08 02:40:00.0,35.20167928894215,129.82711693436366
4673,311000001019900001,1,영업/정상,0000,정상,,서울특별시 은평구 불광동 274-10번지,서울특별시 은평구 불광로 37 (불광동),3358.0,불광동물병원,2020-05-30 02:40:00.0,35.210074652616676,129.81514420004888
4674,311000001019950001,1,영업/정상,0000,정상,,서울특별시 은평구 응암동 576-25번지,서울특별시 은평구 응암로 226 (응암동),3467.0,한얼동물병원,2018-08-31 23:59:59.0,35.2011691976402,129.79136051634111
4675,318000001020000001,1,영업/정상,0000,정상,,서울특별시 영등포구 신길동 3611번지,서울특별시 영등포구 신길로 70 (신길동),7436.0,신풍동물종합병원,2020-04-29 02:40:00.0,35.19621259072701,129.67742117952432
4676,318000001019880002,1,영업/정상,0000,정상,,서울특별시 영등포구 신길동 628번지,서울특별시 영등포구 여의대방로35길 1 (신길동),,대방동물병원,2018-08-31 23:59:59.0,35.20558507028409,129.68110960432256
4677,306000001020050003,1,영업/정상,0000,정상,,서울특별시 중랑구 신내동 646번지 금강리빙스텔 119호,"서울특별시 중랑구 신내로 211, 119호 (신내동, 금강리빙스텔)",2024.0,쥬라기동물병원,2018-08-31 23:59:59.0,35.33940750903903,129.82575194833188
4678,306000001020060001,1,영업/정상,0000,정상,,서울특별시 중랑구 면목동 353-25번지,서울특별시 중랑구 면목로 273 (면목동),,주연동물병원,2018-08-31 23:59:59.0,35.33500665650398,129.7779619808122
4679,306000001020060002,1,영업/정상,0000,정상,,서울특별시 중랑구 신내동 571-8번지,서울특별시 중랑구 신내로10길 7 (신내동),2069.0,진서동물병원,2019-03-08 02:40:00.0,35.342330231518154,129.8116673838003
4680,306000001020060003,1,영업/정상,0000,정상,,서울특별시 중랑구 망우동 490-7번지 신인빌딩,"서울특별시 중랑구 망우로 396, 신인빌딩 (망우동)",2163.0,세진동물병원,2019-03-08 02:40:00.0,35.342769950206026,129.80433855307513
4681,306000001020060006,1,영업/정상,0000,정상,,서울특별시 중랑구 면목동 103-4 1층,"서울특별시 중랑구 겸재로 207, 1층 (면목동)",2162.0,숲속동물병원,2021-08-01 02:40:00.0,35.33851793116024,129.79275537529523
4682,312000001020050001,1,영업/정상,0000,정상,,서울특별시 서대문구 북아현동 136-21번지 e편한세상신촌 4단지,"서울특별시 서대문구 신촌로35길 10, 지하1층 424호 (북아현동, e편한세상신촌 4단지)",3772.0,마음을 나누는 동물병원,2018-10-03 02:35:32.0,35.23188728097571,129.75068523721583
4683,312000001020010002,1,영업/정상,0000,정상,,서울특별시 서대문구 홍은동 217-30번지 나호,서울특별시 서대문구 통일로 489 (홍은동),3647.0,신영동물병원,2019-05-25 02:40:00.0,35.21947933236834,129.79150810078565
4684,306000001020080001,1,영업/정상,0000,정상,,서울특별시 중랑구 중화동 207,서울특별시 중랑구 망우로 247 (중화동),2117.0,로얄동물메디컬센터,2021-08-13 02:40:00.0,35.32995818616902,129.79992061797813
4685,306000001020090001,1,영업/정상,0000,정상,,서울특별시 중랑구 면목동 606-6번지,서울특별시 중랑구 사가정로 363 (면목동),2227.0,면목동물병원,2018-11-01 02:36:04.0,35.33425307604832,129.78271995495425
4686,306000001020100001,1,영업/정상,0000,정상,,서울특별시 중랑구 신내동 648번지 디아뜨갤러리,"서울특별시 중랑구 신내로 225, 디아뜨갤러리 142호 (신내동)",2024.0,하니동물병원,2018-10-12 23:59:59.0,35.3382878011943,129.82648257991673
4687,306000001020100002,1,영업/정상,0000,정상,,"서울특별시 중랑구 면목동 119-10 1,2층","서울특별시 중랑구 겸재로 165, 1,2층 (면목동)",2145.0,한국동물메디컬센터(KAMC),2021-06-03 02:40:00.0,35.334843662865715,129.79125800456106
4688,312000001020020001,1,영업/정상,0000,정상,,서울특별시 서대문구 연희동 88-20번지,서울특별시 서대문구 연희로 132 (연희동),3723.0,라파엘종합동물병원,2019-01-13 02:40:00.0,35.21382702230407,129.76396142295727
4689,312000001020020002,1,영업/정상,0000,정상,,서울특별시 서대문구 남가좌동 381번지,"서울특별시 서대문구 거북골로 120 (남가좌동, DMC센트레빌아파트)",3690.0,프란다스동물병원,2019-01-13 02:40:00.0,35.19981029480442,129.77173753886797
4690,373000001020180002,1,영업/정상,0000,정상,,울산광역시 울주군 삼동면 하잠리 818번지,"울산광역시 울주군 삼동면 삼동로 751, 2층",44956.0,삼동종합가축병원약품,2020-04-23 02:40:00.0,37.06152925997914,127.29870388645693
4691,563000001020180003,1,영업/정상,0000,정상,,경기도 용인시 기흥구 신갈동 69-7번지,"경기도 용인시 기흥구 중부대로 364, 2층 (신갈동)",17064.0,24시 쓰담쓰담 동물메디컬 센터,2019-01-18 02:40:00.0,35.36064093032598,129.40524791019757
4692,511000001020180001,1,영업/정상,0000,정상,,경상북도 상주시 사벌국면 덕담리 444-2번지,경상북도 상주시 사벌국면 덕담1길 86,37127.0,더존 동물병원,2020-05-30 02:40:00.0,36.268358415330006,128.45004940440546
4693,323000001020180010,1,영업/정상,0000,정상,,서울특별시 송파구 송파동 15-6번지,서울특별시 송파구 송파대로 450 (송파동),5625.0,샤인동물메디컬센터,2020-05-28 02:40:00.0,35.35329919248298,129.6926238141239
4694,309000001020180006,1,영업/정상,0000,정상,,서울특별시 도봉구 도봉동 562-26번지,서울특별시 도봉구 도봉로 875 (도봉동),1304.0,도담동물병원,2019-05-01 02:40:00.0,35.29999442425321,129.90527932823596
4696,573500001020190001,1,영업/정상,0000,정상,,충청북도 청주시 청원구 오창읍 양청리 769-5번지 보람타운(103호),"충청북도 청주시 청원구 오창읍 양청1길 21, 보람타운",28115.0,오성동물병원,2019-01-17 02:20:51.0,35.629563140567136,128.73873630853856
4697,363000001020190002,1,영업/정상,0000,정상,,광주광역시 광산구 월계동 893-9번지,"광주광역시 광산구 월계로 203, 123호 (월계동)",62277.0,비타민동물병원,2019-09-01 02:40:00.0,35.173761490607994,126.89389324558894
4698,525000001020190001,1,영업/정상,0000,정상,,경상북도 울진군 울진읍 읍내리 219-6 킴스동물병원,"경상북도 울진군 울진읍 울진중앙로 39, 킴스동물병원",36326.0,킴스동물병원,2021-03-28 02:40:00.0,37.20303533450672,129.13586351354726
4699,378000001020190002,1,영업/정상,0000,정상,,경기도 성남시 분당구 백현동 564-5번지 (주)코레드디엔씨 201호,"경기도 성남시 분당구 판교역로14번길 20, (주)코레드디엔씨 2층 201호 (백현동)",13536.0,365동판교동물병원,2019-11-24 02:40:00.0,35.360852069440725,129.54471532585555
4700,314000001020190001,1,영업/정상,0000,정상,,서울특별시 양천구 목동 721-1번지 목동한강팰리스,"서울특별시 양천구 등촌로 114, 목동한강팰리스 1층 (목동)",7957.0,가온동물병원,2019-01-31 02:21:05.0,35.15971890540708,129.72682664788869
4701,651000001020190002,1,영업/정상,0000,정상,,제주특별자치도 제주시 노형동 1897-5,제주특별자치도 제주시 월산남길 131 (노형동),63078.0,제주오름동물병원,2021-11-11 02:40:00.0,34.83500887376395,124.77324005282715
4702,560000001020190002,1,영업/정상,0000,정상,,경기도 포천시 영중면 양문리 550-6번지,경기도 포천시 영중면 호국로 2924,11128.0,큰동물병원,2019-03-09 02:40:00.0,35.44922528403097,130.30266576212074
4703,506000001020190001,1,영업/정상,0000,정상,,경상북도 김천시 율곡동 780번지 율곡스퀘어Ⅲ,"경상북도 김천시 혁신3로 5, 율곡스퀘어Ⅲ 1층 110호 (율곡동)",39660.0,율곡동물병원,2019-03-07 02:40:00.0,36.25454072696095,128.015711085162
4704,394000001020180003,1,영업/정상,0000,정상,,경기도 고양시 덕양구 화전동 219-14번지,"경기도 고양시 덕양구 중앙로 136, 102호 (화전동)",10538.0,경서동물병원,2019-04-30 02:40:00.0,35.1651479506648,129.80080884972358
4706,362000001020190002,1,영업/정상,0000,정상,,광주광역시 북구 운암동 68번지 벽산 블루밍 메가씨티 214호,"광주광역시 북구 서강로54번길 50, 214호 (운암동, 벽산 블루밍 메가씨티)",61260.0,24시 블루밍 동물병원,2020-02-26 02:40:00.0,35.1974409961162,126.84601969580008
4707,526000001020190001,1,영업/정상,0000,정상,,경상북도 울릉군 서면 남양리 608-5번지,경상북도 울릉군 서면 남양1길 8,40237.0,우산동물병원,2019-01-27 02:21:01.0,38.32302556729017,129.83236395109486
4708,308000001020190001,1,영업/정상,0000,정상,,서울특별시 강북구 미아동 42-11 덕신빌딩 4층,"서울특별시 강북구 월계로 3, 덕신빌딩 4층 (미아동)",1220.0,24시루시드동물메디컬센터,2021-10-24 02:40:00.0,35.29028774331809,129.81576501251632
4709,361000001020190001,1,영업/정상,0000,정상,,광주광역시 남구 진월동 264-3,광주광역시 남구 서문대로 665 (진월동),61727.0,은하수 동물병원,2020-10-21 02:40:00.0,35.215187259422365,126.77816918795864
4710,407000001020190001,1,영업/정상,0000,정상,,경기도 이천시 중리동 468-24,"경기도 이천시 중리천로 135, 미래캐슬2동 (중리동)",17373.0,24시큰사랑동물병원,2021-06-12 02:40:00.0,35.63384313510521,129.4194023196021
4711,573500001020190002,1,영업/정상,0000,정상,,충청북도 청주시 청원구 오창읍 장대리 294-2번지,충청북도 청주시 청원구 오창읍 오창시내5길 7,28129.0,새솔동물병원,2019-01-18 02:20:52.0,35.653048203984106,128.76665002469196
4712,502000001020190001,1,영업/정상,0000,정상,,경상북도 포항시 남구 효자동 594-4번지,경상북도 포항시 남구 형산강북로 99 (효자동),37836.0,관문동물병원,2019-02-17 02:40:00.0,37.19474831255808,127.90799598609105
4713,386000001020190002,1,영업/정상,0000,정상,,경기도 부천시 중동 1128 그린프라자,"경기도 부천시 부흥로303번길 62, 그린프라자 (중동)",14582.0,24시 웰니스 동물 의료센터,2020-12-05 02:40:00.0,35.09066054133279,129.67258914315954
4714,304000001020190001,1,영업/정상,0000,정상,,서울특별시 광진구 자양동 681번지,"서울특별시 광진구 자양로 48, 104호 (자양동)",5112.0,아이본 동물병원,2019-03-17 02:21:52.0,35.33633098064799,129.72318915241502
4715,531000001020190001,1,영업/정상,0000,정상,,경상남도 진주시 주약동 100-9번지,경상남도 진주시 진주대로 850 (주약동),52727.0,예스동물의료원,2019-03-30 02:40:00.0,36.19560666632887,126.85259112334595
4716,406000001020190001,1,영업/정상,0000,정상,,경기도 파주시 목동동 1136-3번지,"경기도 파주시 심학산로423번길 7-33, 준프라자 2층 201호 (목동동)",10900.0,산내동물병원,2019-02-27 02:21:34.0,35.05419178318456,129.9415852382031
4717,542000001020190001,1,영업/정상,0000,정상,,경상남도 고성군 회화면 배둔리 435-30번지,경상남도 고성군 회화면 배둔로 40,52915.0,유병국 동물병원,2019-11-09 02:40:00.0,36.424962635077854,126.70839732557708
4718,322000001020190002,1,영업/정상,0000,정상,,서울특별시 강남구 역삼동 834-45번지 동광빌딩 1층,"서울특별시 강남구 역삼로 138, 동광빌딩 1층 (역삼동)",6250.0,하나카동물병원,2019-02-21 02:40:00.0,35.29676597594538,129.67529818720837
4719,366000001020190001,1,영업/정상,0000,정상,,대전광역시 서구 둔산동 1383번지 햇님아파트 상가 112호,"대전광역시 서구 둔산북로 175, 1층 112호 (둔산동, 햇님아파트)",35243.0,다정한 동물병원,2019-03-08 02:40:00.0,35.609436460047114,128.29298165409324
4720,565000001020190001,1,영업/정상,0000,정상,,충청남도 천안시 동남구 신방동 1586,충청남도 천안시 동남구 통정12로 65 (신방동),31204.0,드림동물병원,2020-08-30 02:40:00.0,35.39375395971845,128.80224782475378
4721,347000001020190001,1,영업/정상,0000,정상,,대구광역시 달서구 월성동 1540-2번지 원더풀스파랜드 203호,"대구광역시 달서구 조암로 48, 원더풀스파랜드 203호 (월성동)",42754.0,돌봄동물메디컬클리닉,2019-02-27 02:21:34.0,36.538216837980016,127.66028964624657
4722,335000001020190001,1,영업/정상,0000,정상,,부산광역시 금정구 장전동 607-37,"부산광역시 금정구 식물원로 11, 2층 (장전동)",46301.0,휴동물의료센터,2021-08-05 02:40:00.0,37.01084294326151,126.92615447033742
4723,362000001020190001,1,영업/정상,0000,정상,,광주광역시 북구 신용동 710번지,"광주광역시 북구 첨단연신로91번길 30, 106, 107호 (신용동)",61087.0,마음동물병원,2019-03-19 02:40:00.0,35.184745853720116,126.88491760417567
4724,322000001020190001,1,영업/정상,0000,정상,,서울특별시 강남구 압구정동 426번지 현대아파트 상가 1동 201호,"서울특별시 강남구 압구정로 151, 상가 1동 201호 (압구정동, 현대아파트)",6001.0,튼튼동물병원,2019-01-31 02:40:00.0,35.287742840364416,129.71402203967673
4727,548000001020190001,1,영업/정상,0000,정상,,경상남도 합천군 합천읍 합천리 494-29번지,경상남도 합천군 합천읍 옥산로 26,50232.0,나라 동물병원,2019-11-13 02:40:00.0,36.24431514225692,127.33710788624562
4728,479000001020190001,1,영업/정상,0000,정상,,전라북도 부안군 부안읍 서외리 432-21번지,전라북도 부안군 부안읍 번영로 82-1,56311.0,닥터 홍 동물병원,2019-04-17 02:40:00.0,35.076904276523116,127.51779796543929
4729,535000001020190002,1,영업/정상,0000,정상,,경상남도 김해시 삼계동 1505-4번지 코아루센텀 오피스텔,"경상남도 김해시 해반천로130번길 39, 코아루센텀 오피스텔 2층 (삼계동)",50902.0,다봄 동물의료센터,2019-03-14 02:40:00.0,36.83368927418474,126.96739792056466
4730,362000001020190003,1,영업/정상,0000,정상,,광주광역시 북구 오치동 785-6,"광주광역시 북구 설죽로 298, 1,2층 (오치동)",61119.0,동행동물병원,2021-01-01 02:40:00.0,35.21536593788922,126.86006093794772
4731,554000001020190002,1,영업/정상,0000,정상,,경기도 광주시 태전동 162-5번지,"경기도 광주시 태전동로 25, 퍼스트타워 1층 104호 (태전동)",12787.0,하하동물병원,2019-01-10 02:20:44.0,35.45890099082314,129.54946142695604
4732,378000001020190001,1,영업/정상,0000,정상,,경기도 성남시 분당구 정자동 117-1번지 스포라이프 스포츠센타 107호,"경기도 성남시 분당구 내정로 58, 스포라이프 스포츠센타 107호 (정자동)",13607.0,분당데이지동물병원,2019-03-01 02:40:00.0,35.36438671615347,129.52030449216798
4733,324000001020190001,1,영업/정상,0000,정상,,서울특별시 강동구 강일동 679-2번지 MIDC빌딩,"서울특별시 강동구 아리수로 421, MIDC빌딩 101호 (강일동)",5211.0,아프리카동물병원,2019-03-31 02:20:09.0,35.40620264505738,129.76841579286454
4734,352000001020190001,1,영업/정상,0000,정상,,인천광역시 연수구 송도동 21-24,"인천광역시 연수구 신송로 165-19, 2층 201,202호 (송도동)",22002.0,라파엘 동물병원,2021-12-29 02:40:00.0,34.990326220109004,129.54730409162894
4735,353000001020190001,1,영업/정상,0000,정상,,인천광역시 남동구 논현동 733-5번지,"인천광역시 남동구 논고개로 80, 202호 (논현동)",21667.0,해와달동물병원,2019-03-27 02:20:05.0,35.05360536427905,129.55214872946547
4736,535000001020190001,1,영업/정상,0000,정상,,경상남도 김해시 삼계동 1413-3번지,경상남도 김해시 가야로 26 (삼계동),50896.0,성모동물병원,2019-02-09 02:21:15.0,36.82678361762626,126.97871514740784
4737,347000001019960001,1,영업/정상,0000,정상,,대구광역시 달서구 상인동 240-9번지,대구광역시 달서구 월곡로 249 (상인동),42786.0,가람동물병원,2019-05-11 02:40:00.0,36.55076045527058,127.65121778821339
4738,347000001019920001,1,영업/정상,0000,정상,,대구광역시 달서구 상인동 188-4번지,대구광역시 달서구 월배로39길 4-1 (상인동),42781.0,제이엘동물병원,2019-01-16 02:40:00.0,36.5466898943156,127.65329136946235
4739,347000001019950001,1,영업/정상,0000,정상,,대구광역시 달서구 두류동 487-25번지,대구광역시 달서구 달구벌대로 1736 (두류동),42646.0,광장동물병원,2019-04-19 02:40:00.0,36.56270788432757,127.70115717631961
4740,347000001019970001,1,영업/정상,0000,정상,,대구광역시 달서구 감삼동 105-1,대구광역시 달서구 달구벌대로 1658 (감삼동),42642.0,용산종합동물병원,2020-07-15 02:40:00.0,36.55649768651355,127.69729108267859
4741,347000001019990002,1,영업/정상,0000,정상,,대구광역시 달서구 이곡동 541-9번지,대구광역시 달서구 달구벌대로 1220 (이곡동),42703.0,온누리동물병원,2019-05-11 02:40:00.0,36.518572376604126,127.69333929912045
4742,347000001020000003,1,영업/정상,0000,정상,,대구광역시 달서구 이곡동 1000-125번지,대구광역시 달서구 달구벌대로 1328 (이곡동),42696.0,문종합동물병원,2019-01-16 02:40:00.0,36.528087476038124,127.69248792359251
4743,347000001020020002,1,영업/정상,0000,정상,,대구광역시 달서구 송현동 56-1번지 나동 2층,"대구광역시 달서구 구마로 218, 2층 (송현동)",42736.0,세림종합동물병원,2019-05-11 02:40:00.0,36.56018413680976,127.67636562001204
4744,347000001020050002,1,영업/정상,0000,정상,,대구광역시 달서구 이곡동 538-3,대구광역시 달서구 달구벌대로 1223 (이곡동),42612.0,미르동물병원,2020-12-11 02:40:00.0,36.518885365046856,127.694133170337
4745,342000001019900001,1,영업/정상,0000,정상,,대구광역시 동구 신암동 1476번지,대구광역시 동구 아양로 227 (신암동),,박동물병원,2019-03-10 02:40:00.0,36.62938782000979,127.74034417726712
4746,342000001019960001,1,영업/정상,0000,정상,,대구광역시 동구 효목동 80-7번지,대구광역시 동구 아양로 246 (효목동),,박순복동물병원,2019-03-10 02:40:00.0,36.630873749407655,127.74056991883833
4747,342000001020100003,1,영업/정상,0000,정상,,대구광역시 동구 신기동 179-5번지,대구광역시 동구 반야월로 140 (신기동),41110.0,이스턴24시동물병원,2019-03-10 02:40:00.0,36.68325319918268,127.7248355532826
4748,342000001020120001,1,영업/정상,0000,정상,,대구광역시 동구 신서동 520-1번지 이마트 2층,"대구광역시 동구 안심로 389-2 (신서동, 이마트 2층)",41084.0,쿨펫동물병원,2019-03-09 02:40:00.0,36.70252658087728,127.72281965570144
4749,342000001020130001,1,영업/정상,0000,정상,,대구광역시 동구 율하동 1117 롯데마트 4층 동물병원,"대구광역시 동구 안심로 80 (율하동,롯데마트 4층 동물병원)",,쿨펫동물병원,2020-07-12 02:40:00.0,36.67487700263411,127.7192415867588
4750,342000001020140001,1,영업/정상,0000,정상,,대구광역시 동구 신서동 621-22번지,대구광역시 동구 반야월로 334 (신서동),41083.0,앨리스동물병원,2019-06-28 02:40:00.0,36.70054808099522,127.72417475598475
4751,347000001020000004,1,영업/정상,0000,정상,,대구광역시 달서구 이곡동 1248-5,대구광역시 달서구 이곡공원로 36 (이곡동),42620.0,성서종합동물병원,2021-11-04 02:40:00.0,36.52705366286094,127.69794074717328
4752,347000001020050004,1,영업/정상,0000,정상,,대구광역시 달서구 월성동 1832번지,대구광역시 달서구 조암로 42 (월성동),42753.0,오 동물병원,2019-01-16 02:40:00.0,36.53906319069376,127.66072810157641
4753,347000001020030006,1,영업/정상,0000,정상,,대구광역시 달서구 성당동 211-3번지,대구광역시 달서구 성당로 21 (성당동),42680.0,두류동물병원,2019-05-11 02:40:00.0,36.56580677850332,127.67971482459578
4754,342000001020010004,1,영업/정상,0000,정상,,대구광역시 동구 방촌동 1118-120번지,대구광역시 동구 화랑로 413 (방촌동),41164.0,킴스동물병원,2019-03-10 02:40:00.0,36.65505285514292,127.72898670502771
4755,342000001020020001,1,영업/정상,0000,정상,,대구광역시 동구 검사동 957-41번지,대구광역시 동구 동촌로 154 (검사동),41157.0,변수의과의원,2019-03-09 02:40:00.0,36.64544109049664,127.73743921635489
4756,342000001020040003,1,영업/정상,0000,정상,,대구광역시 동구 효목동 64-6번지,대구광역시 동구 아양로 216 (효목동),,21세기종합동물병원,2018-08-31 23:59:59.0,36.62838114719722,127.73935950552332
4757,342000001020050001,1,영업/정상,0000,정상,,대구광역시 동구 신암동 1196-57번지,"대구광역시 동구 신암로 86-1, 1층 (신암동)",41205.0,다사랑종합동물병원,2019-03-10 02:40:00.0,36.60679872046224,127.72963737980892
4758,342000001020060002,1,영업/정상,0000,정상,,대구광역시 동구 신천동 137-4번지,대구광역시 동구 동대구로 425 (신천동),,대경동물병원,2019-03-09 02:40:00.0,36.61995391117925,127.71733238265085
4759,342000001020150001,1,영업/정상,0000,정상,,대구광역시 동구 방촌동 1118-109,대구광역시 동구 화랑로 429 (방촌동),41165.0,이끌림동물병원,2020-12-18 02:40:00.0,36.656568236832506,127.72861619152566
4760,342000001020150002,1,영업/정상,0000,정상,,대구광역시 동구 신천동 538-22번지,"대구광역시 동구 동부로 34, 2층 (신천동)",41264.0,대구동물병원,2018-08-31 23:59:59.0,36.61214165434996,127.72408952534667
4761,342000001020150003,1,영업/정상,0000,정상,,대구광역시 동구 율하동 1292번지,"대구광역시 동구 율하서로 54, 101,102호 (율하동)",41108.0,율하동물병원,2018-08-31 23:59:59.0,36.67297472145046,127.71459144438148
4762,347000001020020001,1,영업/정상,0000,정상,,대구광역시 달서구 본동 821-1번지,"대구광역시 달서구 구마로 136, 1층 (본동)",42734.0,박물관옆동물병원,2020-04-01 02:40:00.0,36.55278194061281,127.67636828259164
4763,347000001020020003,1,영업/정상,0000,정상,,대구광역시 달서구 송현동 798-244 1층,"대구광역시 달서구 월배로 330-1, 1층 (송현동)",42824.0,25시종합동물병원,2021-02-18 02:40:00.0,36.55671308310912,127.66145785037453
4764,347000001020030002,1,영업/정상,0000,정상,,대구광역시 달서구 용산동 499-1번지,대구광역시 달서구 선원로 262 (용산동),42617.0,헬로우동물병원,2019-05-11 02:40:00.0,36.535098976902404,127.70256650850966
4765,347000001020030003,1,영업/정상,0000,정상,,대구광역시 달서구 상인동 255-2번지,대구광역시 달서구 월배로 182 (상인동),42787.0,어진종합동물병원,2019-05-11 02:40:00.0,36.54634344232097,127.6519216334127
4766,342000001020140003,1,영업/정상,0000,정상,,대구광역시 동구 봉무동 1520-1번지 106호,"대구광역시 동구 팔공로 320-1, 1층 106호 (봉무동)",41020.0,이시아동물병원,2018-08-31 23:59:59.0,36.63163153912058,127.79083881901451
4767,342000001020140004,1,영업/정상,0000,정상,,대구광역시 동구 신암동 799-1번지,대구광역시 동구 아양로 17 (신암동),41196.0,열린동물병원,2018-08-31 23:59:59.0,36.6116319694412,127.73350859330975
4768,342000001020170001,1,영업/정상,0000,정상,,대구광역시 동구 각산동 444-7번지,대구광역시 동구 경안로 826 (각산동),41073.0,봄이온동물병원,2018-12-29 02:40:00.0,36.69162768228633,127.72912782825766
4769,346000001020050004,1,영업/정상,0000,정상,,대구광역시 수성구 수성동4가 1186-76번지 77호,"대구광역시 수성구 달구벌대로 2287-1, 77호 (수성동4가)",,캣츠&독스동물병원,2019-01-12 02:40:00.0,36.60948670263197,127.70679007129893
4770,346000001020060001,1,영업/정상,0000,정상,,대구광역시 수성구 지산동 1157-22번지,대구광역시 수성구 지범로 69 (지산동),,이수의과동물병원,2019-01-15 02:40:00.0,36.62327731897473,127.66595701132862
4771,346000001020060002,1,영업/정상,0000,정상,,대구광역시 수성구 수성동2가 60-1번지 4호,"대구광역시 수성구 명덕로 421, 4호 (수성동2가)",,허동물병원,2018-08-31 23:59:59.0,36.612550105384344,127.70001857875944
4772,346000001020060003,1,영업/정상,0000,정상,,대구광역시 수성구 중동 400-10번지,대구광역시 수성구 수성로 151 (중동),,수성동물병원,2018-08-31 23:59:59.0,36.60931575458073,127.68068624893047
4773,347000001020140005,1,영업/정상,0000,정상,,대구광역시 달서구 진천동 595-26,대구광역시 달서구 월배로 79 (진천동),42760.0,초록동물병원,2021-11-04 02:40:00.0,36.53759218279599,127.6475422519225
4774,346000001020100001,1,영업/정상,0000,정상,,대구광역시 수성구 상동 279-2,대구광역시 수성구 수성로 85 (상동),,올펫 동물병원,2021-10-31 02:40:00.0,36.60889460406432,127.67344881441015
4775,346000001020100002,1,영업/정상,0000,정상,,대구광역시 수성구 신매동 183번지,대구광역시 수성구 달구벌대로 3258 (신매동),42277.0,다원 동물병원,2018-08-31 23:59:59.0,36.69099100044375,127.68178616459195
4776,346000001020100003,1,영업/정상,0000,정상,,대구광역시 수성구 만촌동 950-1번지,대구광역시 수성구 국채보상로 1006 (만촌동),,메트로 동물병원,2019-01-18 02:40:00.0,36.63176761868214,127.71446439699291
4777,347000001020110003,1,영업/정상,0000,정상,,대구광역시 달서구 진천동 576-1번지,대구광역시 달서구 월배로 93 (진천동),42784.0,위드동물병원,2019-01-16 02:40:00.0,36.53899664895376,127.64799982360817
4778,347000001020140003,1,영업/정상,0000,정상,,대구광역시 달서구 진천동 657-1,대구광역시 달서구 월배로 48 (진천동),42770.0,두남자동물병원,2021-11-06 02:40:00.0,36.53509784276069,127.646201276627
4779,347000001020140004,1,영업/정상,0000,정상,,대구광역시 달서구 상인동 1595-3번지,대구광역시 달서구 조암남로 9 (상인동),42780.0,하나동물병원,2019-01-16 02:40:00.0,36.54450146115813,127.65797501446491
4780,347000001020140001,1,영업/정상,0000,정상,,대구광역시 달서구 도원동 1436-9번지,대구광역시 달서구 한실로 99 (도원동),42833.0,이룸동물병원,2019-03-13 02:40:00.0,36.54964202049386,127.63907003033022
4781,347000001020160004,1,영업/정상,0000,정상,,대구광역시 달서구 진천동 574-1번지,"대구광역시 달서구 진천로 78, 2층 (진천동)",42784.0,애플동물병원,2019-12-14 02:40:00.0,36.538082941690924,127.6492587621389
4782,347000001020170001,1,영업/정상,0000,정상,,대구광역시 달서구 본리동 62-6번지,대구광역시 달서구 장기로 207 (본리동),42674.0,라파동물병원,2019-01-16 02:40:00.0,36.548742169786145,127.6841010933816
4783,347000001020130001,1,영업/정상,0000,정상,,"대구광역시 달서구 용산동 208-27 k타워 1,2층","대구광역시 달서구 달구벌대로 1521, 1,2층 (용산동, k타워)",42633.0,(주)죽전동물메디컬센터,2021-09-09 02:40:00.0,36.54500635623266,127.69235583012403
4784,347000001020140002,1,영업/정상,0000,정상,,대구광역시 달서구 감삼동 171-4번지,대구광역시 달서구 와룡로 156 (감삼동),42652.0,미소동물병원,2019-01-16 02:40:00.0,36.54859483935643,127.68806124271455
4785,347000001020150001,1,영업/정상,0000,정상,,대구광역시 달서구 대곡동 964번지,대구광역시 달서구 비슬로 2746 (대곡동),42765.0,24시프라임동물병원,2019-02-14 02:40:00.0,36.531415691051286,127.64259875281647
4786,347000001020150002,1,영업/정상,0000,정상,,대구광역시 달서구 대곡동 7-6,대구광역시 달서구 비슬로 2692 (대곡동),42769.0,이솝동물병원,2021-06-17 02:40:00.0,36.52717114421657,127.63974138801268
4787,347000001020160001,1,영업/정상,0000,정상,,대구광역시 달서구 월성동 1811 그루메디컬 105호,"대구광역시 달서구 조암로 4, 105호 (월성동, 그루메디컬)",42752.0,앨리스in동물병원,2021-11-04 02:40:00.0,36.5422522942133,127.66276197459322
4788,347000001020160002,1,영업/정상,0000,정상,,대구광역시 달서구 도원동 1435번지,대구광역시 달서구 도원로 11 (도원동),42833.0,THE나은동물병원,2019-01-16 02:40:00.0,36.54850321000346,127.64111897970783
4789,347000001020170002,1,영업/정상,0000,정상,,대구광역시 달서구 장기동 566-4번지,대구광역시 달서구 용산로 52 (장기동),42690.0,본리종합동물병원,2019-08-15 02:40:00.0,36.543254040046754,127.6825878334024
4790,347000001020170003,1,영업/정상,0000,정상,,대구광역시 달서구 진천동 44-4,대구광역시 달서구 월배로 165 (진천동),42783.0,본 동물메디컬센터 외과동물병원,2021-12-09 02:40:00.0,36.544765656051226,127.65157313826363
4791,347000001020040007,1,영업/정상,0000,정상,,대구광역시 달서구 진천동 508번지 진천역 대성스키이렉스 상가1층 401동 127호,"대구광역시 달서구 월배로 80, 401동 1층 127호 (진천동, 진천역 대성스카이렉스 상가)",42773.0,해맑은동물병원,2019-01-16 02:40:00.0,36.53812574564627,127.64654601822387
4792,347000001020040009,1,영업/정상,0000,정상,,대구광역시 달서구 두류동 472-11번지,대구광역시 달서구 두류공원로 267 (두류동),42647.0,한마음종합동물병원,2019-01-16 02:40:00.0,36.56468404512993,127.70146035216986
4793,347000001020170004,1,영업/정상,0000,정상,,대구광역시 달서구 상인동 1439-1,"대구광역시 달서구 월배로 166, 1, 2, 5층 (상인동)",42788.0,탑스동물메디컬센터,2021-11-14 02:40:00.0,36.54492526178369,127.65086001194435
4794,347000001020040005,1,영업/정상,0000,정상,,대구광역시 달서구 이곡동 1238-6번지,대구광역시 달서구 이곡공원로 19 (이곡동),42619.0,이곡종합동물병원,2019-01-16 02:40:00.0,36.52560732238921,127.6984861213497
4795,345000001020080001,1,영업/정상,0000,정상,,대구광역시 북구 침산동 241-1,대구광역시 북구 침산로 116 (침산동),,아프리카 동물병원,2021-10-22 02:40:00.0,36.591712306579204,127.73884912251684
4796,345000001020100001,1,영업/정상,0000,정상,,대구광역시 북구 대현동 229-19,대구광역시 북구 대현로 27 (대현동),,북부동물병원,2021-10-15 02:40:00.0,36.60136120137718,127.73836840804708
4797,345000001020110002,1,영업/정상,0000,정상,,대구광역시 북구 태전동 1049-4,대구광역시 북구 칠곡중앙대로 344 (태전동),41461.0,강북동물병원,2021-10-15 02:40:00.0,36.55496284328684,127.78716187365073
4798,345000001020110003,1,영업/정상,0000,정상,,대구광역시 북구 복현동 209-1,대구광역시 북구 공항로 12 (복현동),41526.0,준 동물병원,2021-10-15 02:40:00.0,36.61179404068277,127.75327034441588
4799,345000001020120001,1,영업/정상,0000,정상,,대구광역시 북구 침산동 269-10 명성푸르지오 101동 A1호,"대구광역시 북구 침산로 153, 101동 1층 A1호 (침산동, 명성푸르지오)",41559.0,라라(Lara) 동물병원,2021-10-15 02:40:00.0,36.59066331303352,127.74208124509894
4800,345000001020120002,1,영업/정상,0000,정상,,대구광역시 북구 칠성동2가 371-2,"대구광역시 북구 중앙대로 526, 2층 (칠성동2가)",41579.0,플러스동물의료센터,2021-10-16 02:40:00.0,36.5959091767291,127.73055115986782
4801,345000001020130001,1,영업/정상,0000,정상,,대구광역시 북구 태전동 1068,대구광역시 북구 칠곡중앙대로 373 (태전동),41452.0,태전동물병원,2021-10-15 02:40:00.0,36.55468476578198,127.79070499425518
4802,345000001020130003,1,영업/정상,0000,정상,,대구광역시 북구 구암동 765-2 동재빌딩 101호,"대구광역시 북구 학정로 440, 101호 (구암동, 동재빌딩)",41424.0,키다리동물병원,2021-10-15 02:40:00.0,36.56800023007835,127.80922329693615
4803,345000001020130004,1,영업/정상,0000,정상,,대구광역시 북구 산격동 1838,"대구광역시 북구 동북로 131, 105동 108,9호 (산격동, 양우내안에아파트 상가)",41519.0,올리브동물병원,2021-10-15 02:40:00.0,36.604734975255134,127.75805189664831
4804,345000001020140001,1,영업/정상,0000,정상,,대구광역시 북구 노원동1가 1-8,대구광역시 북구 침산남로 61 (노원동1가),41553.0,대구24시동물병원,2021-10-15 02:40:00.0,36.584333367672905,127.7425117403057
4805,345000001020150001,1,영업/정상,0000,정상,,대구광역시 북구 서변동 1746-9,대구광역시 북구 서변로 65-1 (서변동),41477.0,가온동물병원,2021-10-15 02:40:00.0,36.594751698394205,127.78238935390848
4806,345000001019940001,1,영업/정상,0000,정상,,대구광역시 북구 노원동2가 290-3,대구광역시 북구 팔달로41길 12 (노원동2가),41558.0,경북가축병원,2021-10-15 02:40:00.0,36.576765789355775,127.7407478545226
4807,345000001019990001,1,영업/정상,0000,정상,,대구광역시 북구 태전동 415-1 102호,"대구광역시 북구 칠곡중앙대로 301, 102호 (태전동)",,칠곡종합동물병원,2021-10-15 02:40:00.0,36.55413952464862,127.78246409488935
4808,506000001019980001,1,영업/정상,0000,정상,,경상북도 김천시 황금동 17-12번지,경상북도 김천시 양금로 249 (황금동),,가람가축병원,2019-01-17 02:40:00.0,36.20639950044242,128.01245471991206
4809,506000001019980002,1,영업/정상,0000,정상,,경상북도 김천시 성내동 181-6번지,경상북도 김천시 자산로 104 (성내동),39588.0,두산동물병원,2019-03-07 02:40:00.0,36.20380294650188,128.01762096115053
4810,506000001019980003,1,영업/정상,0000,정상,,경상북도 김천시 평화동 245-12번지,경상북도 김천시 김천로 65 (평화동),39598.0,삼양가축병원,2019-03-07 02:40:00.0,36.195156738626586,128.02428150464368
4811,506000001019990001,1,영업/정상,0000,정상,,경상북도 김천시 평화동,경상북도 김천시 구름다리2길 33 (평화동),39585.0,우정 팜 크리닉,2018-08-31 23:59:59.0,36.201073036099665,128.02406970869654
4812,506000001020000001,1,영업/정상,0000,정상,,경상북도 김천시 남산동 12-3번지,경상북도 김천시 김천로 188 (남산동),39596.0,가야동물병원,2020-06-17 02:40:00.0,36.20394285513637,128.01605745668644
4813,506000001020010001,1,영업/정상,0000,정상,,경상북도 김천시 부곡동 1504번지,경상북도 김천시 부곡맛고을1길 87 (부곡동),,지수애완동물병원,2019-01-17 02:40:00.0,36.18161512365515,128.0214219376212
4814,506000001020030001,1,영업/정상,0000,정상,,경상북도 김천시 황금동 102-1번지,경상북도 김천시 양금로 231-1 (황금동),39616.0,녹십자동물병원,2019-01-17 02:40:00.0,36.20625741331208,128.0105921235574
4816,506000001020040002,1,영업/정상,0000,정상,,경상북도 김천시 대광동 1088번지,경상북도 김천시 공단1길 164 (대광동),,금오산낙농축협동물병원,2019-12-06 02:40:00.0,36.21621859592871,128.05297582551347
4817,506000001020100001,1,영업/정상,0000,정상,,경상북도 김천시 성내동 10-23번지,경상북도 김천시 자산로 184 (성내동),39583.0,미래동물병원,2019-03-07 02:40:00.0,36.2015972574431,128.02492493146624
4818,506000001020150001,1,영업/정상,0000,정상,,경상북도 김천시 신음동 1313번지 대신휴먼시아,"경상북도 김천시 시청로 95, 휴먼시아A동 상가2층 (신음동, 대신휴먼시아)",39546.0,김천연합동물병원,2019-03-30 02:40:00.0,36.1994918580966,128.0375811194047
4819,507000001019740003,1,영업/정상,0000,정상,,경상북도 안동시 풍천면 구담리 488-2번지,경상북도 안동시 풍천면 구담배나들길 33-3,36760.0,구담가축병원,2019-01-20 02:40:00.0,36.47174204417068,128.54752680995892
4820,507000001019790002,1,영업/정상,0000,정상,,경상북도 안동시 금곡동 124-1번지 0통0반,경상북도 안동시 제비원로 172 (금곡동),36690.0,경북가축병원,2018-08-31 23:59:59.0,36.67614269084152,128.58762363297467
4821,507000001020060001,1,영업/정상,0000,정상,,경상북도 안동시 옥야동 340-49번지,경상북도 안동시 제비원로 118 (옥야동),,서울종합동물병원,2018-08-31 23:59:59.0,36.67674842285546,128.5815320046148
4822,507000001020060002,1,영업/정상,0000,정상,,경상북도 안동시 당북동 333-120번지,"경상북도 안동시 제비원로 113-16, 333동 120호 (당북동)",36674.0,보경종합동물병원,2018-08-31 23:59:59.0,36.676197281883915,128.58139249457352
4823,507000001020060003,1,영업/정상,0000,정상,,경상북도 안동시 옥동 796-1번지,경상북도 안동시 옥동1길 2 (옥동),36663.0,안동제1 동물병원,2018-08-31 23:59:59.0,36.659435604410206,128.57548827320431
4824,507000001020120001,1,영업/정상,0000,정상,,,경상북도 안동시 도산면 퇴계로 2150-44,36605.0,경상북도 야생동물 구조관리센터,2021-10-28 02:40:00.0,36.756599917721466,128.7635632826823
4825,507000001020160001,1,영업/정상,0000,정상,,,경상북도 안동시 풍산읍 풍산태사로 1077-2,36621.0,풍산동물병원,2018-08-31 23:59:59.0,36.559162562623335,128.59422898368834
4826,507000001020170002,1,영업/정상,0000,정상,,경상북도 안동시 정하동 371-4번지,"경상북도 안동시 운동장길 10, 106호 (정하동)",36747.0,BAC 바른동물병원,2019-01-18 02:40:00.0,36.67666597751177,128.56711917956525
4827,507000001019830001,1,영업/정상,0000,정상,,경상북도 안동시 옥동 920-4번지 104동 703호,"경상북도 안동시 옥서1길 70, 104동 703호 (옥동, 호반 베르디움)",36638.0,대구가축병원,2018-08-31 23:59:59.0,36.65448058225018,128.5800275530245
4828,507000001019920001,1,영업/정상,0000,정상,,경상북도 안동시 당북동 311-7번지,경상북도 안동시 제비원로 135 (당북동),36671.0,연합가축병원,2018-08-31 23:59:59.0,36.67623223152339,128.58336084113165
4829,507000001019990001,1,영업/정상,0000,정상,,경상북도 안동시 당북동 333-93번지,경상북도 안동시 제비원로 109 (당북동),36674.0,황동물병원,2019-03-07 02:40:00.0,36.67631513855606,128.58058361353295
4830,507000001020000003,1,영업/정상,0000,정상,,경상북도 안동시 안기동 235-17번지,경상북도 안동시 제비원로 289-1 (안기동),,보우종합동물병원,2018-08-31 23:59:59.0,36.67322367891868,128.59947725768131
4831,507000001020020001,1,영업/정상,0000,정상,,경상북도 안동시 광석동 20-4번지 안동봉화축협,"경상북도 안동시 제비원로 152, 안동봉화축협 (광석동)",36697.0,안동봉화축협동물병원,2020-04-04 02:40:00.0,36.676763622689705,128.58528740013995
4832,507000001020030001,1,영업/정상,0000,정상,,경상북도 안동시 송현동 419-1번지,경상북도 안동시 경북대로 555 (송현동),36632.0,영민동물병원,2018-08-31 23:59:59.0,36.657373981215656,128.59982679857924
4833,507000001020030002,1,영업/정상,0000,정상,,경상북도 안동시 명륜동 328-4번지,경상북도 안동시 퇴계로 127 (명륜동),,신세계동물병원,2018-08-31 23:59:59.0,36.68458709039399,128.58935337892405
4834,352000001020130001,1,영업/정상,0000,정상,,인천광역시 연수구 송도동 23-4번지 더샵센트럴파크2차상가 C동 128호,"인천광역시 연수구 센트럴로 194, C동 128호 (송도동, 더샵센트럴파크2차상가)",22003.0,Central 동물병원,2019-01-19 02:40:00.0,34.98549897184946,129.54461599687156
4835,478000001019850001,1,영업/정상,0000,정상,,전라북도 고창군 고창읍 읍내리 212-19번지,전라북도 고창군 고창읍 성산5길 9,56433.0,연합,2018-08-31 23:59:59.0,35.05308061699903,127.16456493615985
4836,478000001019880001,1,영업/정상,0000,정상,,전라북도 고창군 흥덕면 흥덕리 558번지,전라북도 고창군 흥덕면 선운대로 3734,56415.0,흥덕,2019-05-10 02:40:00.0,35.052433550057295,127.26485535800003
4837,478000001019940001,1,영업/정상,0000,정상,,전라북도 고창군 대산면 매산리 244-19번지,전라북도 고창군 대산면 사거1길 77,56468.0,대산,2020-03-19 02:40:00.0,34.96722653243453,127.04994787300024
4838,478000001019940002,1,영업/정상,0000,정상,,전라북도 고창군 고창읍 교촌리 501번지,전라북도 고창군 고창읍 중앙로 321,56430.0,한국,2019-03-10 02:40:00.0,35.061837057123974,127.16339932081713
4839,478000001019990001,1,영업/정상,0000,정상,,전라북도 고창군 고창읍 읍내리 964-1번지,전라북도 고창군 고창읍 고인돌대로 1775,56442.0,고창중앙 동물병원,2019-11-06 02:40:00.0,35.04667932812067,127.16754527139237
4840,478000001020010001,1,영업/정상,0000,정상,,전라북도 고창군 고창읍 읍내리 169번지,전라북도 고창군 고창읍 동리로 137,56441.0,고창,2018-08-31 23:59:59.0,35.05903520416155,127.16065569498572
4841,478000001020070001,1,영업/정상,0000,정상,,전라북도 고창군 고창읍 읍내리 1195,전라북도 고창군 고창읍 보릿골로 16,56439.0,모양동물병원,2021-01-15 02:40:00.0,35.04879455647557,127.15332025427192
4842,478000001020070002,1,영업/정상,0000,정상,,전라북도 고창군 흥덕면 신덕리 35-6번지,전라북도 고창군 흥덕면 부안로 423,56411.0,고창부안축협동물병원,2018-08-31 23:59:59.0,35.049868748573054,127.31178907025274
4843,478000001020130001,1,영업/정상,0000,정상,,전라북도 고창군 고창읍 교촌리 233-11번지,전라북도 고창군 고창읍 성산8길 39-10,56433.0,더나은동물병원,2019-03-10 02:40:00.0,35.05266764990782,127.16697631461444
4844,478000001020140001,1,영업/정상,0000,정상,,전라북도 고창군 흥덕면 흥덕리 54-12번지,전라북도 고창군 흥덕면 선운대로 3771,56413.0,한길동물병원,2018-08-31 23:59:59.0,35.055776342715994,127.26869701557409
4845,478000001020140002,1,영업/정상,0000,정상,,전라북도 고창군 고창읍 덕산리 207-3 (유)충만건설,전라북도 고창군 고창읍 중거리당산로 60,56448.0,치산동물병원,2021-06-30 02:40:00.0,35.04942618070463,127.1523129574932
4846,478000001020160001,1,영업/정상,0000,정상,,전라북도 고창군 고창읍 덕산리 256번지 101호,"전라북도 고창군 고창읍 보릿골로 57-10, 101호",56438.0,인우 동물병원,2020-04-23 02:40:00.0,35.04832338697615,127.15806371086364
4847,472000001019860001,1,영업/정상,0000,정상,,전라북도 완주군 봉동읍 장기리 225번지,전라북도 완주군 봉동읍 봉동로 133,55326.0,박동물병원,2019-03-21 02:40:00.0,35.432939943885565,127.77712551998766
4848,472000001020150002,1,영업/정상,0000,정상,,전라북도 완주군 이서면 금평리 산 145-5 국립축산과학원,"전라북도 완주군 이서면 콩쥐팥쥐로 1500, 국립축산과학원",55365.0,국립축산과학원 동물병원,2020-11-18 02:40:00.0,35.350706925505335,127.63917353270101
4849,472000001020150003,1,영업/정상,0000,정상,,전라북도 완주군 이서면 이문리 711-3번지,전라북도 완주군 이서면 콩쥐팥쥐로 1047,55367.0,광희동물병원,2019-01-18 02:40:00.0,35.308834854688314,127.63415151408061
4850,472000001020150004,1,영업/정상,0000,정상,,전라북도 완주군 이서면 상개리 590,전라북도 완주군 이서면 이서로 42,55366.0,이서동물병원,2021-10-31 02:40:00.0,35.31446443682436,127.63296298316124
4851,394000001020030007,1,영업/정상,0000,정상,,경기도 고양시 일산서구 주엽동 110-2번지 가람상가 208호,"경기도 고양시 일산서구 중앙로 1443, 가람상가 208호 (주엽동)",10387.0,반딧불 동물병원,2019-03-10 02:40:00.0,35.07337180828957,129.88258691005848
4852,394000001020110001,1,영업/정상,0000,정상,,경기도 고양시 일산서구 가좌동 308-1번지 마루프라자 나동 102.103호,"경기도 고양시 일산서구 가좌3로 7-1 (가좌동, 마루프라자 나동 102.103호)",10209.0,가좌동물병원,2019-07-11 02:40:00.0,35.04159703727453,129.8997004057925
4853,470000001019890001,1,영업/정상,0000,정상,,전라북도 남원시 동충동 44-7번지 청원동물병원,"전라북도 남원시 용성로 95, 청원동물병원 (동충동)",55760.0,청원동물병원,2020-06-14 02:40:00.0,35.61540327723303,127.13316788163972
4854,470000001020040001,1,영업/정상,0000,정상,,전라북도 남원시 왕정동 67-1번지,전라북도 남원시 남문로 403 (왕정동),55764.0,하나동물종합병원,2020-06-14 02:40:00.0,35.60608990417687,127.1299862364801
4855,470000001020050001,1,영업/정상,0000,정상,,전라북도 남원시 향교동 263-3,전라북도 남원시 붕맛길 99 (향교동),55740.0,남원축협 동물병원,2022-01-09 02:40:00.0,35.61309517142258,127.14208797363288
4856,470000001020060001,1,영업/정상,0000,정상,,전라북도 남원시 금동 278-4번지,전라북도 남원시 의총로 29 (금동),55768.0,지리산동물병원,2020-06-14 02:40:00.0,35.60639178158105,127.12590350905866
4857,470000001020150001,1,영업/정상,0000,정상,,전라북도 남원시 왕정동 218-3번지,전라북도 남원시 의서길 33 (왕정동),55747.0,신성동물약품병원,2019-04-24 02:40:00.0,35.6039264594176,127.13590358007616
4858,470000001020180001,1,영업/정상,0000,정상,,전라북도 남원시 광치동 644-7번지,"전라북도 남원시 밤티재길 14-5, 1층 (광치동)",55724.0,지리산 산업동물병원,2018-08-31 23:59:59.0,35.60295044341377,127.18080976377735
4859,470000001020180002,1,영업/정상,0000,정상,,전라북도 남원시 운봉읍 동천리 488번지 외1필지,"전라북도 남원시 운봉읍 운봉로 700, 1층",55718.0,운봉제일동물병원,2019-03-08 02:40:00.0,35.73400580295073,127.16931983958645
4860,470000001019820001,1,영업/정상,0000,정상,,전라북도 남원시 금동 252-16번지 성림장,"전라북도 남원시 의총로 61, 성림장 (금동)",55768.0,남원제일가축병원,2020-06-14 02:40:00.0,35.60640828803479,127.12906618941234
4861,470000001019860001,1,영업/정상,0000,정상,,전라북도 남원시 운봉읍 동천리 506-1,"전라북도 남원시 운봉읍 운봉로 702, 부산갈매기식당, 운봉가축병원",55718.0,운봉동물병원,2021-01-21 02:40:00.0,35.733959691277455,127.16953401522332
4862,450000001020000001,1,영업/정상,0000,정상,,충청남도 공주시 의당면 유계리 28번지,충청남도 공주시 의당면 의당전의로 463,32517.0,금강동물병원,2020-04-23 02:40:00.0,35.43264215824524,128.49187152132228
4863,450000001020030001,1,영업/정상,0000,정상,,충청남도 공주시 금흥동 35-3번지 현대아파트 404동 102호,충청남도 공주시 장기로 139-4 (금흥동),32567.0,한국동물병원,2018-12-08 02:40:00.0,35.41521224333592,128.44322165499267
4864,452000001020130003,1,영업/정상,0000,정상,,충청남도 아산시 영인면 아산리 83-2번지,충청남도 아산시 영인면 영인로 45,31432.0,수동물병원,2018-08-31 23:59:59.0,35.249187681581944,128.89350438628713
4865,452000001020160002,1,영업/정상,0000,정상,,충청남도 아산시 용화동 1581번지,충청남도 아산시 용화고길79번길 21 (용화동),31578.0,아산동물의료센터,2019-06-30 02:40:00.0,35.29467413023874,128.7972205873636
4866,452000001020160003,1,영업/정상,0000,정상,,충청남도 아산시 둔포면 둔포리 445-7번지,충청남도 아산시 둔포면 충무로 1779,31403.0,수안동물병원(출장진료전문),2019-01-23 02:40:00.0,35.311126872799846,128.9913040804944
4867,452000001020160004,1,영업/정상,0000,정상,,충청남도 아산시 모종동 578번지 8통3반 라이프아파트 103동 309호,"충청남도 아산시 번영로216번길 36, 30호 (모종동, 신정아파트상가 30호)",31521.0,선동물병원(출장진료전문),2019-01-23 02:40:00.0,35.2966302670226,128.8090350720247
4868,452000001020160005,1,영업/정상,0000,정상,,충청남도 아산시 온천동 1353 명종합동물병원,"충청남도 아산시 번영로 83, 명종합동물병원 (온천동)",31508.0,명동물병원,2021-05-29 02:40:00.0,35.285077900743005,128.8122428998912
4869,452000001020180001,1,영업/정상,0000,정상,,충청남도 아산시 모종동 580-3번지 신정아파트상가 20호,"충청남도 아산시 번영로216번길 36, 1층 20호 (모종동, 신정아파트)",31521.0,안 수의과병원,2018-08-31 23:59:59.0,35.2966302670226,128.8090350720247
4870,452000001020130002,1,영업/정상,0000,정상,,충청남도 아산시 배방읍 공수리 151-36번지,충청남도 아산시 배방읍 모산로126번길 6,31484.0,숲속동물병원,2018-08-31 23:59:59.0,35.33142039649896,128.80110323541533
4871,460000001020140001,1,영업/정상,0000,정상,,충청남도 홍성군 홍북면 신경리 895 빌앤더스오피스텔 444호,"충청남도 홍성군 홍북면 충남대로 36, 444호 (빌앤더스오피스텔)",32263.0,동안동물병원,2021-12-10 02:40:00.0,35.025402971848756,128.64778778846434
4872,460000001020150001,1,영업/정상,0000,정상,,충청남도 홍성군 홍성읍 옥암리 36번지,충청남도 홍성군 홍성읍 내포로136번길 10,32248.0,우사랑동물병원,2019-04-28 02:40:00.0,35.0105985074739,128.57448899310796
4873,460000001020150002,1,영업/정상,0000,정상,,충청남도 홍성군 홍성읍 남장리 214-14번지,충청남도 홍성군 홍성읍 충서로 1222-5,32244.0,임만수 동물병원,2018-08-31 23:59:59.0,35.01185262102804,128.561743578068
4874,460000001020160002,1,영업/정상,0000,정상,,충청남도 홍성군 홍성읍 고암리 948,"충청남도 홍성군 홍성읍 조양로 203, 1, 2층",32220.0,대산 동물병원,2021-11-27 02:40:00.0,35.0241903443108,128.5802703441043
4876,452000001020020002,1,영업/정상,0000,정상,,충청남도 아산시 온천동 80-5번지,충청남도 아산시 온천대로 1525 (온천동),,가나동물병원,2018-08-31 23:59:59.0,35.29172116914612,128.80847229521254
4877,452000001020080001,1,영업/정상,0000,정상,,충청남도 아산시 염치읍 방현리 296-1번지,충청남도 아산시 염치읍 충무로 471-30,31446.0,아산축산업협동조합(동물병원),2018-08-31 23:59:59.0,35.290235988121324,128.85289195706488
4878,452000001020100001,1,영업/정상,0000,정상,,충청남도 아산시 둔포면 둔포리 396-1번지,충청남도 아산시 둔포면 둔포로 33,,중부벳동물병원,2018-08-31 23:59:59.0,35.31399806728556,128.98788155076346
4879,452000001020100002,1,영업/정상,0000,정상,,충청남도 아산시 둔포면 둔포리 445-7번지,충청남도 아산시 둔포면 충무로 1779,31403.0,건국동물병원(출장진료전문),2019-01-23 02:40:00.0,35.311126872799846,128.9913040804944
4880,393000001020160002,1,영업/정상,0000,정상,,경기도 안산시 단원구 초지동 734-6번지 한미타워 110호,"경기도 안산시 단원구 초지2로 67, 한미타워 110호 (초지동)",15448.0,닥터K동물병원,2019-02-16 02:40:00.0,35.12709508332446,129.44146121550258
4881,452000001019830001,1,영업/정상,0000,정상,,충청남도 아산시 둔포면 둔포리 414-14번지 414-14,충청남도 아산시 둔포면 둔포면로  12-8,,이동물병원,2019-03-09 02:40:00.0,35.31308443164733,128.9880990745598
4882,452000001019920001,1,영업/정상,0000,정상,,충청남도 아산시 권곡동 537-10번지,충청남도 아산시 청운로 159 (권곡동),31515.0,김광수동물병원,2019-03-08 02:40:00.0,35.2922884590711,128.813966604435
4883,452000001020010001,1,영업/정상,0000,정상,,충청남도 아산시 모종동 580-3번지,충청남도 아산시 번영로216번길 36 (모종동),,정강동물병원,2019-03-09 02:40:00.0,35.2966302670226,128.8090350720247
4884,452000001020010002,1,영업/정상,0000,정상,,충청남도 아산시 온천동 1791번지,충청남도 아산시 번영로 133 (온천동),,온양동물병원,2018-08-31 23:59:59.0,35.28964301450237,128.81155845051308
4885,452000001020100003,1,영업/정상,0000,정상,,충청남도 아산시 배방읍 북수리 1213번지,충청남도 아산시 배방읍 북수서로 32,,배방동물병원,2018-08-31 23:59:59.0,35.34209943334621,128.80018245681813
4886,452000001020110001,1,영업/정상,0000,정상,,충청남도 아산시 용화동 575번지,충청남도 아산시 중앙로 10 (용화동),31573.0,주앤동물병원,2019-03-09 02:40:00.0,35.287868978264896,128.80224964376208
4887,452000001020120001,1,영업/정상,0000,정상,,충청남도 아산시 둔포면 둔포리 451-2번지,충청남도 아산시 둔포면 둔포면로17번길 18,31403.0,한원동물병원,2018-08-31 23:59:59.0,35.31171758372082,128.98983184947687
4888,452000001020130001,1,영업/정상,0000,정상,,충청남도 아산시 온천동 1437번지,충청남도 아산시 시민로 467-41 (온천동),31508.0,충무가축병원,2018-08-31 23:59:59.0,35.28262457252627,128.81562305982865
4889,460000001020070001,1,영업/정상,0000,정상,,충청남도 홍성군 홍성읍 월산리 836-3번지,충청남도 홍성군 홍성읍 월산로50번길 3,32226.0,내포동물병원,2019-04-27 02:40:00.0,35.003928950608454,128.57768577765077
4890,460000001020110001,1,영업/정상,0000,정상,,충청남도 홍성군 홍성읍 옥암리 8-5,충청남도 홍성군 홍성읍 문화로57번길 19,,(주)돼지와건강,2021-01-19 02:40:00.0,35.01289006892584,128.57256899129044
4891,458000001019920001,1,영업/정상,0000,정상,,충청남도 서천군 서천읍 군사리 179-22번지 서천가축병원,"충청남도 서천군 서천읍 서천로14번길 25, 서천가축병원",33645.0,서천가축병원,2019-04-07 02:40:00.0,35.04919558042897,127.94310100667235
4892,458000001019930001,1,영업/정상,0000,정상,,충청남도 서천군 서천읍 군사리 862-10번지 서해동물병원,"충청남도 서천군 서천읍 충절로49번길 26, 서해동물병원",33642.0,서해동물병원,2019-04-07 02:40:00.0,35.04252126831266,127.94317073092424
4893,458000001020070001,1,영업/정상,0000,정상,,충청남도 서천군 한산면 지현리 243-2번지,충청남도 서천군 한산면 한마로 65,33624.0,최가축병원,2019-04-07 02:40:00.0,35.135051980545796,127.95589740774919
4894,458000001020140001,1,영업/정상,0000,정상,,충청남도 서천군 마서면 송내리 755,충청남도 서천군 마서면 금강로 1210,33657.0,국립생태원동물병원,2020-09-02 02:40:00.0,35.07118199942491,127.88625921928741
4895,457000001020170001,1,영업/정상,0000,정상,,충청남도 부여군 규암면 외리 217-16번지,"충청남도 부여군 규암면 계백로 10, 3층",33124.0,초원동물병원,2019-04-27 02:40:00.0,35.19690124973693,128.18561411349748
4896,457000001019800001,1,영업/정상,0000,정상,,충청남도 부여군 부여읍 구아리 141-3번지 3통,충청남도 부여군 부여읍 성왕로 202,33145.0,금강동물병원,2019-04-27 02:40:00.0,35.2200046393139,128.19614341526997
4897,457000001019800002,1,영업/정상,0000,정상,,충청남도 부여군 은산면 신대리 393-3번지 3통,충청남도 부여군 은산면 충의로 666-1,33113.0,서울동물병원,2019-04-27 02:40:00.0,35.1735119973411,128.2269218048111
4898,457000001019800003,1,영업/정상,0000,정상,,충청남도 부여군 부여읍 구아리 82-2번지,"충청남도 부여군 부여읍 나성로 108, 1동 1층",33139.0,부여동물병원,2019-04-27 02:40:00.0,35.219194860834186,128.19799926001494
4899,457000001019900001,1,영업/정상,0000,정상,,충청남도 부여군 부여읍 구아리 407-2번지 3통,충청남도 부여군 부여읍 성왕로 182,33144.0,백동물병원,2019-04-27 02:40:00.0,35.218849520303685,128.19425707450816
4900,457000001019950001,1,영업/정상,0000,정상,,충청남도 부여군 부여읍 구아리 141-5번지,충청남도 부여군 부여읍 성왕로 202-3,33145.0,녹십자동물병원,2019-05-03 02:40:00.0,35.21995432543415,128.1960129394213
4901,457000001020010001,1,영업/정상,0000,정상,,충청남도 부여군 부여읍 동남리 546-6번지,충청남도 부여군 부여읍 부장대로 4,33153.0,한라동물병원,2019-04-27 02:40:00.0,35.216482416165036,128.18857109978777
4902,457000001020080001,1,영업/정상,0000,정상,,충청남도 부여군 부여읍 구아리 391,충청남도 부여군 부여읍 성왕로 190-1,33145.0,남부여동물병원,2021-09-08 02:40:00.0,35.21935131130886,128.19501394875726
4903,457000001020110001,1,영업/정상,0000,정상,,충청남도 부여군 임천면 군사리 98번지,충청남도 부여군 임천면 성흥로 103,33219.0,임천동물병원,2019-04-27 02:40:00.0,35.20686442058968,128.08241889259338
4904,457000001020120001,1,영업/정상,0000,정상,,충청남도 부여군 규암면 규암리 117-5번지 금강타운 102호,충청남도 부여군 규암면 계백로 76,33124.0,심동물병원,2018-08-31 23:59:59.0,35.20234272939882,128.1875696321358
4905,455000001019720001,1,영업/정상,0000,정상,,충청남도 금산군 금산읍 중도리 337-3번지 6통5반,충청남도 금산군 금산읍 인삼로 89 (노아동물병원),32738.0,노아동물병원,2019-03-08 02:40:00.0,35.69363201657481,127.9841596147766
4906,455000001019940001,1,영업/정상,0000,정상,,충청남도 금산군 금산읍 상리 176-25번지 19통4반,충청남도 금산군 금산읍 오리정1길 45,32737.0,우신동물병원,2019-03-08 02:40:00.0,35.690743303940266,127.98658125309154
4907,455000001020060001,1,영업/정상,0000,정상,,충청남도 금산군 금산읍 상리 127-4번지,충청남도 금산군 금산읍 금산로 1444,32740.0,가믄장 동물병원,2019-03-08 02:40:00.0,35.6912139199081,127.98378439105002
4908,463000001019960003,1,영업/정상,0000,정상,,충청남도 당진시 읍내동 1252-1,충청남도 당진시 무수동로 109 (읍내동),,푸른가축병원,2021-06-23 02:40:00.0,34.991520880274656,128.93209584884968
4909,463000001019980001,1,영업/정상,0000,정상,,충청남도 당진시 신평면 상오리 418-9,"충청남도 당진시 신평면 덕평로 1273, 1층 104호",31747.0,종합동물병원,2020-11-07 02:40:00.0,35.08639482960035,128.90804417418727
4910,463000001019990001,1,영업/정상,0000,정상,,충청남도 당진시 합덕읍 소소리 513-20번지,충청남도 당진시 합덕읍 남부로 1377,31809.0,당진낙협동물병원,2019-11-06 02:40:00.0,35.068748842331274,128.8603059854715
4911,463000001020000001,1,영업/정상,0000,정상,,충청남도 당진시 읍내동 531-11번지,충청남도 당진시 당진중앙3로 89 (읍내동),31777.0,건국동물병원,2018-08-31 23:59:59.0,34.98597316599417,128.93531482901943
4912,463000001019750001,1,영업/정상,0000,정상,,충청남도 당진시 읍내동 626-9번지 10통,충청남도 당진시 당진중앙2로 17-5 (읍내동),31769.0,정가축병원,2018-08-31 23:59:59.0,34.98316356981344,128.93387104822847
4913,463000001019790001,1,영업/정상,0000,정상,,충청남도 당진시 합덕읍 운산리 263-1번지 2통,충청남도 당진시 합덕읍 합덕시장로 188,31812.0,백제 가축병원,2018-08-31 23:59:59.0,35.10345886404521,128.8350200503451
4914,463000001019950001,1,영업/정상,0000,정상,,충청남도 당진시 읍내동 1317번지,충청남도 당진시 무수동로 77 (읍내동),31776.0,백 동물병원,2018-08-31 23:59:59.0,34.99156755351144,128.93037620386798
4915,463000001019950002,1,영업/정상,0000,정상,,충청남도 당진시 채운동 310-3번지,충청남도 당진시 운학길 26 (채운동),,충남 동물병원,2018-09-13 23:59:59.0,34.981207946155344,128.93588195332316
4916,463000001019960001,1,영업/정상,0000,정상,,충청남도 당진시 합덕읍 운산리 358-2번지 충청동물병원,"충청남도 당진시 합덕읍 운산로 103, 충청동물병원",31811.0,충청동물병원,2018-09-13 23:59:59.0,35.09787614857914,128.83039233556767
4917,463000001019960002,1,영업/정상,0000,정상,,충청남도 당진시 신평면 거산리 161-4번지 거산동물병원,충청남도 당진시 신평면 거산3거리길 4 (거산동물병원),31748.0,거산동물병원,2018-08-31 23:59:59.0,35.084823924547905,128.9196361710017
4918,568000001020150001,1,영업/정상,0000,정상,,충청남도 당진시 면천면 성상리 783-5번지,충청남도 당진시 면천면 동문1길 15-4,31804.0,참 좋은 동물병원,2018-08-31 23:59:59.0,35.01840867549222,128.84401359595842
4919,463000001020090001,1,영업/정상,0000,정상,,충청남도 당진시 대덕동 1652,충청남도 당진시 무수동로 36 (대덕동),,당진종합 동물병원,2020-11-07 02:40:00.0,34.99200930752583,128.92804549771358
4920,463000001020100001,1,영업/정상,0000,정상,,충청남도 당진시 읍내동 300-1번지,"충청남도 당진시 계성3길 6 (읍내동, 행담동물병원)",31770.0,행담 동물병원,2018-08-31 23:59:59.0,34.99016284812601,128.9417007099878
4921,463000001020110001,1,영업/정상,0000,정상,,충청남도 당진시 순성면 봉소리 606-15 가동,"충청남도 당진시 순성면 순성로 419, 가동",31757.0,한울 AHC동물병원,2020-11-12 02:40:00.0,35.04720552495123,128.87590265473315
4922,568000001020120001,1,영업/정상,0000,정상,,충청남도 당진시 읍내동 산 66-2번지,"충청남도 당진시 무수동7길 42, 축협배합사료공장 (읍내동)",31774.0,당진축협동물병원,2020-04-19 02:40:00.0,34.99530985827184,128.9307833759777
4923,568000001020120002,1,영업/정상,0000,정상,,충청남도 당진시 우두동 1436번지,충청남도 당진시 우두로1길 2 (우두동),31768.0,현대동물병원,2019-04-27 02:40:00.0,34.98791514670664,128.94493039053782
4924,568000001020130001,1,영업/정상,0000,정상,,충청남도 당진시 수청동 999번지 로뎀타워 104동,"충청남도 당진시 당진중앙2로 447 (수청동, 로뎀타워 104동)",31771.0,센트럴동물병원,2019-08-28 02:40:00.0,34.999551704332674,128.94489366960224
4925,568000001020140001,1,영업/정상,0000,정상,,충청남도 당진시 대덕동 1841번지,"충청남도 당진시 대덕1로 125-84 (대덕동, 카이저)",31778.0,제일팜산업동물병원,2019-08-16 02:40:00.0,34.99945075992014,128.92517895719135
4926,568000001020140002,1,영업/정상,0000,정상,,충청남도 당진시 합덕읍 소소리 465-1,충청남도 당진시 합덕읍 남부로 1409,31809.0,우리동물병원,2021-07-11 02:40:00.0,35.069920904286526,128.856580513112
4927,568000001020180001,1,영업/정상,0000,정상,,충청남도 당진시 합덕읍 운산리 268-95,충청남도 당진시 합덕읍 중동길 32,31812.0,강한 우리동물병원,2021-10-27 02:40:00.0,35.10162922157173,128.83343767611234
4928,460000001019850001,1,영업/정상,0000,정상,,충청남도 홍성군 광천읍 신진리 522,충청남도 홍성군 광천읍 홍남로606번길 2,32296.0,김수의과동물병원,2021-11-24 02:40:00.0,34.98135300960138,128.4625047372107
4929,460000001019910003,1,영업/정상,0000,정상,,충청남도 홍성군 홍성읍 대교리 391-15번지,충청남도 홍성군 홍성읍 의사로43번길 7-5,32221.0,홍성종합동물병원,2019-04-27 02:40:00.0,35.02249921799407,128.58121478694906
4930,460000001019950001,1,영업/정상,0000,정상,,충청남도 홍성군 홍성읍 고암리 548-4번지,충청남도 홍성군 홍성읍 조양로 196,,세종동물병원,2019-04-27 02:40:00.0,35.023269172816846,128.58005610568165
4931,460000001019980001,1,영업/정상,0000,정상,,충청남도 홍성군 홍성읍 대교리 91-10번지,충청남도 홍성군 홍성읍 의사로64번길 32,,홍성낙협동물병원,2020-02-14 02:40:00.0,35.023621695994095,128.5811614476931
4932,558000001020090001,1,영업/정상,0000,정상,,충청남도 계룡시 엄사면 엄사리 184-4 지하 1층,"충청남도 계룡시 엄사면 엄사중앙로 93, 지하 1층",32805.0,충남동물병원,2021-12-24 02:40:00.0,35.48829153610961,128.20835615324322
4933,453000001020010001,1,영업/정상,0000,정상,,충청남도 서산시 동문동 1012-24,충청남도 서산시 안견로 247-1 (동문동),31991.0,신화,2020-12-13 02:40:00.0,34.84780689670674,128.79284019575798
4934,453000001020030001,1,영업/정상,0000,정상,,충청남도 서산시 읍내동 587-3,충청남도 서산시 부춘1로 47 (읍내동),31972.0,홍성낙협서산지점,2021-09-19 02:40:00.0,34.83906431270432,128.8027122111056
4935,453000001020050001,1,영업/정상,0000,정상,,충청남도 서산시 잠홍동 558-8번지,충청남도 서산시 고운로 329 (잠홍동),31966.0,정 동물병원,2019-03-08 02:40:00.0,34.859571746762334,128.80378172585503
4936,453000001020110001,1,영업/정상,0000,정상,,충청남도 서산시 동문동 987-13,충청남도 서산시 안견로 256 (동문동),31983.0,로얄동물병원,2021-01-21 02:40:00.0,34.84702051914487,128.79311515407005
4937,453000001020120001,1,영업/정상,0000,정상,,충청남도 서산시 예천동 1300-7,충청남도 서산시 호수공원12로 13 (예천동),31996.0,답21동물병원,2021-01-21 02:40:00.0,34.841274600990886,128.78602954824788
4938,453000001020120002,1,영업/정상,0000,정상,,충청남도 서산시 죽성동 74-1번지 죽성동 삼성아파트,"충청남도 서산시 남부순환로 767 (죽성동, 죽성동 삼성아파트)",32007.0,김도균동물병원,2019-03-08 02:40:00.0,34.84116601421572,128.75435575596387
4939,453000001020130001,1,영업/정상,0000,정상,,충청남도 서산시 동문동 225-1,충청남도 서산시 율지6로 42 (동문동),31993.0,한서동물의료센터,2020-12-12 02:40:00.0,34.85337462820179,128.79462768437344
4940,453000001020140001,1,영업/정상,0000,정상,,충청남도 서산시 읍내동 71-13 서원빌딩,"충청남도 서산시 안견로 312, 서원빌딩 (읍내동)",31984.0,성심동물의료센터,2021-01-21 02:40:00.0,34.84206435508924,128.79260714805963
4941,453000001020160001,1,영업/정상,0000,정상,,충청남도 서산시 대산읍 대산리 149-5번지,충청남도 서산시 대산읍 구진로 4,31909.0,대산동물병원,2019-03-08 02:40:00.0,34.82967284645542,128.9845206473301
4942,453000001020170001,1,영업/정상,0000,정상,,충청남도 서산시 동문동 1024-6,충청남도 서산시 안견로 235 (동문동),31991.0,서산동물병원,2020-12-17 02:40:00.0,34.848929569904364,128.79316672957992
4943,450000001020030012,1,영업/정상,0000,정상,,충청남도 공주시 우성면 동대리 145-6 145-6,충청남도 공주시 우성면 동대리길 78,32531.0,우성농협,2022-01-30 02:40:00.0,35.33238855015723,128.42586821429563
4944,450000001020030016,1,영업/정상,0000,정상,,충청남도 공주시 신관동 642-1번지,충청남도 공주시 번영1로 54 (신관동),32583.0,강북종합,2019-03-08 02:40:00.0,35.39871352765517,128.43068954381724
4945,451000001019860001,1,영업/정상,0000,정상,,충청남도 보령시 대천동 346-4번지,충청남도 보령시 대흥로 77 (대천동),33449.0,차동물병원,2020-06-09 02:40:00.0,34.96133008007185,128.2799403619254
4946,451000001019910001,1,영업/정상,0000,정상,,충청남도 보령시 대천동 434-6번지,충청남도 보령시 중앙로 105 (대천동),33455.0,김동물병원,2019-01-18 02:40:00.0,34.96286376684239,128.28036727884907
4947,451000001019910002,1,영업/정상,0000,정상,,충청남도 보령시 천북면 하만리 628-4,충청남도 보령시 천북면 홍보로 417-1,33402.0,충남동물병원,2020-11-05 02:40:00.0,34.90674136736898,128.4258384408138
4948,451000001019990001,1,영업/정상,0000,정상,,충청남도 보령시 대천동 435-20번지,충청남도 보령시 번영로 30 (대천동),33455.0,제일동물병원,2019-04-04 02:40:00.0,34.963142699135176,128.28026001365546
4949,450000001020140001,1,영업/정상,0000,정상,,충청남도 공주시 사곡면 호계리 300-1,충청남도 공주시 사곡면 마곡사로 106,32523.0,한우사랑동물병원,2020-10-21 02:40:00.0,35.31062385308798,128.46578756064412
4950,450000001020150001,1,영업/정상,0000,정상,,충청남도 공주시 금성동 19-29번지,충청남도 공주시 웅진로 235 (금성동),32538.0,중앙동물병원,2018-08-31 23:59:59.0,35.39051050257985,128.4164615367841
4951,450000001020150002,1,영업/정상,0000,정상,,충청남도 공주시 우성면 상서리 704번지,충청남도 공주시 우성면 우성길 162,32530.0,한울메디벳,2019-07-10 02:40:00.0,35.35385037633564,128.43589880044553
4952,450000001020150003,1,영업/정상,0000,정상,,충청남도 공주시 정안면 내촌리 146-1번지,충청남도 공주시 정안면 보물길 7-12,32512.0,태성동물병원,2019-04-27 02:40:00.0,35.38219804095913,128.5774686834595
4953,450000001020160001,1,영업/정상,0000,정상,,충청남도 공주시 신관동 256-6,충청남도 공주시 관골1길 63 (신관동),32575.0,금비동물병원,2021-05-14 02:40:00.0,35.399602774257175,128.43251756430146
4954,453000001019890001,1,영업/정상,0000,정상,,충청남도 서산시 동문동 293-11,충청남도 서산시 안견로 203 (동문동),31992.0,김신환동물병원,2020-12-11 02:40:00.0,34.85057227060293,128.7958392421604
4955,453000001019900001,1,영업/정상,0000,정상,,충청남도 서산시 동문동 309-3 서산공용버스터미널,"충청남도 서산시 안견로 190, 서산공용버스터미널 (동문동)",31981.0,여한경,2020-12-10 02:40:00.0,34.84981046590522,128.79767247028192
4956,453000001019950001,1,영업/정상,0000,정상,,충청남도 서산시 동문동 269-6 전망빌딩,"충청남도 서산시 안견로 231, 전망빌딩 (동문동)",31991.0,우리,2020-12-16 02:40:00.0,34.849275323323084,128.79335682252182
4957,453000001019960001,1,영업/정상,0000,정상,,충청남도 서산시 동문동 995-15,충청남도 서산시 안견로 263 (동문동),31991.0,고려동물병원,2021-10-02 02:40:00.0,34.84653882159608,128.79244333596478
4958,453000001019970001,1,영업/정상,0000,정상,,충청남도 서산시 해미면 읍내리 291-9,충청남도 서산시 해미면 남문6로 3,31960.0,해미성,2021-10-02 02:40:00.0,34.91899518428799,128.71645869105168
4959,453000001019990001,1,영업/정상,0000,정상,,충청남도 서산시 운산면 용현리 982 농협중앙회가축개량사업소별관,"충청남도 서산시 운산면 해운로 666, 농협중앙회가축개량사업소별관",31948.0,농협 한우개량사업소 가축병원,2022-01-23 02:40:00.0,34.935309986347676,128.78042009374326
4960,558000001020030001,1,영업/정상,0000,정상,,충청남도 계룡시 엄사면 엄사리 243-1번지,"충청남도 계룡시 엄사면 번영로 56, 1층",32806.0,노아동물병원,2019-03-08 02:40:00.0,35.48624984046638,128.2083416516914
4961,558000001020040001,1,영업/정상,0000,정상,,충청남도 계룡시 엄사면 엄사리 171-8 171-8,충청남도 계룡시 엄사면 전원로 8,32803.0,신도안동물병원,2020-09-27 02:40:00.0,35.48845978041156,128.21001634266779
4962,450000001020030004,1,영업/정상,0000,정상,,충청남도 공주시 금성동 184-7 184-7,충청남도 공주시 왕릉로 141-1 (금성동),32537.0,공주동물병원,2020-09-30 02:40:00.0,35.38939051681242,128.42079484052977
4963,450000001020030006,1,영업/정상,0000,정상,,충청남도 공주시 중학동 91-2번지 91-2,충청남도 공주시  웅진로  98-3 (중학동),,충남,2019-03-08 02:40:00.0,35.39060543062424,128.4021780989771
4964,450000001020030007,1,영업/정상,0000,정상,,충청남도 공주시 산성동 174-39 3통5반,충청남도 공주시 웅진로 209 (산성동),32539.0,대관령,2021-02-03 02:40:00.0,35.39115583701069,128.41440822189924
4965,450000001020030008,1,영업/정상,0000,정상,,충청남도 공주시 반죽동 194-3 2통2반,충청남도 공주시 감영길 7 (반죽동),32546.0,이기영,2021-07-03 02:40:00.0,35.38913942531259,128.40671028543133
4966,450000001020030009,1,영업/정상,0000,정상,,충청남도 공주시 신관동 197번지 3통4반 새뜸현대아파트 402동 2204호,충청남도 공주시 공주대학로 23-44 (신관동),32587.0,신동,2019-03-08 02:40:00.0,35.39993620414207,128.42600893580712
4967,460000001019980002,1,영업/정상,0000,정상,,충청남도 홍성군 광천읍 신진리 423-7번지,충청남도 홍성군 광천읍 홍남로 664,,신흥동물병원,2018-08-31 23:59:59.0,34.98672109879021,128.46147036976737
4968,460000001020000002,1,영업/정상,0000,정상,,충청남도 홍성군 광천읍 광천리 237-36번지,충청남도 홍성군 광천읍 광천로 295,,임창일동물병원,2019-04-27 02:40:00.0,34.98771901695362,128.45832387944944
4969,460000001020000003,1,영업/정상,0000,정상,,충청남도 홍성군 홍성읍 오관리 285번지,충청남도 홍성군 홍성읍 조양로 141,,충남동물병원,2019-04-27 02:40:00.0,35.01874748592263,128.58195148293376
4970,450000001020130003,1,영업/정상,0000,정상,,충청남도 공주시 신관동 601-8번지,충청남도 공주시 번영1로 42 (신관동),32584.0,세종공주축협동물병원,2019-04-27 02:40:00.0,35.398161569782744,128.42952646969678
4971,451000001020100001,1,영업/정상,0000,정상,,충청남도 보령시 동대동 1701번지,충청남도 보령시 한내로 21 (동대동),33434.0,보령동물병원,2019-06-30 02:40:00.0,34.9735659740198,128.27227704493103
4972,451000001020120001,1,영업/정상,0000,정상,,충청남도 보령시 천북면 하만리 271-2번지,충청남도 보령시 천북면 하궁길 13,33402.0,홍성낙농협동조합 천북동물병원,2020-04-05 02:40:00.0,34.90867373427022,128.43384459830187
4973,451000001020130001,1,영업/정상,0000,정상,,충청남도 보령시 궁촌동 349-4번지,충청남도 보령시 남대천로 123 (궁촌동),33459.0,바른동물병원,2019-06-20 02:40:00.0,34.96188743205932,128.27019392714928
4974,451000001020160001,1,영업/정상,0000,정상,,충청남도 보령시 동대동 1354,충청남도 보령시 동현로 12 (동대동),33435.0,훈 동물병원,2020-12-31 02:40:00.0,34.9761169442971,128.28061085981335
4975,454000001020030002,1,영업/정상,0000,정상,,충청남도 논산시 취암동 1040-16번지,충청남도 논산시 계백로 1006-3 (취암동),32974.0,캐비어동물병원,2018-08-31 23:59:59.0,35.365674666682125,128.10166975735294
4976,454000001020030003,1,영업/정상,0000,정상,,충청남도 논산시 취암동 1051-1번지,충청남도 논산시 중앙로398번길 2 (취암동),,호크종합동물병원,2018-08-31 23:59:59.0,35.36626847218285,128.0972464292676
4977,454000001020020001,1,영업/정상,0000,정상,,충청남도 논산시 연무읍 동산리 25-4,충청남도 논산시 연무읍 득안대로 467,33013.0,피그헬스동물병원,2020-09-24 02:40:00.0,35.39918746935497,128.0064929963058
4978,454000001020150001,1,영업/정상,0000,정상,,충청남도 논산시 부적면 마구평리 468-5번지,충청남도 논산시 부적면 마구평1길 6,32914.0,봉 동물병원,2019-01-17 02:40:00.0,35.39639928121168,128.11633289618874
4979,454000001020160001,1,영업/정상,0000,정상,,충청남도 논산시 취암동 581-7번지,충청남도 논산시 시민로 417 (취암동),32954.0,데일리동물병원,2019-01-17 02:40:00.0,35.363644728421704,128.0993505541264
4980,454000001020170001,1,영업/정상,0000,정상,,충청남도 논산시 내동 931번지,충청남도 논산시 시민로194번길 1 (내동),32989.0,논산계룡축협 동물병원,2019-01-17 02:40:00.0,35.374091679742186,128.07925384565473
4981,454000001020180001,1,영업/정상,0000,정상,,충청남도 논산시 벌곡면 검천리 337-3번지,충청남도 논산시 벌곡면 검천길 272,33026.0,비글구조네트워크 동물메디컬센터,2019-04-27 02:40:00.0,35.511860759283365,128.0677139331441
4982,449000001020040007,1,영업/정상,0000,정상,,충청남도 천안시 서북구 두정동 698번지,충청남도 천안시 서북구 두정로 146 (두정동),31090.0,해맑은동물병원,2018-08-31 23:59:59.0,35.391184970269556,128.87167436763832
4983,449000001020040008,1,영업/정상,0000,정상,,충청남도 천안시 서북구 성정동 1485번지 롯데마트 2층,"충청남도 천안시 서북구 성정두정로 1, 2층 (성정동, 롯데마트)",31109.0,펫가든동물병원,2018-08-31 23:59:59.0,35.39744105735333,128.86320571021494
4984,449000001020050001,1,영업/정상,0000,정상,,충청남도 천안시 서북구 백석동 872 대건플라자 108호,"충청남도 천안시 서북구 백석3로 134, 108호 (백석동,대건플라자)",,백석동물병원,2020-08-30 02:40:00.0,35.38494792366698,128.8574689255848
4985,449000001020050002,1,영업/정상,0000,정상,,충청남도 천안시 서북구 쌍용동 1176-1,"충청남도 천안시 서북구 쌍용대로 43 (쌍용동, 진주빌딩)",31155.0,굿모닝24시동물병원,2021-07-18 02:40:00.0,35.39045203775897,128.832223635659
4986,449000001020060001,1,영업/정상,0000,정상,,충청남도 천안시 동남구 병천면 병천리 230-1번지 1통,충청남도 천안시 동남구 병천면 아우내순대길 16,31254.0,병천동물병원,2018-08-31 23:59:59.0,35.52506150642106,128.78406539847649
4987,461000001020110002,1,영업/정상,0000,정상,,충청남도 예산군 예산읍 주교리 225-9번지,충청남도 예산군 예산읍 역전로 70,,한일동물병원,2018-08-31 23:59:59.0,35.149674923945994,128.68588694761982
4988,450000001020170001,1,영업/정상,0000,정상,,충청남도 공주시 송선동 50-8,충청남도 공주시 장척로 76 (송선동),32590.0,세종팜스,2021-02-21 02:40:00.0,35.430894350642575,128.44711536952713
4989,450000001020070001,1,영업/정상,0000,정상,,충청남도 공주시 신관동 534-2번지 449-74,충청남도 공주시 신덕마을길 5 (신관동),32529.0,천안공주낙농농협동물병원,2018-08-31 23:59:59.0,35.38784715881793,128.43411239481316
4990,450000001020110001,1,영업/정상,0000,정상,,충청남도 공주시 금성동 19-29번지,충청남도 공주시 웅진로 235 (금성동),32538.0,중앙가축병원,2018-08-31 23:59:59.0,35.39051050257985,128.4164615367841
4991,460000001020010001,1,영업/정상,0000,정상,,충청남도 홍성군 홍성읍 대교리 731번지,충청남도 홍성군 홍성읍 의사로36번길 51,,한길동물병원,2018-08-31 23:59:59.0,35.02732365293193,128.5825787571934
4992,460000001020030001,1,영업/정상,0000,정상,,충청남도 홍성군 홍성읍 월산리 859-8번지 203호,"충청남도 홍성군 홍성읍 법원1길 12, 203호",,신베트,2019-04-27 02:40:00.0,35.00749312476981,128.57969777928918
4994,460000001020040002,1,영업/정상,0000,정상,,충청남도 홍성군 홍성읍 고암리 536-1번지,충청남도 홍성군 홍성읍 조양로 190,32231.0,강남동물병원,2019-04-27 02:40:00.0,35.022718784049054,128.58018314411197
4995,460000001020050001,1,영업/정상,0000,정상,,충청남도 홍성군 홍성읍 월산리 277-12번지,충청남도 홍성군 홍성읍 구항길 389,32250.0,홍성축협 동물병원,2018-08-31 23:59:59.0,34.99712288038409,128.56555481641135
4996,460000001020060001,1,영업/정상,0000,정상,,충청남도 홍성군 홍성읍 오관리 297-29번지,충청남도 홍성군 홍성읍 조양로151번길 25,32222.0,강영석동물병원,2019-04-27 02:40:00.0,35.019724982080284,128.58288303954964
4997,449000001020080001,1,영업/정상,0000,정상,,충청남도 천안시 서북구 성정동 1230번지,충청남도 천안시 서북구 성정중4길 3 (성정동),,페트로 동물병원,2018-08-31 23:59:59.0,35.391663734916314,128.8645626257271
4998,450000001020170002,1,영업/정상,0000,정상,,충청남도 공주시 유구읍 석남리 275-10번지,충청남도 공주시 유구읍 중앙1길 88,32506.0,뿌리동물병원,2019-03-08 02:40:00.0,35.24966713086129,128.52560636716012
4999,454000001019830001,1,영업/정상,0000,정상,,충청남도 논산시 대교동 112-1번지 2통,충청남도 논산시 중앙로 504 (대교동),32948.0,논산동물병원,2018-08-31 23:59:59.0,35.36061387093017,128.10670749266924
5000,454000001019870001,1,영업/정상,0000,정상,,충청남도 논산시 반월동 41-8번지 1통,충청남도 논산시 중앙로480번길 42 (반월동),32968.0,중앙동물병원,2019-01-17 02:40:00.0,35.36501402934353,128.10501901981635
5001,454000001019880001,1,영업/정상,0000,정상,,충청남도 논산시 강경읍 염천리 81번지,충청남도 논산시 강경읍 옥녀봉로19번길 38-1,32937.0,서동물병원,2018-08-31 23:59:59.0,35.306141341903576,128.04647517988369
5002,454000001019950001,1,영업/정상,0000,정상,,충청남도 논산시 연무읍 안심리 1-155번지,충청남도 논산시 연무읍 안심로127번길 11-2,33008.0,가나동물병원,2019-01-17 02:40:00.0,35.3748446994902,128.01302440282313
5003,454000001020040003,1,영업/정상,0000,정상,,충청남도 논산시 벌곡면 한삼천리 264-4번지,충청남도 논산시 벌곡면 대둔로 825-6,33026.0,연산동물병원,2019-04-28 02:40:00.0,35.50982482351206,128.10930951634725
5004,454000001020050002,1,영업/정상,0000,정상,,충청남도 논산시 부적면 덕평리 35-3,충청남도 논산시 부적면 백일헌로 25,32914.0,충남동물병원,2020-07-17 02:40:00.0,35.41034828838111,128.1163819427172
5005,454000001020080001,1,영업/정상,0000,정상,,충청남도 논산시 연무읍 안심리 289번지 8통,충청남도 논산시 연무읍 안심로 200-1,33009.0,금강축산가축병원,2019-01-17 02:40:00.0,35.36681211424016,128.01350107591756
5006,454000001020080002,1,영업/정상,0000,정상,,충청남도 논산시 내동 931번지,충청남도 논산시 시민로194번길 1 (내동),,논산계룡축협 동물병원,2018-08-31 23:59:59.0,35.374091679742186,128.07925384565473
5007,454000001020130001,1,영업/정상,0000,정상,,충청남도 논산시 취암동 1039-11번지,충청남도 논산시 관촉로 288 (취암동),32973.0,유명동물병원,2018-08-31 23:59:59.0,35.367220150996964,128.10300510689675
5008,454000001020130002,1,영업/정상,0000,정상,,충청남도 논산시 성동면 정지리 367-11,충청남도 논산시 성동면 원봉길 7,,우리생명과학동물병원,2020-07-17 02:40:00.0,35.33779487995066,128.10984168112748
5009,566000001020130001,1,영업/정상,0000,정상,,충청남도 천안시 서북구 두정동 544번지 두정빌딩 102호,"충청남도 천안시 서북구 두정로 114, 102호 (두정동, 두정빌딩)",31090.0,한빛동물병원,2018-08-31 23:59:59.0,35.388241938530776,128.87178167495858
5010,566000001020130003,1,영업/정상,0000,정상,,충청남도 천안시 서북구 불당동 1492번지 천안불당파크푸르지오 1단지 상가1동 204호,"충청남도 천안시 서북구 불당26로 144, 상가1동 204호 (불당동, 천안불당파크푸르지오 1단지)",31156.0,닥터 전 동물병원,2018-09-17 23:59:59.0,35.37170415406086,128.8558525101313
5011,566000001020130005,1,영업/정상,0000,정상,,충청남도 천안시 서북구 쌍용동 1059번지,충청남도 천안시 서북구 서부대로 408 (쌍용동),31155.0,엔젤동물병원,2018-12-07 02:40:00.0,35.387574209468596,128.83501696540864
