번호,MANAGEMENT_NUMBER,영업상태구분코드,영업상태명,상세영업상태코드,상세영업상태명,SUB_ZIPCODE,SUB_ADDRESS,ADDRESS,ZIP_CODE,NAME,데이터갱신일자,LONGITUDE,LATITUDE
4412,362000001020120003,1,영업/정상,0000,정상,,광주광역시 북구 일곡동 843-5번지,광주광역시 북구 양일로305번길 8 (일곡동),61040.0,일곡동물병원,2018-08-31 23:59:59.0,126.8942853300387,35.2031705483491
4413,362000001020150001,1,영업/정상,0000,정상,,광주광역시 북구 임동 5-16번지,광주광역시 북구 태봉로 37-6 (임동),61244.0,우리동물병원,2019-04-25 02:40:00.0,126.90045761728278,35.16155899616464
4414,362000001020150002,1,영업/정상,0000,정상,,광주광역시 북구 양산동 254-123,"광주광역시 북구 하서로 371, 1층 (양산동)",61074.0,참좋은 동물병원,2021-05-20 02:40:00.0,126.87056247170224,35.20809410534922
4415,362000001020150003,1,영업/정상,0000,정상,,광주광역시 북구 오치동 1028-27,광주광역시 북구 서하로 319-1 (오치동),61124.0,김앤강 동물병원,2021-01-16 02:40:00.0,126.91266777322875,35.18708899309391
4416,362000001020150004,1,영업/정상,0000,정상,,광주광역시 북구 우산동 609-3,광주광역시 북구 중문로 74 (우산동),61172.0,빛고을 동물의료센터,2022-01-21 02:40:00.0,126.91772686038101,35.17910453515357
4417,362000001020160002,1,영업/정상,0000,정상,,광주광역시 북구 매곡동 370-7번지,광주광역시 북구 하백로5번길 1 (매곡동),61066.0,24시 언제나 동물병원,2019-04-25 02:40:00.0,126.88753484234806,35.187885808715265
4418,362000001019960001,1,영업/정상,0000,정상,,광주광역시 북구 우산동 232-10번지,광주광역시 북구 동문대로 79 (우산동),,말바우동물병원,2018-08-31 23:59:59.0,126.91967438663569,35.17130619846035
4419,362000001019960002,1,영업/정상,0000,정상,,광주광역시 북구 신안동 479-36,광주광역시 북구 서암대로 167 (신안동),,유동물병원,2021-01-16 02:40:00.0,126.89962200834547,35.16932193543977
4420,362000001020170002,1,영업/정상,0000,정상,,광주광역시 북구 삼각동 780-1,광주광역시 북구 설죽로471번길 101-102 (삼각동),61057.0,이든동물병원,2021-10-27 02:40:00.0,126.89604527724336,35.20134162915703
4421,362000001020170003,1,영업/정상,0000,정상,,광주광역시 북구 지야동 802-35번지,"광주광역시 북구 하서로 652-6, 103호 (지야동)",61027.0,소담동물병원,2019-03-19 02:40:00.0,126.88396224258898,35.23077919983152
4422,362000001020180001,1,영업/정상,0000,정상,,광주광역시 북구 본촌동 378-6 동물보호소,"광주광역시 북구 본촌마을길 27, 동물보호소 (본촌동)",61027.0,광주동물보호소 부속동물병원,2021-07-08 02:40:00.0,126.87854917968906,35.222493442760936
4423,345000001019840001,1,영업/정상,0000,정상,,대구광역시 북구 산격동 1370-1 경북대학교 수의과대학,"대구광역시 북구 대학로 80 (산격동, 경북대학교 수의과대학)",41566.0,경북대학교 수의과대학 부속동물병원,2021-10-14 02:40:00.0,128.60712903407858,35.89070704265146
4424,345000001019920002,1,영업/정상,0000,정상,,대구광역시 북구 검단동 700-2,대구광역시 북구 검단북로 154 (검단동),,대구축협동물병원,2022-01-12 02:40:00.0,128.6201439626058,35.91575549948994
4425,345000001020010001,1,영업/정상,0000,정상,,대구광역시 북구 관음동 1383-14,대구광역시 북구 칠곡중앙대로 483 (관음동),,강동물병원,2021-10-15 02:40:00.0,128.54637604194676,35.93884399085342
4426,345000001020150002,1,영업/정상,0000,정상,,대구광역시 북구 태전동 1113,대구광역시 북구 칠곡중앙대로 189 (태전동),41471.0,다온동물병원,2021-10-15 02:40:00.0,128.54516897128636,35.912969931507355
4427,345000001020170001,1,영업/정상,0000,정상,,대구광역시 북구 칠성동2가 2-2,"대구광역시 북구 침산로21길 23 (칠성동2가, 침산1차푸르지오)",41593.0,신한동물병원,2021-10-15 02:40:00.0,128.58508433249395,35.88524513068126
4428,345000001019810001,1,영업/정상,0000,정상,,대구광역시 북구 읍내동 781-1,대구광역시 북구 칠곡중앙대로 531 (읍내동),41442.0,동명동물병원,2021-10-15 02:40:00.0,128.54753009170932,35.94314766709939
4429,345000001020030003,1,영업/정상,0000,정상,,대구광역시 북구 동천동 932-4,대구광역시 북구 대천로 72-1 (동천동),,굿모닝동물병원,2021-10-15 02:40:00.0,128.55428447978437,35.93697367926222
4430,345000001020030004,1,영업/정상,0000,정상,,대구광역시 북구 산격동 1216-4,대구광역시 북구 산격로 109 (산격동),,가나동물병원,2021-10-15 02:40:00.0,128.60535652162739,35.89932439875276
4431,345000001020030005,1,영업/정상,0000,정상,,대구광역시 북구 관음동 1386-7,대구광역시 북구 칠곡중앙대로 471 (관음동),,늘푸른종합동물병원,2021-10-15 02:40:00.0,128.54603159952578,35.937772994094786
4432,345000001020040001,1,영업/정상,0000,정상,,대구광역시 북구 동천동 668-1 13통5반 칠곡홈플러스 301호,"대구광역시 북구 동암로12길 8, 2층 (동천동, 칠곡홈플러스)",41422.0,도그플러스 동물병원(미유펫 대구점),2021-10-15 02:40:00.0,128.55304914654278,35.94484972504992
4433,345000001020050003,1,영업/정상,0000,정상,,대구광역시 북구 태전동 1195,"대구광역시 북구 학정로 149, 한우리메디타워 2층 204호 (태전동)",41467.0,순풍동물병원,2021-10-15 02:40:00.0,128.54824072644527,35.9214748988915
4434,318000001020210002,1,영업/정상,0000,정상,,서울특별시 영등포구 신길동 324-49 영민빌딩 1층,"서울특별시 영등포구 가마산로 449-1, 영민빌딩 1층 (신길동)",7383.0,다움동물병원,2021-07-02 00:23:01.0,126.9034300393105,37.505781251110065
4435,541000001019750001,1,영업/정상,0000,정상,,경상남도 창녕군 남지읍 남지리 534-11 2통2반,경상남도 창녕군 남지읍 동포로 9,50358.0,남지가축병원,2021-01-20 02:40:00.0,128.47860741593666,35.390064584696084
4436,541000001020040001,1,영업/정상,0000,정상,,경상남도 창녕군 창녕읍 하리 421-1,경상남도 창녕군 창녕읍 갈전길 153,,창녕축협동물병원,2021-03-24 02:40:00.0,128.4807095393574,35.563669847768686
4437,541000001020070001,1,영업/정상,0000,정상,,경상남도 창녕군 영산면 동리 134-26번지,경상남도 창녕군 영산면 원다리길 45-2,50345.0,미래동물병원,2018-10-10 02:35:48.0,128.52613565415191,35.45372437711955
4438,541000001019940001,1,영업/정상,0000,정상,,경상남도 창녕군 창녕읍 말흘리 747-11번지,경상남도 창녕군 창녕읍 창녕대로 153-1,50333.0,광진동물병원,2018-08-31 23:59:59.0,128.4979321066535,35.532764986171486
4439,541000001020020001,1,영업/정상,0000,정상,,경상남도 창녕군 영산면 서리 216-9번지,경상남도 창녕군 영산면 영산장마로 745,50342.0,김수의과병원&lt;산업동물출장진료전문병원&gt;,2018-08-31 23:59:59.0,128.52247363943124,35.457486299655336
4440,541000001019690001,1,영업/정상,0000,정상,,경상남도 창녕군 창녕읍 술정리 294-7,경상남도 창녕군 창녕읍 창녕대로 54,,남창가축병원,2021-08-13 02:40:00.0,128.4902077723111,35.5389942867141
4441,541000001019630001,1,영업/정상,0000,정상,,경상남도 창녕군 영산면 서리 110-3번지 5통3반,경상남도 창녕군 영산면 로터리길 38,50345.0,영산가축병원<산업동물출장진료전문병원>,2018-08-31 23:59:59.0,128.52727290499428,35.45460002297261
4442,542000001020120001,1,영업/정상,0000,정상,,경상남도 고성군 고성읍 송학리 416-58번지,경상남도 고성군 고성읍 송학고분로 317,52931.0,미소종합동물병원,2020-03-08 02:40:00.0,128.32181229579697,34.98157785678232
4443,542000001020140001,1,영업/정상,0000,정상,,경상남도 고성군 고성읍 수남리 542-31번지,경상남도 고성군 고성읍 남포로 75-3,52935.0,서울동물병원,2019-09-06 02:40:00.0,128.31737047465302,34.96982008805225
4444,546000001020030001,1,영업/정상,0000,정상,,경상남도 함양군 함양읍 교산리 189-1번지 6통2반,경상남도 함양군 함양읍 함양로 1182-1,50033.0,현대동물병원(출장진료전문병원),2018-08-31 23:59:59.0,127.72605267143543,35.524143519975716
4445,546000001020030002,1,영업/정상,0000,정상,,경상남도 함양군 안의면 금천리 115-5번지,경상남도 함양군 안의면 종로길 11-6,50011.0,이수의과동물병원,2019-01-18 02:40:00.0,127.81047926811355,35.62805600163174
4446,546000001020030006,1,영업/정상,0000,정상,,경상남도 함양군 함양읍 교산리 396-1번지,경상남도 함양군 함양읍 함양로 1271,50031.0,진동물병원,2019-03-08 02:40:00.0,127.73097585645081,35.530719172000204
4447,546000001020030007,1,영업/정상,0000,정상,,경상남도 함양군 함양읍 용평리 646-2번지,경상남도 함양군 함양읍 중앙시장길 17 (신성가축병원),50046.0,신성가축병원,2019-01-18 02:40:00.0,127.72725945375895,35.517809434089166
4448,546000001020030008,1,영업/정상,0000,정상,,경상남도 함양군 함양읍 백연리 340,경상남도 함양군 함양읍 돌북1길 27,50044.0,형제동물병원,2020-11-01 02:40:00.0,127.71881180413715,35.516600148856234
4449,546000001020170001,1,영업/정상,0000,정상,,경상남도 함양군 함양읍 용평리 628-7번지 105호,"경상남도 함양군 함양읍 용평중앙길 43, 1층 105호",50039.0,함양동물병원,2018-08-31 23:59:59.0,127.72845235276183,35.51925842380388
4450,461000001019770001,1,영업/정상,0000,정상,,충청남도 예산군 예산읍 주교리 225-1번지 2통우영연립 A동 203호,충청남도 예산군 예산읍 예산로 31,32431.0,새마을동물병원,2018-08-31 23:59:59.0,126.82713280443411,36.68567766820155
4451,461000001019860001,1,영업/정상,0000,정상,,충청남도 예산군 덕산면 읍내리 234-12번지 2통,충청남도 예산군 덕산면 예덕로 8,32406.0,김태오 동물병원,2018-08-31 23:59:59.0,126.66655602287445,36.7046820551012
4452,461000001019900001,1,영업/정상,0000,정상,,충청남도 예산군 예산읍 예산리 182,충청남도 예산군 예산읍 아리랑로 236,32434.0,흙 동물병원,2021-08-12 02:40:00.0,126.84925408982983,36.68102721190214
4453,461000001019960001,1,영업/정상,0000,정상,,충청남도 예산군 고덕면 대천리 663번지 1통삼미아파트 B동 603호,충청남도 예산군 고덕면 고덕중앙로 86,32403.0,중앙 동물병원,2018-08-31 23:59:59.0,126.69951156693215,36.74672405113579
4454,461000001019980001,1,영업/정상,0000,정상,,충청남도 예산군 예산읍 주교리 240-5번지 1통,충청남도 예산군 예산읍 역전로 51,32431.0,예산 동물병원,2018-08-31 23:59:59.0,126.82618581791951,36.68371763335972
4455,461000001020060001,1,영업/정상,0000,정상,,충청남도 예산군 삽교읍 송산리 73-5번지,충청남도 예산군 삽교읍 충의로 170,340901.0,한솔가축병원,2018-08-31 23:59:59.0,126.68404424785555,36.694879031955956
4456,461000001020090002,1,영업/정상,0000,정상,,충청남도 예산군 예산읍 예산리 880번지 한양아파트 30동 1103호,충청남도 예산군 예산읍 사직로 24,32435.0,협동동물병원,2018-08-31 23:59:59.0,126.84559637885403,36.68159693738794
4457,461000001020100002,1,영업/정상,0000,정상,,충청남도 예산군 광시면 광시리 657-2번지 104호,충청남도 예산군 광시면 예당로 190 (104호),,강이동물병원,2018-08-31 23:59:59.0,126.77307617714598,36.55147970121594
4458,449000001019960001,1,영업/정상,0000,정상,,충청남도 천안시 동남구 청당동 511,충청남도 천안시 동남구 청수11로 12 (청당동),31198.0,천안축산업협동조합 부설동물병원,2020-11-07 02:40:00.0,127.15073240281302,36.78252551651017
4459,449000001019980001,1,영업/정상,0000,정상,,충청남도 천안시 서북구 쌍용동 1169번지,충청남도 천안시 서북구 쌍용대로 51 (쌍용동),31155.0,우리동물병원,2018-08-31 23:59:59.0,127.12850622965072,36.802055125906556
4460,449000001019980002,1,영업/정상,0000,정상,,충청남도 천안시 동남구 원성동 587-10번지,충청남도 천안시 동남구 충무로 475 (원성동),31186.0,장원동물병원,2019-03-09 02:40:00.0,127.15509589225766,36.79888910398203
4461,449000001020000002,1,영업/정상,0000,정상,,충청남도 천안시 서북구 성환읍 매주리 330-1,충청남도 천안시 서북구 성환읍 매주4길 20,31011.0,하나동물병원,2021-10-03 02:40:00.0,127.12504134841325,36.91164957597118
4462,449000001020020006,1,영업/정상,0000,정상,,충청남도 천안시 동남구 성황동 10-16번지,충청남도 천안시 동남구 대흥로 320 (성황동),,그림동물병원,2018-08-31 23:59:59.0,127.14787707823646,36.816280331646155
4463,449000001020030001,1,영업/정상,0000,정상,,충청남도 천안시 동남구 신부동 816번지 대흥빌딩,충청남도 천안시 동남구 터미널2로 8 (신부동),31119.0,에니펫동물병원,2018-08-31 23:59:59.0,127.15560699413884,36.81963781843026
4464,449000001020040001,1,영업/정상,0000,정상,,충청남도 천안시 서북구 두정동 1263번지 주차빌딩101,"충청남도 천안시 서북구 두정로 203 (두정동,주차빌딩101)",,펫프렌즈동물병원,2018-08-31 23:59:59.0,127.13671814964259,36.833969807590954
4465,449000001020040004,1,영업/정상,0000,정상,,충청남도 천안시 서북구 쌍용동 1544-1번지 쌍용메디칼,"충청남도 천안시 서북구 월봉로 85, 쌍용메디칼 (쌍용동)",31171.0,김수영 동물병원,2019-01-17 02:40:00.0,127.1150009086883,36.79837354375117
4466,461000001020130002,1,영업/정상,0000,정상,,충청남도 예산군 예산읍 대회리 1 공주대학교 산업과학대학 내,충청남도 예산군 예산읍 대학로 54 (공주대학교 산업과학대학 내),,충남야생동물구조센터,2021-05-27 02:40:00.0,126.85677605674793,36.67008140005202
4467,461000001020160002,1,영업/정상,0000,정상,,충청남도 예산군 예산읍 산성리,충청남도 예산군 예산읍 벚꽃로 153,32428.0,KU건국동물병원,2018-08-31 23:59:59.0,126.8334332948019,36.69418405201369
4468,461000001020170001,1,영업/정상,0000,정상,,충청남도 예산군 고덕면 대천리 728-18번지,충청남도 예산군 고덕면 황금뜰로 215,32403.0,윤동물병원·약품(출장진료전문),2019-05-01 02:40:00.0,126.7014097585771,36.746430836552584
4469,461000001020180001,1,영업/정상,0000,정상,,충청남도 예산군 덕산면 신평리 91-5,충청남도 예산군 덕산면 수암산로 160,32406.0,마일스톤피그클리닉(출장진료전문),2020-09-20 02:40:00.0,126.66843356151392,36.6899368892904
4470,565000001020130001,1,영업/정상,0000,정상,,충청남도 천안시 동남구 신부동 319-37번지,충청남도 천안시 동남구 중앙로 281-2 (신부동),31117.0,고려동물병원,2018-08-31 23:59:59.0,127.14955701304049,36.82345256073374
4471,565000001020130003,1,영업/정상,0000,정상,,충청남도 천안시 동남구 청수동 262번지 청솔LG아파트 상가 지하1층 2호,"충청남도 천안시 동남구 청수로 98 (청수동, 청솔LG아파트 상가 지하1층 2호)",31194.0,서현동물병원,2018-08-31 23:59:59.0,127.1533295649779,36.79127467928141
4472,565000001020130004,1,영업/정상,0000,정상,,충청남도 천안시 동남구 청수동 261번지 청솔LG아파트 상가 지하1층1호,"충청남도 천안시 동남구 청수로 98 (청수동, 청솔LG아파트 상가 지하1층1호)",31194.0,다산동물병원,2018-08-31 23:59:59.0,127.15481216425911,36.791899369514915
4474,565000001020150004,1,영업/정상,0000,정상,,충청남도 천안시 동남구 청당동 153-15,"충청남도 천안시 동남구 남부대로 344, 1층 (청당동)",31211.0,가온동물병원,2021-12-23 02:40:00.0,127.15217774166794,36.78089709358024
4475,565000001020160002,1,영업/정상,0000,정상,,충청남도 천안시 동남구 신부동 388-5번지 천광빌딩,"충청남도 천안시 동남구 대흥로 339, 천광빌딩 (신부동)",31121.0,열린동물병원,2019-07-20 02:40:00.0,127.1486257987031,36.818066535549356
4477,449000001019850001,1,영업/정상,0000,정상,,충청남도 천안시 서북구 성환읍 성환리 449-118번지,충청남도 천안시 서북구 성환읍 성환1로 235,,충일,2018-08-31 23:59:59.0,127.12498531755597,36.9156948512233
4478,449000001019860001,1,영업/정상,0000,정상,,충청남도 천안시 동남구 신방동 263-3번지,충청남도 천안시 동남구 풍세로 614 (신방동),,유일동물병원(산업동물에 대한 출장진료를 전문으로 함.),2018-08-31 23:59:59.0,127.1294708221319,36.76798099003062
4479,449000001019910001,1,영업/정상,0000,정상,,충청남도 천안시 서북구 성환읍 성환리 449-342번지,충청남도 천안시 서북구 성환읍 성환1로 275,,태성동물병원,2019-05-01 02:40:00.0,127.12455278226001,36.919319560737016
4480,565000001020160003,1,영업/정상,0000,정상,,충청남도 천안시 동남구 신방동 1536번지,충청남도 천안시 동남구 통정10로 33-10 (신방동),31208.0,나음동물병원,2018-08-31 23:59:59.0,127.12927098599525,36.773764700902966
4481,565000001020160005,1,영업/정상,0000,정상,,충청남도 천안시 동남구 신방동 49-14번지 이화빌딩,"충청남도 천안시 동남구 수곡2길 8-3, 이화빌딩 (신방동)",31176.0,다솜동물병원,2019-12-01 02:40:00.0,127.12554027509944,36.789000635785285
4482,565000001020170001,1,영업/정상,0000,정상,,충청남도 천안시 동남구 봉명동 32-1,"충청남도 천안시 동남구 봉정로 6, 2층 (봉명동)",31153.0,치유동물병원,2021-04-11 02:40:00.0,127.13657747659722,36.80277544870061
4483,565000001020170002,1,영업/정상,0000,정상,,충청남도 천안시 동남구 수신면 속창리 134-6번지,충청남도 천안시 동남구 수신면 수신로 455,31251.0,다나동물병원(산업동물에 대한 출장진료를 전문으로 함.),2019-05-01 02:40:00.0,127.28050471471806,36.732184524457125
4484,565000001020180001,1,영업/정상,0000,정상,,충청남도 천안시 동남구 신부동 88-3,충청남도 천안시 동남구 충절로 35 (신부동),31125.0,서울88동물의료원,2021-12-23 02:40:00.0,127.15570579528965,36.81584069092988
4485,449000001019910002,1,영업/정상,0000,정상,,충청남도 천안시 서북구 성정동 434-9,충청남도 천안시 서북구 쌍용대로 317 (성정동),,늘푸른동물병원두정의료센터,2020-08-30 02:40:00.0,127.13413005368471,36.82523111091341
4486,449000001019920001,1,영업/정상,0000,정상,,충청남도 천안시 동남구 원성동 601-1번지,충청남도 천안시 동남구 원거리7길 2 (원성동),,중앙동물병원,2018-08-31 23:59:59.0,127.15088750063869,36.79896109875878
4487,449000001019940001,1,영업/정상,0000,정상,,충청남도 천안시 동남구 영성동 67-3번지 18통3반,충청남도 천안시 동남구 대흥로 94-1 (영성동),31131.0,녹십자,2018-08-31 23:59:59.0,127.14904817425399,36.79934561835409
4488,449000001019940002,1,영업/정상,0000,정상,,충청남도 천안시 서북구 성환읍 매주리 435-1번지,충청남도 천안시 서북구 성환읍 성환1로 116,31019.0,천안공주낙농축산업협동조합부설동물병원,2018-08-31 23:59:59.0,127.12649426599901,36.904773347860626
4489,449000001019950003,1,영업/정상,0000,정상,,충청남도 천안시 동남구 다가동 373-3번지,충청남도 천안시 동남구 차돌로 50 (다가동),,대전충남 양돈축산업협동조합 부설동물병원,2020-04-19 02:40:00.0,127.13324804086832,36.80074401493482
4490,566000001020120002,1,영업/정상,0000,정상,,충청남도 천안시 서북구 불당동 1220 1층호,"충청남도 천안시 서북구 불당7길 25, 1층 (불당동)",31164.0,동물병원닥터스,2021-03-13 02:40:00.0,127.10914332094636,36.80314482402414
4491,440000001020070001,1,영업/정상,0000,정상,,충청북도 제천시 명동 11-9번지,충청북도 제천시 의병대로 55-3 (명동),27169.0,한일동물병원,2018-08-31 23:59:59.0,128.20417052380287,37.13736568141541
4492,440000001020160001,1,영업/정상,0000,정상,,충청북도 제천시 하소동 165-59번지,충청북도 제천시 원뜰로 34 (하소동),27187.0,명진동물병원,2018-08-31 23:59:59.0,128.19213550021456,37.1332401738815
4493,440000001020170001,1,영업/정상,0000,정상,,충청북도 제천시 장락동 635-27,"충청북도 제천시 죽하로 5, 1층 (장락동)",27148.0,제천 그레이스 동물병원,2020-09-04 02:40:00.0,128.2195903395552,37.15229953979766
4494,447000001019840001,1,영업/정상,0000,정상,,충청북도 음성군 삼성면 덕정리 525-19번지,충청북도 음성군 삼성면 대성로 613,27652.0,삼성가축병원,2019-04-17 02:40:00.0,127.49542152083407,37.01839777719348
4495,447000001019870001,1,영업/정상,0000,정상,,충청북도 음성군 음성읍 읍내리 549-12 6통3반,충청북도 음성군 음성읍 중앙로 142,27695.0,음성동물병원,2020-09-23 02:40:00.0,127.68709876421065,36.93657314869199
4496,447000001019900001,1,영업/정상,0000,정상,,충청북도 음성군 금왕읍 금석리 275-10번지,충청북도 음성군 금왕읍 대금로 1498,,금왕동물병원,2018-08-31 23:59:59.0,127.59557389922291,36.98920147127143
4497,447000001019990001,1,영업/정상,0000,정상,,충청북도 음성군 음성읍 읍내리 398-7번지,충청북도 음성군 음성읍 중앙로40번길 24,27706.0,남영가축병원 (출장진료전문병원),2018-08-31 23:59:59.0,127.68917686980849,36.92754474170678
4499,447000001020070002,1,영업/정상,0000,정상,,충청북도 음성군 대소면 대풍리 524-2번지,충청북도 음성군 대소면 대금로54번길 8,27671.0,반석가금진료연구소,2018-08-31 23:59:59.0,127.44899118845709,36.98554897251732
4500,447000001020160002,1,영업/정상,0000,정상,,,"충청북도 음성군 대소면 대금로 822, A단지 나동 104호 (대왕하이텍공구타운A단지)",27663.0,전동물병원 (출장진료전문병원),2018-08-31 23:59:59.0,127.52466672337778,36.98024237907573
4501,447000001020160004,1,영업/정상,0000,정상,,충청북도 음성군 대소면 태생리 519번지,충청북도 음성군 대소면 대금로 502,27666.0,대소동물병원,2018-08-31 23:59:59.0,127.49072267555749,36.96679910187488
4502,447000001020180001,1,영업/정상,0000,정상,,충청북도 음성군 맹동면 동성리 501,"충청북도 음성군 맹동면 대하1길 4, 위너스타워 2층 205, 206호",27738.0,그린벨동물의료센터,2020-10-14 02:40:00.0,127.53817917431422,36.90780299941149
4503,447000001020110001,1,영업/정상,0000,정상,,충청북도 음성군 음성읍 읍내리 314-9,충청북도 음성군 음성읍 시장로 99,,음성축산업협동조합 동물병원,2021-12-09 02:40:00.0,127.68919507830421,36.93629846974565
4504,440000001019900001,1,영업/정상,0000,정상,,충청북도 제천시 중앙로2가 27-10번지 9통3반,충청북도 제천시 의림대로15길 24 (중앙로2가),27169.0,진주동물병원,2018-08-31 23:59:59.0,128.2070322531491,37.13962036287896
4505,301000001019920001,1,영업/정상,0000,정상,,서울특별시 중구 신당동 336-3번지 명덕빌딩,"서울특별시 중구 다산로 175, 명덕빌딩 (신당동)",4608.0,바우미우동물병원,2019-03-08 02:40:00.0,127.0099510158038,37.55929265528706
4506,301000001019950001,1,영업/정상,0000,정상,,서울특별시 중구 묵정동 32-1번지,서울특별시 중구 퇴계로 254-1 (묵정동),4619.0,황동물병원,2019-03-08 02:40:00.0,126.99711534707994,37.56237118345762
4507,307000001020000004,1,영업/정상,0000,정상,,서울특별시 성북구 보문동2가 49번지,서울특별시 성북구 보문로 137 (보문동2가),2871.0,서울종합동물병원,2019-04-26 02:40:00.0,127.01530640460035,37.58710402703186
4508,307000001020010002,1,영업/정상,0000,정상,,서울특별시 성북구 장위동 8-2 석계역 한일노벨리아시티 210호,"서울특별시 성북구 화랑로 299, 2층 210호 (장위동, 석계역 한일노벨리아시티)",2779.0,대학동물병원,2021-02-19 02:40:00.0,127.05823180914953,37.61358722296447
4509,307000001020010004,1,영업/정상,0000,정상,,서울특별시 성북구 종암동 19-1번지,서울특별시 성북구 종암로 65 (종암동),2810.0,강북동물병원,2018-08-31 23:59:59.0,127.03227505691521,37.59620749593714
4510,311000001020140001,1,영업/정상,0000,정상,,서울특별시 은평구 응암동 194-23,서울특별시 은평구 백련산로 145 (응암동),3463.0,스머프동물병원,2021-07-21 02:40:00.0,126.92219985731293,37.59820219607828
4511,311000001020140002,1,영업/정상,0000,정상,,서울특별시 은평구 불광동 554-1번지 1층,"서울특별시 은평구 불광로 60, 1층 (불광동)",3365.0,다루동물병원,2019-03-08 02:40:00.0,126.92921880944685,37.61237763764337
4512,311000001020150001,1,영업/정상,0000,정상,,서울특별시 은평구 역촌동 51-22번지,서울특별시 은평구 역말로 7 (역촌동),3415.0,도담동물병원,2019-03-08 02:40:00.0,126.90825763962341,37.60572469824085
4513,311000001020000002,1,영업/정상,0000,정상,,서울특별시 은평구 갈현동 498-3번지,서울특별시 은평구 서오릉로 192 (갈현동),3335.0,미래동물병원,2020-05-29 02:40:00.0,126.90944377728576,37.613776393603324
4514,311000001020010001,1,영업/정상,0000,정상,,서울특별시 은평구 대조동 224-24번지,서울특별시 은평구 서오릉로 140 (대조동),3394.0,더독동물병원,2018-08-31 23:59:59.0,126.91472484547528,37.61136234844873
4515,303000001020030007,1,영업/정상,0000,정상,,서울특별시 성동구 행당동 322-100번지,서울특별시 성동구 행당로8길 41-2 (행당동),,오렌지동물병원,2019-03-08 02:40:00.0,127.03107801882128,37.55604216678089
4516,301000001020110001,1,영업/정상,0000,정상,,서울특별시 중구 신당동 373-64번지,서울특별시 중구 동호로 178 (신당동),4590.0,웰펫동물병원,2019-03-08 02:40:00.0,127.00859563048498,37.554311244226994
4517,321000001019970001,1,영업/정상,0000,정상,,서울특별시 서초구 방배동 809-1,서울특별시 서초구 방배로34길 12 (방배동),6585.0,남서울동물병원,2020-11-21 02:40:00.0,126.98876365648408,37.49243883889078
4518,321000001019980001,1,영업/정상,0000,정상,,서울특별시 서초구 서초동 1603-66,서울특별시 서초구 효령로57길 4 (서초동),6643.0,서초동물병원,2021-09-05 02:40:00.0,127.01415176194723,37.48546246136938
4519,321000001020130004,1,영업/정상,0000,정상,,서울특별시 서초구 서초동 1648-9번지,"서울특별시 서초구 사임당로 97, 1층 (서초동)",6637.0,강남서초 동물병원,2019-01-16 02:40:00.0,127.01748066824584,37.49028154187467
4520,321000001020130005,1,영업/정상,0000,정상,,서울특별시 서초구 서초동 1534-2번지 명성빌딩,"서울특별시 서초구 반포대로 45, 1층 (서초동, 명성빌딩)",6671.0,아델 동물병원,2019-01-16 02:40:00.0,127.00791663045918,37.48452788932527
4521,321000001020130006,1,영업/정상,0000,정상,,서울특별시 서초구 방배동 894-2 선빌딩 101호,"서울특별시 서초구 서초대로 124, 101호 (방배동, 선빌딩)",6661.0,동물제중원금손이 동물병원,2021-04-10 02:40:00.0,126.99317900419746,37.48810966775031
4522,321000001020050004,1,영업/정상,0000,정상,,서울특별시 서초구 서초동 1486-2 삼양빌딩,"서울특별시 서초구 효령로 214, 삼양빌딩 2층 (서초동)",6709.0,다니엘동물병원,2020-10-23 02:40:00.0,127.00482269824185,37.4831246903871
4523,314000001019900001,1,영업/정상,0000,정상,,서울특별시 양천구 신월동 501-12,서울특별시 양천구 중앙로 295 (신월동),8028.0,우신동물병원,2021-03-19 02:40:00.0,126.84851796242106,37.52256845982066
4524,314000001019900002,1,영업/정상,0000,정상,,서울특별시 양천구 목동 657-16,서울특별시 양천구 등촌로 160 (목동),7951.0,강현림 종합동물병원,2020-11-12 02:40:00.0,126.85955539743831,37.544071832906326
4525,314000001019940001,1,영업/정상,0000,정상,,서울특별시 양천구 신정동 1020-17번지,서울특별시 양천구 은행정로 10 (신정동),8087.0,해성동물병원,2019-01-18 02:40:00.0,126.8572463953591,37.52062685327673
4526,321000001020090004,1,영업/정상,0000,정상,,서울특별시 서초구 반포동 18-3 래미안퍼스티지 중심상가 147-8호,"서울특별시 서초구 반포대로 287, 래미안퍼스티지 중심상가 1층 147,148호 (반포동)",6547.0,두리종합동물병원,2021-06-11 02:40:00.0,126.99796210917893,37.50433978486845
4527,321000001020100001,1,영업/정상,0000,정상,,서울특별시 서초구 방배동 925-8번지,"서울특별시 서초구 방배로 119, 1층 (방배동)",6682.0,디아나동물병원,2019-01-13 02:40:00.0,126.9923573431562,37.484656633543835
4528,321000001020040009,1,영업/정상,0000,정상,,서울특별시 서초구 잠원동 50-5 신사쇼핑센터 102-2호,"서울특별시 서초구 나루터로 37, 신사쇼핑센터 1층 102-2호 (잠원동)",6515.0,이상록동물병원,2020-11-21 02:40:00.0,127.01181911591782,37.51615957124548
4529,314000001020080002,1,영업/정상,0000,정상,,서울특별시 양천구 신월동 446-4번지,서울특별시 양천구 월정로 46 (신월동),7936.0,햇살동물병원,2019-01-18 02:40:00.0,126.83943666623087,37.52382547785231
4530,314000001020080004,1,영업/정상,0000,정상,,서울특별시 양천구 목동 917-6 지하2층,서울특별시 양천구 목동동로 309 (목동),7997.0,행복한세상동물병원,2021-06-12 02:40:00.0,126.87319365653178,37.529373431839375
4531,303000001020160002,1,영업/정상,0000,정상,,서울특별시 성동구 성수동2가 339-23번지,서울특별시 성동구 뚝섬로 395 (성수동2가),4781.0,제인동물병원,2019-03-08 02:40:00.0,127.05179950177545,37.5390485048934
4532,311000001020120001,1,영업/정상,0000,정상,,서울특별시 은평구 대조동 187-24번지,서울특별시 은평구 통일로 817 (대조동),3385.0,Dr.윤24시동물병원,2019-07-25 02:40:00.0,126.92028414948823,37.61654673610776
4533,303000001020040004,1,영업/정상,0000,정상,,서울특별시 성동구 금호동2가 485-1,서울특별시 성동구 금호산길 58(금호동2가),4726.0,한빛동물병원,2021-07-03 02:40:00.0,127.01666062935752,37.55334336823394
4534,303000001020060001,1,영업/정상,0000,정상,,서울특별시 성동구 금호동4가 1108번지 지상1층,"서울특별시 성동구 독서당로 289 (금호동4가,지상1층)",,아지동물병원,2019-06-29 02:40:00.0,127.0181552432364,37.548038092564354
4535,303000001020070002,1,영업/정상,0000,정상,,서울특별시 성동구 행당동 318-36,서울특별시 성동구 고산자로 207 (행당동),4714.0,24시센트럴동물메디컬센터,2021-10-20 02:40:00.0,127.03080107418107,37.55867943736672
4536,314000001020070002,1,영업/정상,0000,정상,,서울특별시 양천구 신정동 117-37,서울특별시 양천구 신목로 78 (신정동),8009.0,리더스 동물병원,2020-11-12 02:40:00.0,126.87135859989382,37.521661454209635
4537,303000001020160001,1,영업/정상,0000,정상,,서울특별시 성동구 옥수동 561번지 래미안옥수리버젠 상가동 420호,"서울특별시 성동구 매봉길 13, 1층 420호 (옥수동, 래미안옥수리버젠상가)",4733.0,오석헌동물병원,2018-08-31 23:59:59.0,127.01095614365425,37.544960040339234
4538,311000001020120002,1,영업/정상,0000,정상,,서울특별시 은평구 진관동 20번지 상림마을 821동 101호,"서울특별시 은평구 진관3로 70 (진관동, 상림마을 821동 101호)",3302.0,뉴타운동물병원,2019-03-08 02:40:00.0,126.91975625173728,37.64222158018368
4539,311000001020120003,1,영업/정상,0000,정상,,"서울특별시 은평구 갈현동 431-5번지 지층, 2층","서울특별시 은평구 연서로29길 24, 지, 2층 (갈현동, 정운빌딩)",3330.0,도그원 동물의료센터,2020-02-20 02:40:00.0,126.9148416796605,37.61964088248022
4540,311000001020130001,1,영업/정상,0000,정상,,서울특별시 은평구 응암동 91-5,서울특별시 은평구 은평로 93 (응암동),3461.0,24시스마트동물메디컬센터,2021-11-06 02:40:00.0,126.91523696070159,37.599781176074266
4541,321000001019950001,1,영업/정상,0000,정상,,서울특별시 서초구 잠원동 8-24 크레신타워 1층,"서울특별시 서초구 강남대로 631, 1층 (잠원동, 크레신타워)",6524.0,유림동물안과병원,2021-09-05 02:40:00.0,127.01561182469158,37.51808627746812
4542,306000001020030002,1,영업/정상,0000,정상,,서울특별시 중랑구 상봉동 137-7,서울특별시 중랑구 중랑천로 71 (상봉동),,서울우유협동조합유우진료소,2022-01-23 02:40:00.0,127.0694790358403,37.591725870780664
4543,303000001020140003,1,영업/정상,0000,정상,,서울특별시 성동구 상왕십리동 811번지 텐즈힐몰 221동 134호,"서울특별시 성동구 마장로 137, 221동 134호 (상왕십리동, 텐즈힐몰)",4700.0,텐즈힐링동물병원,2019-05-31 02:40:00.0,127.02182547137159,37.56936272159315
4544,303000001020150002,1,영업/정상,0000,정상,,서울특별시 성동구 금호동4가 1338번지 10통4반 현대ESA아파트 910호,서울특별시 성동구 독서당로 328 (금호동4가),4737.0,펫365동물병원,2019-06-16 02:40:00.0,127.02239538464462,37.547909493722784
4545,314000001019990002,1,영업/정상,0000,정상,,서울특별시 양천구 신월동 50-5번지,서울특별시 양천구 남부순환로 347 (신월동),7905.0,민병철동물병원,2018-08-31 23:59:59.0,126.82555525822211,37.5361920575308
4546,303000001020120001,1,영업/정상,0000,정상,,서울특별시 성동구 성수동2가 333-3번지 1층,서울특별시 성동구 뚝섬로 386 (성수동2가),4775.0,서울숲동물병원,2019-03-08 02:40:00.0,127.05033889996056,37.539097730083355
4547,303000001020120002,1,영업/정상,0000,정상,,서울특별시 성동구 옥수동 560 어울림상가 지하 301~4호,"서울특별시 성동구 독서당로40길 39, 어울림상가 지하 301~304호 (옥수동)",4739.0,옥수수 동물병원,2022-01-19 02:40:00.0,127.01530160943757,37.54230865003475
4548,314000001020090003,1,영업/정상,0000,정상,,서울특별시 양천구 목동 962 목동트라팰리스,"서울특별시 양천구 오목로 299, 목동트라팰리스 (목동)",8001.0,쿨펫이마트 목동점 동물병원,2021-06-11 02:40:00.0,126.86749301348563,37.52599302648093
4549,311000001020160002,1,영업/정상,0000,정상,,서울특별시 은평구 불광동 104-94번지,"서울특별시 은평구 연서로 317 (불광동, 동윤빌딩)",3343.0,둘레길동물병원,2019-03-08 02:40:00.0,126.92480808567393,37.62375604828707
4550,311000001020160004,1,영업/정상,0000,정상,,서울특별시 은평구 대조동 14-27번지 2층,"서울특별시 은평구 통일로 727-5, 2층 (대조동)",3397.0,개와냥이동물병원,2019-03-08 02:40:00.0,126.92632646315677,37.610206229636084
4551,311000001020160005,1,영업/정상,0000,정상,,서울특별시 은평구 응암동 244-212번지,서울특별시 은평구 백련산로 29 (응암동),3470.0,참좋은동물병원,2019-03-08 02:40:00.0,126.91956899757936,37.588214031690434
4552,311000001020030005,1,영업/정상,0000,정상,,서울특별시 은평구 역촌동 22-49번지 101호,"서울특별시 은평구 연서로 72, 1층 101호 (역촌동)",3402.0,우신동물병원,2018-08-31 23:59:59.0,126.91282104694723,37.60556952618393
4553,311000001020040004,1,영업/정상,0000,정상,,서울특별시 은평구 갈현동 394-27번지,서울특별시 은평구 통일로 885 (갈현동),3329.0,메디펫동물병원,2018-08-31 23:59:59.0,126.91663282019033,37.6219818337488
4554,301000001019900001,1,영업/정상,0000,정상,,서울특별시 중구 필동2가 53번지,서울특별시 중구 퇴계로 226 (필동2가),4624.0,윤신근박사동물병원,2019-03-08 02:40:00.0,126.99396594605363,37.56162820479633
4555,314000001019960001,1,영업/정상,0000,정상,,서울특별시 양천구 신정동 294-62번지,서울특별시 양천구 목동동로10길 6 (신정동),8014.0,노아동물병원,2018-10-15 23:59:59.0,126.86780179357817,37.51844856879843
4556,314000001019970002,1,영업/정상,0000,정상,,서울특별시 양천구 신월동 444-11번지,서울특별시 양천구 오목로 45 (신월동),7930.0,양천종합동물병원,2019-07-07 02:40:00.0,126.83974831835309,37.52229070722913
4557,311000001020050004,1,영업/정상,0000,정상,,서울특별시 은평구 증산동 174-6번지 103호,"서울특별시 은평구 증산로 267, 103호 (증산동)",3500.0,한수24시동물병원,2020-06-24 02:40:00.0,126.90415388694731,37.58180031177111
4558,311000001020060001,1,영업/정상,0000,정상,,서울특별시 은평구 구산동 1-1번지,서울특별시 은평구 연서로 137 (구산동),3412.0,로얄동물병원,2020-06-07 02:40:00.0,126.91391345204742,37.61115237452547
4559,321000001020060001,1,영업/정상,0000,정상,,서울특별시 서초구 서초동 1690-2번지 지상1층,"서울특별시 서초구 서초대로 325 (서초동,지상1층)",,교대동물병원,2019-01-13 02:40:00.0,127.0141545063455,37.494954334030496
4560,314000001020020002,1,영업/정상,0000,정상,,서울특별시 양천구 목동 805-1,서울특별시 양천구 등촌로 16 (목동),7966.0,필동물종합병원,2021-07-16 02:40:00.0,126.86124064220273,37.53144130667986
4561,321000001020110003,1,영업/정상,0000,정상,,서울특별시 서초구 반포동 20-51 베리스타운102/108호,서울특별시 서초구 사평대로45길 10-25 (반포동),6544.0,반포자이동물병원,2021-09-05 02:40:00.0,127.01104884565935,37.506678649417495
4562,321000001020120001,1,영업/정상,0000,정상,,서울특별시 서초구 신원동 412-5번지 힐스테이트서초잰트리스 103호,"서울특별시 서초구 헌릉로8길 10-12, 1층 3호 (신원동, 힐스테이트서초잰트리스)",6798.0,하나동물병원,2019-01-16 02:40:00.0,127.05347567028011,37.455500409199864
4563,314000001020090005,1,영업/정상,0000,정상,,서울특별시 양천구 목동 907번지 현대월드타워 160호,"서울특별시 양천구 목동서로 77, 현대월드타워 160호 (목동)",7983.0,가나종합동물병원,2019-12-20 02:40:00.0,126.87515168762695,37.535986196177994
4564,314000001020110002,1,영업/정상,0000,정상,,서울특별시 양천구 목동 919-7 홈플러스목동점,"서울특별시 양천구 목동서로 170, 홈플러스목동점 (목동)",7992.0,닥터펫동물병원,2020-11-12 02:40:00.0,126.87038654527912,37.53032776804416
4565,303000001020170001,1,영업/정상,0000,정상,,,"서울특별시 성동구 왕십리로 410, 127동 지하층 030호 (하왕십리동, 센트라스)",4701.0,바라봄동물병원,2019-03-08 02:40:00.0,127.02191624952661,37.56533905295945
4566,311000001020170001,1,영업/정상,0000,정상,,"서울특별시 은평구 불광동 643 북한산 힐스테이트7차, 상가동 지하2층 128호, 지하1층 228호","서울특별시 은평구 통일로 796, 상가동 지하2층 128호, 지하1층 228호 (불광동, 북한산 힐스테이트7차)",3357.0,담은동물병원,2021-08-27 02:40:00.0,126.92379604639278,37.61653155884356
4567,314000001020030006,1,영업/정상,0000,정상,,서울특별시 양천구 신정동 987-3 1층,"서울특별시 양천구 오목로 198-1 (신정동,1층)",,신정 동물병원,2020-11-12 02:40:00.0,126.85657464519787,37.52526961270674
4568,314000001020030007,1,영업/정상,0000,정상,,서울특별시 양천구 목동 657-21번지 등촌빌딩,"서울특별시 양천구 등촌로 172, 등촌빌딩 A동 102호 (목동)",7951.0,토론토 동물병원,2019-01-18 02:40:00.0,126.85972050102936,37.5450201252474
4569,303000001020180001,1,영업/정상,0000,정상,,서울특별시 성동구 하왕십리동 1070번지 센트라스,"서울특별시 성동구 왕십리로 410 (하왕십리동, 센트라스)",4701.0,다온동물병원,2019-04-27 02:40:00.0,127.02475652676303,37.566110433545894
4570,303000001020180002,1,영업/정상,0000,정상,,서울특별시 성동구 성수동1가 718번지 트리마제,"서울특별시 성동구 왕십리로 16 (성수동1가, 트리마제)",4773.0,달링동물병원,2019-04-27 02:40:00.0,127.0421558593201,37.538823981783246
4571,301000001020160002,1,영업/정상,0000,정상,,서울특별시 중구 황학동 2523 황학 아크로타워,"서울특별시 중구 퇴계로 447, 1층 131호 (황학동, 황학 아크로타워)",4575.0,바른동물병원,2020-07-18 02:40:00.0,127.01901932641597,37.566171541897674
4572,311000001019990002,1,영업/정상,0000,정상,,서울특별시 은평구 응암동 589-12번지 2층,"서울특별시 은평구 가좌로 239, 2층 (응암동, 스타이루)",3484.0,오거리동물병원,2018-08-31 23:59:59.0,126.91308139656556,37.59079657011736
4573,311000001020000001,1,영업/정상,0000,정상,,서울특별시 은평구 응암동 74-14번지,서울특별시 은평구 은평로 208 (응암동),3472.0,LOVE MY PET 동물병원,2019-03-08 02:40:00.0,126.92784717682315,37.60104403104369
4574,321000001020130001,1,영업/정상,0000,정상,,서울특별시 서초구 양재동 215번지 이마트 양재점 지하1층,"서울특별시 서초구 매헌로 16, 지하1층 (양재동, 이마트 양재점)",6771.0,이리온 양재점,2019-01-16 02:40:00.0,127.0341233654835,37.46339529692584
4575,321000001020130002,1,영업/정상,0000,정상,,서울특별시 서초구 반포동 30-25번지 반포리체상가 106호,"서울특별시 서초구 서초중앙로 238, 106호 (반포동, 반포리체상가)",6597.0,꿈꾸는 동물병원,2019-01-16 02:40:00.0,127.00917359287409,37.50295328064228
4576,321000001020130003,1,영업/정상,0000,정상,,서울특별시 서초구 양재동 4-14,서울특별시 서초구 바우뫼로 211 (양재동),6740.0,에이블 동물병원,2021-01-31 02:40:00.0,127.0387779073191,37.48091824840454
4577,303000001020160006,1,영업/정상,0000,정상,,서울특별시 성동구 성수동1가 22-28번지 1층,"서울특별시 성동구 성수일로 33, 1층 (성수동1가, 정인숙보습학원)",4779.0,포레동물병원,2019-03-08 02:40:00.0,127.04630974991777,37.54363122577378
4578,321000001019990002,1,영업/정상,0000,정상,,서울특별시 서초구 서초동 1332-7,"서울특별시 서초구 사임당로 139, 104호 (서초동)",6624.0,서이동물병원,2021-11-06 02:40:00.0,127.02196832455668,37.491769981065644
4579,321000001020040004,1,영업/정상,0000,정상,,서울특별시 서초구 우면동 66-2 우면세신상가 201호,"서울특별시 서초구 바우뫼로7길 8, 201호 (우면동,우면세신상가)",,우면동물병원,2021-09-05 02:40:00.0,127.02248616641127,37.47084932148351
4580,303000001020140001,1,영업/정상,0000,정상,,서울특별시 성동구 하왕십리동 892-4번지,서울특별시 성동구 왕십리로 381 (하왕십리동),4710.0,왕십리조은동물병원,2019-02-10 02:40:00.0,127.02498853184504,37.564566495779154
4581,303000001020140002,1,영업/정상,0000,정상,,서울특별시 성동구 용답동 74-2번지,서울특별시 성동구 천호대로 288 (용답동),4804.0,24시LC동물의료센터,2018-11-07 02:36:02.0,127.04985702150803,37.56640551347852
4582,314000001020170003,1,영업/정상,0000,정상,,"서울특별시 양천구 신정동 329 목동신시가지아파트14단지 B상가 117,호","서울특별시 양천구 목동동로 130, 117, 118호 (신정동, 목동신시가지아파트14단지)",8018.0,페토브 동물병원,2021-06-04 02:40:00.0,126.8674474580336,37.51619091985487
4583,314000001020170004,1,영업/정상,0000,정상,,서울특별시 양천구 신정동 1182-11,"서울특별시 양천구 중앙로 237, 1층 (신정동)",8073.0,24시 서울 탑 동물병원,2020-09-30 02:40:00.0,126.85073598821944,37.517728722272935
4584,321000001020030002,1,영업/정상,0000,정상,,서울특별시 서초구 방배동 790-27번지,서울특별시 서초구 방배중앙로 149 (방배동),6560.0,수동물병원,2019-01-13 02:40:00.0,126.98356316204337,37.49249429920175
4585,321000001020030003,1,영업/정상,0000,정상,,서울특별시 서초구 방배동 898-3,"서울특별시 서초구 서초대로 108, 2층 (방배동)",6664.0,내방동물병원,2020-11-12 02:40:00.0,126.99123748864896,37.48746443819608
4586,303000001020160007,1,영업/정상,0000,정상,,서울특별시 성동구 옥수동 528번지 이편한세상옥수파크힐스,"서울특별시 성동구 매봉길 50 (옥수동, 이편한세상옥수파크힐스)",4731.0,스테이동물병원,2019-04-27 02:40:00.0,127.01100078368162,37.54833253266987
4587,321000001019990003,1,영업/정상,0000,정상,,서울특별시 서초구 반포동 56-1번지,서울특별시 서초구 서초중앙로 245 (반포동),,신반포종합동물병원,2019-01-13 02:40:00.0,127.00790303997313,37.50335358986878
4588,314000001020170005,1,영업/정상,0000,정상,,서울특별시 양천구 목동 507-2 덕수프라자,"서울특별시 양천구 목동중앙북로 73, 덕수프라자 2층 (목동)",7947.0,두암동물병원,2020-11-03 02:40:00.0,126.86848605707131,37.54687271331435
4589,314000001020170006,1,영업/정상,0000,정상,,서울특별시 양천구 신정동 202-13 쌍용빌딩 4층,"서울특별시 양천구 목동남로2길 21, 쌍용빌딩 4층 (신정동)",8104.0,캐슬동물종합병원,2020-11-14 02:40:00.0,126.86165606835623,37.507803466974224
4590,321000001020110002,1,영업/정상,0000,정상,,서울특별시 서초구 반포동 20-45 반포자이프라자 133호,"서울특별시 서초구 잠원로 24 (반포동,반포자이프라자 133호)",,24시예스동물병원,2020-11-17 02:40:00.0,127.00695112346204,37.50712675411478
4591,312000001020040004,1,영업/정상,0000,정상,,서울특별시 서대문구 영천동 299,서울특별시 서대문구 통일로 197 (영천동),3734.0,우리동물병원,2021-07-30 02:40:00.0,126.95839881525852,37.57092453758074
4592,312000001020040006,1,영업/정상,0000,정상,,서울특별시 서대문구 홍제동 90-67번지,서울특별시 서대문구 통일로 375 (홍제동),3730.0,빛가온동물병원,2019-01-13 02:40:00.0,126.94641027097427,37.583524844768185
4593,321000001020000001,1,영업/정상,0000,정상,,서울특별시 서초구 양재동 2-43 동리빌딩,"서울특별시 서초구 논현로 173, 동리빌딩 1층 (양재동)",6739.0,레스펫동물병원,2021-06-16 02:40:00.0,127.03837965002883,37.48492952948309
4594,314000001020150002,1,영업/정상,0000,정상,,"서울특별시 양천구 목동 903번지 목동신시가지아파트3단지 상가동 105호, 204호","서울특별시 양천구 목동서로 100, 상가동 105, 204호 (목동, 목동신시가지아파트3단지)",7982.0,파리스동물병원,2019-08-10 02:40:00.0,126.87005901064146,37.53435918481244
4595,314000001020150003,1,영업/정상,0000,정상,,서울특별시 양천구 신정동 1320-2번지 신정프라자 203호,"서울특별시 양천구 신정이펜2로 22, 203호 (신정동, 신정프라자)",8049.0,구름동물병원,2018-08-31 23:59:59.0,126.82966090437516,37.51289872418982
4596,314000001020150004,1,영업/정상,0000,정상,,서울특별시 양천구 신정동 321-6번지 센트럴프라자 104호,"서울특별시 양천구 목동서로 349, 104호 (신정동, 센트럴프라자)",8095.0,공원옆동물병원,2018-08-31 23:59:59.0,126.86260756517449,37.51749419554621
4597,314000001020160001,1,영업/정상,0000,정상,,서울특별시 양천구 신정동 1028-4번지,서울특별시 양천구 신월로 320 (신정동),8082.0,밀리언동물병원,2019-03-08 02:40:00.0,126.85357467906209,37.521324430206604
4598,314000001020160002,1,영업/정상,0000,정상,,서울특별시 양천구 목동 408-115,"서울특별시 양천구 오목로 280, 1층 (목동)",8003.0,리베동물메디컬센터,2021-08-14 02:40:00.0,126.86533513661286,37.52516048529454
4599,321000001020160003,1,영업/정상,0000,정상,,"서울특별시 서초구 방배동 442-3 대광빌딩 1,2층","서울특별시 서초구 동작대로 36, 1,2층 (방배동, 대광빌딩)",6691.0,VIP동물의료센터 서초동작점,2022-01-13 02:40:00.0,126.97926623867738,37.47967407669044
4600,321000001020160004,1,영업/정상,0000,정상,,서울특별시 서초구 서초동 1624-1 영빌딩,"서울특별시 서초구 서초중앙로 72, 영빌딩 1층 105호,  층 2층 205호 (서초동)",6640.0,서초M동물의료센터,2021-01-30 02:40:00.0,127.01200667188249,37.4882372676565
4601,321000001020170001,1,영업/정상,0000,정상,,서울특별시 서초구 방배동 464-11번지,"서울특별시 서초구 방배천로8길 34, 1층 (방배동)",6691.0,이삭동물병원,2019-01-16 02:40:00.0,126.9815026151135,37.480417879983015
4602,303000001020080001,1,영업/정상,0000,정상,,서울특별시 성동구 행당동 346번지 한진노변상가 109호,"서울특별시 성동구 행당로 76, 한진노변상가 1,2층 108호109호203호 (행당동)",4717.0,이윤세동물병원,2019-03-08 02:40:00.0,127.02631735663064,37.555880450385224
4603,303000001020100001,1,영업/정상,0000,정상,,서울특별시 성동구 행당동 226-3번지,서울특별시 성동구 왕십리로 282 (행당동),4751.0,한양동물메디컬센터,2019-03-08 02:40:00.0,127.03412388703276,37.55966173388457
4604,301000001020110002,1,영업/정상,0000,정상,,서울특별시 중구 만리동2가 288번지 서울역한라비발디센트럴,"서울특별시 중구 만리재로 177, 105호 (만리동2가, 서울역한라비발디센트럴)",4501.0,백슬동물병원,2019-03-08 02:40:00.0,126.96288172474708,37.55436982006117
4605,314000001020020004,1,영업/정상,0000,정상,,서울특별시 양천구 목동 613-8번지 혜인빌딩,"서울특별시 양천구 등촌로 218, 혜인빌딩 (목동)",7946.0,혜인종합 동물병원,2019-01-18 02:40:00.0,126.8610160983048,37.54915064777935
4606,314000001020170001,1,영업/정상,0000,정상,,서울특별시 양천구 신정동 1052-3,서울특별시 양천구 중앙로 230 (신정동),8091.0,다온동물병원,2021-01-29 02:40:00.0,126.85174722180612,37.517187755391
4607,311000001020090002,1,영업/정상,0000,정상,,서울특별시 은평구 응암동 107-12번지,서울특별시 은평구 응암로 286 (응암동),3465.0,야옹동물병원,2019-03-08 02:40:00.0,126.91716650204268,37.596970450889344
4608,321000001020180001,1,영업/정상,0000,정상,,서울특별시 서초구 반포동 18-3번지 래미안퍼스티지 중심상가 143호,"서울특별시 서초구 반포대로 287, 래미안퍼스티지 중심상가 1층 143호 (반포동)",6547.0,신세계 동물병원,2019-01-16 02:40:00.0,126.99796210917893,37.50433978486845
4609,311000001020160001,1,영업/정상,0000,정상,,서울특별시 은평구 진관동 82번지 은평뉴타운우물골아파트 두산위브 202동 B01호,"서울특별시 은평구 진관2로 67, 202동 B층 01호 (진관동, 은평뉴타운우물골아파트)",3306.0,서울햇빛동물병원,2019-03-08 02:40:00.0,126.92166180658869,37.63458260515598
4610,321000001020060004,1,영업/정상,0000,정상,,서울특별시 서초구 반포동 91-10,서울특별시 서초구 서래로 38 (반포동),6577.0,서래동물병원,2020-11-21 02:40:00.0,126.99563444512818,37.49835726859559
4611,311000001020100001,1,영업/정상,0000,정상,,서울특별시 은평구 진관동 5번지 은평뉴타운상림마을 629동 116호,"서울특별시 은평구 진관4로 87, 629동 116호 (진관동, 은평뉴타운상림마을)",3304.0,한빛동물병원,2018-08-31 23:59:59.0,126.9259571728128,37.6479604096926
4612,321000001020180002,1,영업/정상,0000,정상,,서울특별시 서초구 방배동 871-3 동오빌딩,"서울특별시 서초구 서초대로15길 8-10, 동오빌딩 1층 (방배동)",6571.0,HELP 유기동물 의료센터,2021-11-14 02:40:00.0,126.98779106027193,37.487163825345796
4613,321000001020180004,1,영업/정상,0000,정상,,서울특별시 서초구 방배동 951-3 대진빌딩,"서울특별시 서초구 서초대로4길 4, 대진빌딩 1층 (방배동)",6675.0,심바동물병원,2021-07-21 02:40:00.0,126.98232325024914,37.48546973887399
4614,321000001020180005,1,영업/정상,0000,정상,,서울특별시 서초구 잠원동 58-24 뉴타운,"서울특별시 서초구 신반포로 257, 뉴타운 지하1층 (잠원동)",6523.0,해뜨는 동물병원 해질녘책방,2021-06-11 02:40:00.0,127.01038806337624,37.50962046092534
4615,306000001020130001,1,영업/정상,0000,정상,,서울특별시 중랑구 상봉동 99-10,"서울특별시 중랑구 망우로 315, 2층 (상봉동)",2098.0,닥터 아이펫 동물병원,2021-06-03 02:40:00.0,127.08458277575328,37.597228912001036
4616,306000001020140001,1,영업/정상,0000,정상,,서울특별시 중랑구 신내동 645번지 홈플러스 2층,"서울특별시 중랑구 신내로 201, 2층 (신내동, 홈플러스)",2024.0,도그플러스 동물병원,2018-08-31 23:59:59.0,127.09087324152527,37.61579463074161
4617,306000001020140002,1,영업/정상,0000,정상,,서울특별시 중랑구 신내동 405-5번지,"서울특별시 중랑구 봉화산로 232, B동 1층 (신내동)",2067.0,행복이 있는 동물병원,2018-08-31 23:59:59.0,127.09547098560635,37.607819410865076
4618,306000001020160001,1,영업/정상,0000,정상,,서울특별시 중랑구 면목동 17-31번지,"서울특별시 중랑구 용마산로 434 (면목동, 청파빌딩)",2189.0,보담동물병원,2018-08-31 23:59:59.0,127.0945141019098,37.589950675124065
4619,303000001020160004,1,영업/정상,0000,정상,,서울특별시 성동구 금호동2가 1217번지 래미안하이리버 상가동 비201호,"서울특별시 성동구 금호로 105, 비201호 (금호동2가, 래미안하이리버 상가동)",4728.0,금호동물병원,2019-06-30 02:40:00.0,127.02165136302851,37.551292424145664
4620,314000001020130005,1,영업/정상,0000,정상,,서울특별시 양천구 목동 603-2번지 대우마이빌 102호,"서울특별시 양천구 공항대로 552 (목동, 대우마이빌 102호)",7946.0,오라고동물병원,2018-08-31 23:59:59.0,126.8640164339219,37.54950453265434
4621,314000001020140002,1,영업/정상,0000,정상,,서울특별시 양천구 목동 799-1번지 1층,"서울특별시 양천구 목동중앙서로 42, 1층 (목동)",7967.0,팜랜드동물병원,2018-08-31 23:59:59.0,126.86559923987922,37.53283740964435
4622,314000001020140003,1,영업/정상,0000,정상,,서울특별시 양천구 목동 531-13번지 101호,"서울특별시 양천구 목동중앙본로 100, 101호 (목동)",7973.0,대현동물병원,2018-08-31 23:59:59.0,126.86800541726575,37.54447517145069
4623,314000001020140004,1,영업/정상,0000,정상,,서울특별시 양천구 신월동 130-5번지 1층,"서울특별시 양천구 남부순환로 421, 1층 (신월동)",7921.0,서서울호수동물병원,2019-03-08 02:40:00.0,126.82952932688596,37.53029214675777
4624,303000001020130006,1,영업/정상,0000,정상,,서울특별시 성동구 금호동4가 800번지 금호동대우아파트 상가동 206호,"서울특별시 성동구 독서당로 270, 상가동 2층 206호 (금호동4가, 금호동 대우아파트)",4738.0,바른동물병원,2018-08-31 23:59:59.0,127.0167932544852,37.54597273123499
4625,303000001020130007,1,영업/정상,0000,정상,,서울특별시 성동구 마장동 791-9번지,서울특별시 성동구 마장로 296 (마장동),4758.0,기린동물병원,2018-08-31 23:59:59.0,127.0398859628059,37.56569153185447
4626,321000001020140001,1,영업/정상,0000,정상,,서울특별시 서초구 방배동 758-2번지,"서울특별시 서초구 방배로 269, 109호 (방배동)",6553.0,한나동물병원,2019-01-16 02:40:00.0,126.9848448310504,37.496639438947035
4627,321000001020140003,1,영업/정상,0000,정상,,서울특별시 서초구 우면동 737 6단지상가 104호,서울특별시 서초구 태봉로2길 30 (우면동),6764.0,서초힐스동물병원,2020-11-21 02:40:00.0,127.02360063294213,37.46144980085645
4628,311000001019960001,1,영업/정상,0000,정상,,서울특별시 은평구 신사동 20-24번지,서울특별시 은평구 은평로 29 (신사동),3423.0,늘푸른동물병원,2020-05-31 02:40:00.0,126.90811845685333,37.59826163868343
4629,321000001020070002,1,영업/정상,0000,정상,,서울특별시 서초구 방배동 984-1 머리재빌딩 105호,"서울특별시 서초구 방배로 76, 머리재빌딩 1층 105호 (방배동)",6704.0,프렌즈동물병원,2020-09-18 02:40:00.0,126.99544593897217,37.48119379848368
4630,321000001020100005,1,영업/정상,0000,정상,,서울특별시 서초구 방배동 915-10 우성빌딩,"서울특별시 서초구 효령로 95, 우성빌딩 1층 (방배동)",6687.0,반려동물 의료센터 다울,2021-02-04 02:40:00.0,126.99171350854895,37.48076801951068
4631,321000001020030011,1,영업/정상,0000,정상,,서울특별시 서초구 서초동 1343-1,서울특별시 서초구 효령로 384 (서초동),,메디펫 동물병원,2021-09-10 02:40:00.0,127.02304590960753,37.48757185697558
4632,321000001020150001,1,영업/정상,0000,정상,,서울특별시 서초구 반포동 19-1 르본시티 2층,"서울특별시 서초구 신반포로 162 (반포동, 르본시티 2층)",6546.0,헬릭스동물메디컬센터,2021-05-01 02:40:00.0,126.99920069681845,37.50488863528221
4633,321000001020160001,1,영업/정상,0000,정상,,서울특별시 서초구 서초동 1538-9 유민빌딩 1층,"서울특별시 서초구 반포대로 89, 1층 (서초동, 유민빌딩)",6657.0,에이원동물병원,2020-09-24 02:40:00.0,127.0062092690736,37.488136676482256
4634,311000001019960002,1,영업/정상,0000,정상,,서울특별시 은평구 녹번동 117-112번지,서울특별시 은평구 통일로 697 (녹번동),3375.0,녹번동물병원,2018-08-31 23:59:59.0,126.928851414817,37.60808984410172
4635,314000001020040005,1,영업/정상,0000,정상,,서울특별시 양천구 신월동 546-25,서울특별시 양천구 신월로 149 (신월동),8032.0,파란종합 동물병원,2020-10-18 02:40:00.0,126.8373886736975,37.517567601816815
4636,311000001020070004,1,영업/정상,0000,정상,,서울특별시 은평구 대조동 179-8번지,서울특별시 은평구 서오릉로 86 (대조동),3392.0,은평동물병원,2019-11-24 02:40:00.0,126.91890275524503,37.6078800761252
4637,321000001020040005,1,영업/정상,0000,정상,,서울특별시 서초구 양재동 257-2,서울특별시 서초구 마방로6길 18 (양재동),6777.0,사랑의동물병원,2020-11-07 02:40:00.0,127.03927730750053,37.474830083419775
4638,321000001020040006,1,영업/정상,0000,정상,,서울특별시 서초구 양재동 377-4,서울특별시 서초구 동산로 66 (양재동),,한 동물병원,2020-11-17 02:40:00.0,127.04309045277208,37.47187427065685
4639,303000001020030001,1,영업/정상,0000,정상,,서울특별시 성동구 옥수동 263-1번지,서울특별시 성동구 독서당로 200 (옥수동),,함께하는동물병원,2019-03-08 02:40:00.0,127.01023702642028,37.543018354113585
4640,321000001020000006,1,영업/정상,0000,정상,,서울특별시 서초구 반포동 722-29,서울특별시 서초구 강남대로 525-3 (반포동),6536.0,라파엘동물병원,2020-10-17 02:40:00.0,127.01900633297909,37.508777731693435
4641,314000001020060001,1,영업/정상,0000,정상,,서울특별시 양천구 신월동 972-6,서울특별시 양천구 지양로 52 (신월동),8040.0,일오삼동물병원,2020-11-12 02:40:00.0,126.83203318738444,37.52051988711913
4642,314000001020060003,1,영업/정상,0000,정상,,서울특별시 양천구 목동 515-1,서울특별시 양천구 공항대로 636 (목동),7968.0,행복한동물병원,2020-11-12 02:40:00.0,126.87250111986151,37.54669745711179
4643,314000001020120001,1,영업/정상,0000,정상,,서울특별시 양천구 신정동 995-4번지,서울특별시 양천구 목동로 181 (신정동),8022.0,상아동물병원,2018-08-31 23:59:59.0,126.86150912877642,37.52466216664684
4644,314000001020120002,1,영업/정상,0000,정상,,서울특별시 양천구 목동 907-10번지,서울특별시 양천구 목동서로 57 (목동),7983.0,목동 동물병원,2019-04-28 02:40:00.0,126.87695875887587,37.536673499691595
4645,306000001020170001,1,영업/정상,0000,정상,,서울특별시 중랑구 중화동 207-6번지,"서울특별시 중랑구 망우로 241, 지하1층 (중화동, 영해빌딩)",2117.0,한국동물영상의학센터,2018-08-31 23:59:59.0,127.07653268844234,37.5950420396082
4646,306000001020180001,1,영업/정상,0000,정상,,서울특별시 중랑구 상봉동 137-16번지,서울특별시 중랑구 중랑천로 81 (상봉동),2118.0,중랑차 동물병원,2019-07-03 02:40:00.0,127.06974641154713,37.59243801861129
4647,301000001020140001,1,영업/정상,0000,정상,,서울특별시 중구 신당동 44-17번지,"서울특별시 중구 다산로36길 83, 1층 (신당동)",4584.0,좋아요 동물병원,2019-11-29 02:40:00.0,127.01621992403342,37.56052610171116
4648,303000001020120003,1,영업/정상,0000,정상,,서울특별시 성동구 행당동 344번지 111호,"서울특별시 성동구 독서당로59길 84, 신동아아파트상가동 1층 111호 (행당동)",4716.0,도담동물병원(출장진료전문 동물병원),2019-03-08 02:40:00.0,127.0299468961326,37.554371057173
4649,303000001020130001,1,영업/정상,0000,정상,,서울특별시 성동구 홍익동 398-2번지,서울특별시 성동구 무학로 16 (홍익동),4707.0,라임동물병원,2019-03-08 02:40:00.0,127.02742720696064,37.5655388488827
4650,306000001019910001,1,영업/정상,0000,정상,,서울특별시 중랑구 묵동 175-2번지 3층,"서울특별시 중랑구 동일로 920, 3층 (묵동)",2033.0,태능동물병원,2019-04-04 02:40:00.0,127.07468935452043,37.612595937628946
4651,306000001019920001,1,영업/정상,0000,정상,,서울특별시 중랑구 면목동 497-7번지 혜원동물병원,"서울특별시 중랑구 면목로 341, 혜원동물병원 (면목동)",2228.0,혜원동물병원,2018-10-12 23:59:59.0,127.08540213713337,37.5823492253599
4652,306000001019950001,1,영업/정상,0000,정상,,서울특별시 중랑구 면목동 353-4번지,서울특별시 중랑구 면목로 269 (면목동),2240.0,보람동물병원,2019-03-08 02:40:00.0,127.08286217920754,37.57702538285702
4653,306000001019960001,1,영업/정상,0000,정상,,서울특별시 중랑구 면목동 102-51번지,서울특별시 중랑구 겸재로 187 (면목동),2161.0,엔젤동물병원,2019-03-08 02:40:00.0,127.08548073153032,37.5887966645664
4654,306000001019970001,1,영업/정상,0000,정상,,서울특별시 중랑구 묵동 239-76번지,"서울특별시 중랑구 동일로 899, 1층 (묵동)",2006.0,홍상희동물병원,2018-08-31 23:59:59.0,127.0744999027738,37.61066504906594
4655,306000001020000001,1,영업/정상,0000,정상,,서울특별시 중랑구 면목동 225-7,"서울특별시 중랑구 면목로 442-1, 1층 (면목동)",2160.0,하스펫탈동물병원,2021-06-20 02:40:00.0,127.08406801871148,37.591571913894605
4656,314000001020060004,1,영업/정상,0000,정상,,서울특별시 양천구 목동 601-6,서울특별시 양천구 목동중앙북로 37 (목동),7947.0,미니주동물병원,2020-11-12 02:40:00.0,126.86494842904868,37.548054802983025
4657,306000001020000002,1,영업/정상,0000,정상,,서울특별시 중랑구 중화동 11-36번지 삼일시티빌 1층,"서울특별시 중랑구 봉화산로 103, 1층 (중화동, 삼일시티빌)",2048.0,신내동물병원,2018-08-31 23:59:59.0,127.08282735404681,37.60271565732473
4658,306000001020010003,1,영업/정상,0000,정상,,서울특별시 중랑구 중화동 303-16번지 진정훈동물병원,"서울특별시 중랑구 동일로 777, 진정훈동물병원 (중화동)",2102.0,진정훈동물병원,2018-10-12 23:59:59.0,127.07661293983796,37.59996751130691
4659,306000001020010004,1,영업/정상,0000,정상,,서울특별시 중랑구 면목동 634-5,서울특별시 중랑구 면목로 311 (면목동),2238.0,성지동물병원,2021-08-01 02:40:00.0,127.08488345262337,37.57991329418319
4660,306000001020020003,1,영업/정상,0000,정상,,서울특별시 중랑구 망우동 364-27번지 금란동물병원,"서울특별시 중랑구 용마산로 532, 금란동물병원 (망우동)",2176.0,금란동물병원,2019-04-12 02:40:00.0,127.09770678471276,37.598450147677404
4661,306000001020020004,1,영업/정상,0000,정상,,서울특별시 중랑구 중화동 207 지하1층,"서울특별시 중랑구 망우로 247, 지하1층 (중화동, 로얄스포츠센터)",2117.0,24시 동물응급의료센터,2021-08-13 02:40:00.0,127.0771297536726,37.59543561118659
4662,312000001020030005,1,영업/정상,0000,정상,,서울특별시 서대문구 연희동 89-9번지,서울특별시 서대문구 연희로25길 101 (연희동),3699.0,연희동물병원,2019-01-13 02:40:00.0,126.92919464619476,37.56916043936141
4663,321000001020080005,1,영업/정상,0000,정상,,서울특별시 서초구 잠원동 49-8번지,"서울특별시 서초구 잠원로 221, 상가동 2층 (잠원동, 한강아파트)",6514.0,리즈동물병원,2019-06-16 02:40:00.0,127.01224054397896,37.52131834947731
4664,303000001020030006,1,영업/정상,0000,정상,,서울특별시 성동구 행당동 346번지 한진노변상가 110호,"서울특별시 성동구 행당로 76, 110호 (행당동, 한진노변상가)",4717.0,평화와생명동물병원,2019-03-08 02:40:00.0,127.02631735663064,37.555880450385224
4665,314000001020030011,1,영업/정상,0000,정상,,서울특별시 양천구 목동 773-3 106호,"서울특별시 양천구 목동중앙로 43 (목동,106호)",,리즈동물병원,2020-11-12 02:40:00.0,126.86659977911309,37.53353778163159
4666,314000001020040001,1,영업/정상,0000,정상,,서울특별시 양천구 신정동 337-7,서울특별시 양천구 목동남로4길 6-11 (신정동),8104.0,참사랑동물병원,2021-06-01 02:40:00.0,126.86220922377268,37.50822181593195
4667,311000001020020003,1,영업/정상,0000,정상,,서울특별시 은평구 갈현동 462-25번지,서울특별시 은평구 연서로 185 (갈현동),3334.0,금쪽같은내새끼 동물병원,2018-08-31 23:59:59.0,126.91493731995749,37.61535852566184
4668,311000001020020004,1,영업/정상,0000,정상,,서울특별시 은평구 신사동 9-34번지,서울특별시 은평구 갈현로 35 (신사동),3435.0,한마음동물병원,2018-08-31 23:59:59.0,126.90722790457089,37.60099342597476
4669,311000001020170002,1,영업/정상,0000,정상,,서울특별시 은평구 진관동 83번지 은평뉴타운우물골 205동 B104호,"서울특별시 은평구 진관2로 77, 205동 지하1층 B104호 (진관동, 은평뉴타운우물골)",3306.0,우리덕구동물병원,2019-03-08 02:40:00.0,126.92467810701912,37.634563682096775
4670,311000001020170003,1,영업/정상,0000,정상,,서울특별시 은평구 증산동 202-27번지 지하1층,"서울특별시 은평구 증산로9길 26-23, 지하1층 (증산동)",3496.0,가든펫동물병원,2019-03-08 02:40:00.0,126.90567381305398,37.58693713796667
4671,311000001019750002,1,영업/정상,0000,정상,,서울특별시 은평구 응암동 119-17번지,서울특별시 은평구 응암로 261 (응암동),3455.0,응암동물병원,2018-08-31 23:59:59.0,126.91545284324573,37.59526416044124
4672,311000001019880001,1,영업/정상,0000,정상,,서울특별시 은평구 갈현동 394-19번지,서울특별시 은평구 통일로 879 (갈현동),3329.0,김정복동물병원,2019-03-08 02:40:00.0,126.91667816350991,37.62138005281524
4673,311000001019900001,1,영업/정상,0000,정상,,서울특별시 은평구 불광동 274-10번지,서울특별시 은평구 불광로 37 (불광동),3358.0,불광동물병원,2020-05-30 02:40:00.0,126.92689145849046,37.61132129822574
4674,311000001019950001,1,영업/정상,0000,정상,,서울특별시 은평구 응암동 576-25번지,서울특별시 은평구 응암로 226 (응암동),3467.0,한얼동물병원,2018-08-31 23:59:59.0,126.91502553253491,37.592044191055635
4675,318000001020000001,1,영업/정상,0000,정상,,서울특별시 영등포구 신길동 3611번지,서울특별시 영등포구 신길로 70 (신길동),7436.0,신풍동물종합병원,2020-04-29 02:40:00.0,126.90567552540254,37.49864932189393
4676,318000001019880002,1,영업/정상,0000,정상,,서울특별시 영등포구 신길동 628번지,서울특별시 영등포구 여의대방로35길 1 (신길동),,대방동물병원,2018-08-31 23:59:59.0,126.91753848661507,37.50143256950326
4677,306000001020050003,1,영업/정상,0000,정상,,서울특별시 중랑구 신내동 646번지 금강리빙스텔 119호,"서울특별시 중랑구 신내로 211, 119호 (신내동, 금강리빙스텔)",2024.0,쥬라기동물병원,2018-08-31 23:59:59.0,127.08978738999562,37.616325654327824
4678,306000001020060001,1,영업/정상,0000,정상,,서울특별시 중랑구 면목동 353-25번지,서울특별시 중랑구 면목로 273 (면목동),,주연동물병원,2018-08-31 23:59:59.0,127.08281675257193,37.577294715590874
4679,306000001020060002,1,영업/정상,0000,정상,,서울특별시 중랑구 신내동 571-8번지,서울특별시 중랑구 신내로10길 7 (신내동),2069.0,진서동물병원,2019-03-08 02:40:00.0,127.0930336150286,37.60469894177921
4680,306000001020060003,1,영업/정상,0000,정상,,서울특별시 중랑구 망우동 490-7번지 신인빌딩,"서울특별시 중랑구 망우로 396, 신인빌딩 (망우동)",2163.0,세진동물병원,2019-03-08 02:40:00.0,127.09336443771211,37.59868108972995
4681,306000001020060006,1,영업/정상,0000,정상,,서울특별시 중랑구 면목동 103-4 1층,"서울특별시 중랑구 겸재로 207, 1층 (면목동)",2162.0,숲속동물병원,2021-08-01 02:40:00.0,127.08767170281779,37.589314557868114
4682,312000001020050001,1,영업/정상,0000,정상,,서울특별시 서대문구 북아현동 136-21번지 e편한세상신촌 4단지,"서울특별시 서대문구 신촌로35길 10, 지하1층 424호 (북아현동, e편한세상신촌 4단지)",3772.0,마음을 나누는 동물병원,2018-10-03 02:35:32.0,126.95247879734747,37.5578268089575
4683,312000001020010002,1,영업/정상,0000,정상,,서울특별시 서대문구 홍은동 217-30번지 나호,서울특별시 서대문구 통일로 489 (홍은동),3647.0,신영동물병원,2019-05-25 02:40:00.0,126.93804065543199,37.59166438855281
4684,306000001020080001,1,영업/정상,0000,정상,,서울특별시 중랑구 중화동 207,서울특별시 중랑구 망우로 247 (중화동),2117.0,로얄동물메디컬센터,2021-08-13 02:40:00.0,127.0771297536726,37.59543561118659
4685,306000001020090001,1,영업/정상,0000,정상,,서울특별시 중랑구 면목동 606-6번지,서울특별시 중랑구 사가정로 363 (면목동),2227.0,면목동물병원,2018-11-01 02:36:04.0,127.08201192505692,37.58121542281
4686,306000001020100001,1,영업/정상,0000,정상,,서울특별시 중랑구 신내동 648번지 디아뜨갤러리,"서울특별시 중랑구 신내로 225, 디아뜨갤러리 142호 (신내동)",2024.0,하니동물병원,2018-10-12 23:59:59.0,127.08840200659814,37.6169573971491
4687,306000001020100002,1,영업/정상,0000,정상,,"서울특별시 중랑구 면목동 119-10 1,2층","서울특별시 중랑구 겸재로 165, 1,2층 (면목동)",2145.0,한국동물메디컬센터(KAMC),2021-06-03 02:40:00.0,127.08300952964227,37.588194665867015
4688,312000001020020001,1,영업/정상,0000,정상,,서울특별시 서대문구 연희동 88-20번지,서울특별시 서대문구 연희로 132 (연희동),3723.0,라파엘종합동물병원,2019-01-13 02:40:00.0,126.93016273002236,37.56921211516243
4689,312000001020020002,1,영업/정상,0000,정상,,서울특별시 서대문구 남가좌동 381번지,"서울특별시 서대문구 거북골로 120 (남가좌동, DMC센트레빌아파트)",3690.0,프란다스동물병원,2019-01-13 02:40:00.0,126.91276909766634,37.5759738396106
4690,373000001020180002,1,영업/정상,0000,정상,,울산광역시 울주군 삼동면 하잠리 818번지,"울산광역시 울주군 삼동면 삼동로 751, 2층",44956.0,삼동종합가축병원약품,2020-04-23 02:40:00.0,129.1539211493211,35.52123268959736
4691,563000001020180003,1,영업/정상,0000,정상,,경기도 용인시 기흥구 신갈동 69-7번지,"경기도 용인시 기흥구 중부대로 364, 2층 (신갈동)",17064.0,24시 쓰담쓰담 동물메디컬 센터,2019-01-18 02:40:00.0,127.10454026548707,37.27123937760526
4692,511000001020180001,1,영업/정상,0000,정상,,경상북도 상주시 사벌국면 덕담리 444-2번지,경상북도 상주시 사벌국면 덕담1길 86,37127.0,더존 동물병원,2020-05-30 02:40:00.0,128.20837616991392,36.46926662466852
4693,323000001020180010,1,영업/정상,0000,정상,,서울특별시 송파구 송파동 15-6번지,서울특별시 송파구 송파대로 450 (송파동),5625.0,샤인동물메디컬센터,2020-05-28 02:40:00.0,127.10327294932249,37.506850179933835
4694,309000001020180006,1,영업/정상,0000,정상,,서울특별시 도봉구 도봉동 562-26번지,서울특별시 도봉구 도봉로 875 (도봉동),1304.0,도담동물병원,2019-05-01 02:40:00.0,127.0426501726711,37.682675919193855
4696,573500001020190001,1,영업/정상,0000,정상,,충청북도 청주시 청원구 오창읍 양청리 769-5번지 보람타운(103호),"충청북도 청주시 청원구 오창읍 양청1길 21, 보람타운",28115.0,오성동물병원,2019-01-17 02:20:51.0,127.42359800045048,36.719822007394804
4697,363000001020190002,1,영업/정상,0000,정상,,광주광역시 광산구 월계동 893-9번지,"광주광역시 광산구 월계로 203, 123호 (월계동)",62277.0,비타민동물병원,2019-09-01 02:40:00.0,126.84492952388695,35.213850808903615
4698,525000001020190001,1,영업/정상,0000,정상,,경상북도 울진군 울진읍 읍내리 219-6 킴스동물병원,"경상북도 울진군 울진읍 울진중앙로 39, 킴스동물병원",36326.0,킴스동물병원,2021-03-28 02:40:00.0,129.39446239677454,36.9857504211007
4699,378000001020190002,1,영업/정상,0000,정상,,경기도 성남시 분당구 백현동 564-5번지 (주)코레드디엔씨 201호,"경기도 성남시 분당구 판교역로14번길 20, (주)코레드디엔씨 2층 201호 (백현동)",13536.0,365동판교동물병원,2019-11-24 02:40:00.0,127.10854857473052,37.3854768366786
4700,314000001020190001,1,영업/정상,0000,정상,,서울특별시 양천구 목동 721-1번지 목동한강팰리스,"서울특별시 양천구 등촌로 114, 목동한강팰리스 1층 (목동)",7957.0,가온동물병원,2019-01-31 02:21:05.0,126.8611809313794,37.54016208389714
4701,651000001020190002,1,영업/정상,0000,정상,,제주특별자치도 제주시 노형동 1897-5,제주특별자치도 제주시 월산남길 131 (노형동),63078.0,제주오름동물병원,2021-11-11 02:40:00.0,126.46806212936154,33.46361769172903
4702,560000001020190002,1,영업/정상,0000,정상,,경기도 포천시 영중면 양문리 550-6번지,경기도 포천시 영중면 호국로 2924,11128.0,큰동물병원,2019-03-09 02:40:00.0,127.24436391880332,38.00323752973001
4703,506000001020190001,1,영업/정상,0000,정상,,경상북도 김천시 율곡동 780번지 율곡스퀘어Ⅲ,"경상북도 김천시 혁신3로 5, 율곡스퀘어Ⅲ 1층 110호 (율곡동)",39660.0,율곡동물병원,2019-03-07 02:40:00.0,128.1804086155531,36.11796946065747
4704,394000001020180003,1,영업/정상,0000,정상,,경기도 고양시 덕양구 화전동 219-14번지,"경기도 고양시 덕양구 중앙로 136, 102호 (화전동)",10538.0,경서동물병원,2019-04-30 02:40:00.0,126.87001679552928,37.6007748430725
4706,362000001020190002,1,영업/정상,0000,정상,,광주광역시 북구 운암동 68번지 벽산 블루밍 메가씨티 214호,"광주광역시 북구 서강로54번길 50, 214호 (운암동, 벽산 블루밍 메가씨티)",61260.0,24시 블루밍 동물병원,2020-02-26 02:40:00.0,126.87390474107694,35.17461208140787
4707,526000001020190001,1,영업/정상,0000,정상,,경상북도 울릉군 서면 남양리 608-5번지,경상북도 울릉군 서면 남양1길 8,40237.0,우산동물병원,2019-01-27 02:21:01.0,130.83336266313384,37.47095924773891
4708,308000001020190001,1,영업/정상,0000,정상,,서울특별시 강북구 미아동 42-11 덕신빌딩 4층,"서울특별시 강북구 월계로 3, 덕신빌딩 4층 (미아동)",1220.0,24시루시드동물메디컬센터,2021-10-24 02:40:00.0,127.02774080159469,37.60957103189541
4709,361000001020190001,1,영업/정상,0000,정상,,광주광역시 남구 진월동 264-3,광주광역시 남구 서문대로 665 (진월동),61727.0,은하수 동물병원,2020-10-21 02:40:00.0,126.89571540998011,35.11897639860922
4710,407000001020190001,1,영업/정상,0000,정상,,경기도 이천시 중리동 468-24,"경기도 이천시 중리천로 135, 미래캐슬2동 (중리동)",17373.0,24시큰사랑동물병원,2021-06-12 02:40:00.0,127.44677069588448,37.275327024957114
4711,573500001020190002,1,영업/정상,0000,정상,,충청북도 청주시 청원구 오창읍 장대리 294-2번지,충청북도 청주시 청원구 오창읍 오창시내5길 7,28129.0,새솔동물병원,2019-01-18 02:20:52.0,127.45340570059402,36.74207778146166
4712,502000001020190001,1,영업/정상,0000,정상,,경상북도 포항시 남구 효자동 594-4번지,경상북도 포항시 남구 형산강북로 99 (효자동),37836.0,관문동물병원,2019-02-17 02:40:00.0,129.33478655422715,36.00486825013268
4713,386000001020190002,1,영업/정상,0000,정상,,경기도 부천시 중동 1128 그린프라자,"경기도 부천시 부흥로303번길 62, 그린프라자 (중동)",14582.0,24시 웰니스 동물 의료센터,2020-12-05 02:40:00.0,126.77306805657372,37.497341647057894
4714,304000001020190001,1,영업/정상,0000,정상,,서울특별시 광진구 자양동 681번지,"서울특별시 광진구 자양로 48, 104호 (자양동)",5112.0,아이본 동물병원,2019-03-17 02:21:52.0,127.08286243537962,37.53237459521269
4715,531000001020190001,1,영업/정상,0000,정상,,경상남도 진주시 주약동 100-9번지,경상남도 진주시 진주대로 850 (주약동),52727.0,예스동물의료원,2019-03-30 02:40:00.0,128.08967980927855,35.17663965745048
4716,406000001020190001,1,영업/정상,0000,정상,,경기도 파주시 목동동 1136-3번지,"경기도 파주시 심학산로423번길 7-33, 준프라자 2층 201호 (목동동)",10900.0,산내동물병원,2019-02-27 02:21:34.0,126.73433502900627,37.71943226638577
4717,542000001020190001,1,영업/정상,0000,정상,,경상남도 고성군 회화면 배둔리 435-30번지,경상남도 고성군 회화면 배둔로 40,52915.0,유병국 동물병원,2019-11-09 02:40:00.0,128.36738093237804,35.05762151925114
4718,322000001020190002,1,영업/정상,0000,정상,,서울특별시 강남구 역삼동 834-45번지 동광빌딩 1층,"서울특별시 강남구 역삼로 138, 동광빌딩 1층 (역삼동)",6250.0,하나카동물병원,2019-02-21 02:40:00.0,127.0318200337237,37.49422583400056
4719,366000001020190001,1,영업/정상,0000,정상,,대전광역시 서구 둔산동 1383번지 햇님아파트 상가 112호,"대전광역시 서구 둔산북로 175, 1층 112호 (둔산동, 햇님아파트)",35243.0,다정한 동물병원,2019-03-08 02:40:00.0,127.38979011059982,36.35629663454322
4720,565000001020190001,1,영업/정상,0000,정상,,충청남도 천안시 동남구 신방동 1586,충청남도 천안시 동남구 통정12로 65 (신방동),31204.0,드림동물병원,2020-08-30 02:40:00.0,127.13195389264145,36.77666908848018
4721,347000001020190001,1,영업/정상,0000,정상,,대구광역시 달서구 월성동 1540-2번지 원더풀스파랜드 203호,"대구광역시 달서구 조암로 48, 원더풀스파랜드 203호 (월성동)",42754.0,돌봄동물메디컬클리닉,2019-02-27 02:21:34.0,128.52130867138519,35.8243185842232
4722,335000001020190001,1,영업/정상,0000,정상,,부산광역시 금정구 장전동 607-37,"부산광역시 금정구 식물원로 11, 2층 (장전동)",46301.0,휴동물의료센터,2021-08-05 02:40:00.0,129.0838162987803,35.22384116519354
4723,362000001020190001,1,영업/정상,0000,정상,,광주광역시 북구 신용동 710번지,"광주광역시 북구 첨단연신로91번길 30, 106, 107호 (신용동)",61087.0,마음동물병원,2019-03-19 02:40:00.0,126.85833636482067,35.20650986698358
4724,322000001020190001,1,영업/정상,0000,정상,,서울특별시 강남구 압구정동 426번지 현대아파트 상가 1동 201호,"서울특별시 강남구 압구정로 151, 상가 1동 201호 (압구정동, 현대아파트)",6001.0,튼튼동물병원,2019-01-31 02:40:00.0,127.02158936400564,37.526222537683914
4727,548000001020190001,1,영업/정상,0000,정상,,경상남도 합천군 합천읍 합천리 494-29번지,경상남도 합천군 합천읍 옥산로 26,50232.0,나라 동물병원,2019-11-13 02:40:00.0,128.15506403013802,35.56861506596215
4728,479000001020190001,1,영업/정상,0000,정상,,전라북도 부안군 부안읍 서외리 432-21번지,전라북도 부안군 부안읍 번영로 82-1,56311.0,닥터 홍 동물병원,2019-04-17 02:40:00.0,126.726489455698,35.72640398778929
4729,535000001020190002,1,영업/정상,0000,정상,,경상남도 김해시 삼계동 1505-4번지 코아루센텀 오피스텔,"경상남도 김해시 해반천로130번길 39, 코아루센텀 오피스텔 2층 (삼계동)",50902.0,다봄 동물의료센터,2019-03-14 02:40:00.0,128.86872622870823,35.2603775301226
4730,362000001020190003,1,영업/정상,0000,정상,,광주광역시 북구 오치동 785-6,"광주광역시 북구 설죽로 298, 1,2층 (오치동)",61119.0,동행동물병원,2021-01-01 02:40:00.0,126.8957006530611,35.186183288985674
4731,554000001020190002,1,영업/정상,0000,정상,,경기도 광주시 태전동 162-5번지,"경기도 광주시 태전동로 25, 퍼스트타워 1층 104호 (태전동)",12787.0,하하동물병원,2019-01-10 02:20:44.0,127.23155299536062,37.386655562354214
4732,378000001020190001,1,영업/정상,0000,정상,,경기도 성남시 분당구 정자동 117-1번지 스포라이프 스포츠센타 107호,"경기도 성남시 분당구 내정로 58, 스포라이프 스포츠센타 107호 (정자동)",13607.0,분당데이지동물병원,2019-03-01 02:40:00.0,127.11230605728198,37.365386669823614
4733,324000001020190001,1,영업/정상,0000,정상,,서울특별시 강동구 강일동 679-2번지 MIDC빌딩,"서울특별시 강동구 아리수로 421, MIDC빌딩 101호 (강일동)",5211.0,아프리카동물병원,2019-03-31 02:20:09.0,127.17197458138473,37.5673810205971
4734,352000001020190001,1,영업/정상,0000,정상,,인천광역시 연수구 송도동 21-24,"인천광역시 연수구 신송로 165-19, 2층 201,202호 (송도동)",22002.0,라파엘 동물병원,2021-12-29 02:40:00.0,126.64423506564137,37.39661806493908
4735,353000001020190001,1,영업/정상,0000,정상,,인천광역시 남동구 논현동 733-5번지,"인천광역시 남동구 논고개로 80, 202호 (논현동)",21667.0,해와달동물병원,2019-03-27 02:20:05.0,126.72366241695205,37.39919668759634
4736,535000001020190001,1,영업/정상,0000,정상,,경상남도 김해시 삼계동 1413-3번지,경상남도 김해시 가야로 26 (삼계동),50896.0,성모동물병원,2019-02-09 02:21:15.0,128.8605141672441,35.26960073655712
4737,347000001019960001,1,영업/정상,0000,정상,,대구광역시 달서구 상인동 240-9번지,대구광역시 달서구 월곡로 249 (상인동),42786.0,가람동물병원,2019-05-11 02:40:00.0,128.53650323190075,35.81671924897213
4738,347000001019920001,1,영업/정상,0000,정상,,대구광역시 달서구 상인동 188-4번지,대구광역시 달서구 월배로39길 4-1 (상인동),42781.0,제이엘동물병원,2019-01-16 02:40:00.0,128.53155325995672,35.818483247582904
4739,347000001019950001,1,영업/정상,0000,정상,,대구광역시 달서구 두류동 487-25번지,대구광역시 달서구 달구벌대로 1736 (두류동),42646.0,광장동물병원,2019-04-19 02:40:00.0,128.55230067862277,35.85672205765213
4740,347000001019970001,1,영업/정상,0000,정상,,대구광역시 달서구 감삼동 105-1,대구광역시 달서구 달구벌대로 1658 (감삼동),42642.0,용산종합동물병원,2020-07-15 02:40:00.0,128.54458627283432,35.85374784329432
4741,347000001019990002,1,영업/정상,0000,정상,,대구광역시 달서구 이곡동 541-9번지,대구광역시 달서구 달구벌대로 1220 (이곡동),42703.0,온누리동물병원,2019-05-11 02:40:00.0,128.4979276093496,35.85142474414272
4742,347000001020000003,1,영업/정상,0000,정상,,대구광역시 달서구 이곡동 1000-125번지,대구광역시 달서구 달구벌대로 1328 (이곡동),42696.0,문종합동물병원,2019-01-16 02:40:00.0,128.50959219209233,35.850522809316686
4743,347000001020020002,1,영업/정상,0000,정상,,대구광역시 달서구 송현동 56-1번지 나동 2층,"대구광역시 달서구 구마로 218, 2층 (송현동)",42736.0,세림종합동물병원,2019-05-11 02:40:00.0,128.54863614285094,35.836787370037555
4744,347000001020050002,1,영업/정상,0000,정상,,대구광역시 달서구 이곡동 538-3,대구광역시 달서구 달구벌대로 1223 (이곡동),42612.0,미르동물병원,2020-12-11 02:40:00.0,128.49832968019572,35.85205826394923
4745,342000001019900001,1,영업/정상,0000,정상,,대구광역시 동구 신암동 1476번지,대구광역시 동구 아양로 227 (신암동),,박동물병원,2019-03-10 02:40:00.0,128.63512039829536,35.88672013770358
4746,342000001019960001,1,영업/정상,0000,정상,,대구광역시 동구 효목동 80-7번지,대구광역시 동구 아양로 246 (효목동),,박순복동물병원,2019-03-10 02:40:00.0,128.63695116282733,35.886865643684914
4747,342000001020100003,1,영업/정상,0000,정상,,대구광역시 동구 신기동 179-5번지,대구광역시 동구 반야월로 140 (신기동),41110.0,이스턴24시동물병원,2019-03-10 02:40:00.0,128.70090150713435,35.87289804359833
4748,342000001020120001,1,영업/정상,0000,정상,,대구광역시 동구 신서동 520-1번지 이마트 2층,"대구광역시 동구 안심로 389-2 (신서동, 이마트 2층)",41084.0,쿨펫동물병원,2019-03-09 02:40:00.0,128.7245213502007,35.870791690419075
4749,342000001020130001,1,영업/정상,0000,정상,,대구광역시 동구 율하동 1117 롯데마트 4층 동물병원,"대구광역시 동구 안심로 80 (율하동,롯데마트 4층 동물병원)",,쿨펫동물병원,2020-07-12 02:40:00.0,128.69047683372756,35.86860264922343
4750,342000001020140001,1,영업/정상,0000,정상,,대구광역시 동구 신서동 621-22번지,대구광역시 동구 반야월로 334 (신서동),41083.0,앨리스동물병원,2019-06-28 02:40:00.0,128.72212533575316,35.871932251118
4751,347000001020000004,1,영업/정상,0000,정상,,대구광역시 달서구 이곡동 1248-5,대구광역시 달서구 이곡공원로 36 (이곡동),42620.0,성서종합동물병원,2021-11-04 02:40:00.0,128.5084453120889,35.85494561892705
4752,347000001020050004,1,영업/정상,0000,정상,,대구광역시 달서구 월성동 1832번지,대구광역시 달서구 조암로 42 (월성동),42753.0,오 동물병원,2019-01-16 02:40:00.0,128.5223573115243,35.824653293347474
4753,347000001020030006,1,영업/정상,0000,정상,,대구광역시 달서구 성당동 211-3번지,대구광역시 달서구 성당로 21 (성당동),42680.0,두류동물병원,2019-05-11 02:40:00.0,128.55561508658417,35.83935927479012
4754,342000001020010004,1,영업/정상,0000,정상,,대구광역시 동구 방촌동 1118-120번지,대구광역시 동구 화랑로 413 (방촌동),41164.0,킴스동물병원,2019-03-10 02:40:00.0,128.66636849890668,35.87694075458869
4755,342000001020020001,1,영업/정상,0000,정상,,대구광역시 동구 검사동 957-41번지,대구광역시 동구 동촌로 154 (검사동),41157.0,변수의과의원,2019-03-09 02:40:00.0,128.65476892259863,35.883985804929424
4756,342000001020040003,1,영업/정상,0000,정상,,대구광역시 동구 효목동 64-6번지,대구광역시 동구 아양로 216 (효목동),,21세기종합동물병원,2018-08-31 23:59:59.0,128.63385997560118,35.88595141593964
4757,342000001020050001,1,영업/정상,0000,정상,,대구광역시 동구 신암동 1196-57번지,"대구광역시 동구 신암로 86-1, 1층 (신암동)",41205.0,다사랑종합동물병원,2019-03-10 02:40:00.0,128.60711622724992,35.87864057831489
4758,342000001020060002,1,영업/정상,0000,정상,,대구광역시 동구 신천동 137-4번지,대구광역시 동구 동대구로 425 (신천동),,대경동물병원,2019-03-09 02:40:00.0,128.62297991186045,35.86840774878296
4759,342000001020150001,1,영업/정상,0000,정상,,대구광역시 동구 방촌동 1118-109,대구광역시 동구 화랑로 429 (방촌동),41165.0,이끌림동물병원,2020-12-18 02:40:00.0,128.66822066146082,35.876604955347524
4760,342000001020150002,1,영업/정상,0000,정상,,대구광역시 동구 신천동 538-22번지,"대구광역시 동구 동부로 34, 2층 (신천동)",41264.0,대구동물병원,2018-08-31 23:59:59.0,128.61354638659404,35.874040981064795
4761,342000001020150003,1,영업/정상,0000,정상,,대구광역시 동구 율하동 1292번지,"대구광역시 동구 율하서로 54, 101,102호 (율하동)",41108.0,율하동물병원,2018-08-31 23:59:59.0,128.68802673477353,35.8649054955559
4762,347000001020020001,1,영업/정상,0000,정상,,대구광역시 달서구 본동 821-1번지,"대구광역시 달서구 구마로 136, 1층 (본동)",42734.0,박물관옆동물병원,2020-04-01 02:40:00.0,128.53954873788217,35.8369585551781
4763,347000001020020003,1,영업/정상,0000,정상,,대구광역시 달서구 송현동 798-244 1층,"대구광역시 달서구 월배로 330-1, 1층 (송현동)",42824.0,25시종합동물병원,2021-02-18 02:40:00.0,128.54403872849497,35.82484371732496
4764,347000001020030002,1,영업/정상,0000,정상,,대구광역시 달서구 용산동 499-1번지,대구광역시 달서구 선원로 262 (용산동),42617.0,헬로우동물병원,2019-05-11 02:40:00.0,128.5184293112288,35.85849430051355
4765,347000001020030003,1,영업/정상,0000,정상,,대구광역시 달서구 상인동 255-2번지,대구광역시 달서구 월배로 182 (상인동),42787.0,어진종합동물병원,2019-05-11 02:40:00.0,128.53109756492532,35.817386186392824
4766,342000001020140003,1,영업/정상,0000,정상,,대구광역시 동구 봉무동 1520-1번지 106호,"대구광역시 동구 팔공로 320-1, 1층 106호 (봉무동)",41020.0,이시아동물병원,2018-08-31 23:59:59.0,128.6391156505496,35.927346300131745
4767,342000001020140004,1,영업/정상,0000,정상,,대구광역시 동구 신암동 799-1번지,대구광역시 동구 아양로 17 (신암동),41196.0,열린동물병원,2018-08-31 23:59:59.0,128.61314535692836,35.8816438725523
4768,342000001020170001,1,영업/정상,0000,정상,,대구광역시 동구 각산동 444-7번지,대구광역시 동구 경안로 826 (각산동),41073.0,봄이온동물병원,2018-12-29 02:40:00.0,128.71129311565443,35.87614368913774
4769,346000001020050004,1,영업/정상,0000,정상,,대구광역시 수성구 수성동4가 1186-76번지 77호,"대구광역시 수성구 달구벌대로 2287-1, 77호 (수성동4가)",,캣츠&독스동물병원,2019-01-12 02:40:00.0,128.60987540668512,35.86016311281138
4770,346000001020060001,1,영업/정상,0000,정상,,대구광역시 수성구 지산동 1157-22번지,대구광역시 수성구 지범로 69 (지산동),,이수의과동물병원,2019-01-15 02:40:00.0,128.62584822154375,35.8269314541598
4771,346000001020060002,1,영업/정상,0000,정상,,대구광역시 수성구 수성동2가 60-1번지 4호,"대구광역시 수성구 명덕로 421, 4호 (수성동2가)",,허동물병원,2018-08-31 23:59:59.0,128.6134773390009,35.85463304339189
4772,346000001020060003,1,영업/정상,0000,정상,,대구광역시 수성구 중동 400-10번지,대구광역시 수성구 수성로 151 (중동),,수성동물병원,2018-08-31 23:59:59.0,128.6090529222019,35.83912981744253
4773,347000001020140005,1,영업/정상,0000,정상,,대구광역시 달서구 진천동 595-26,대구광역시 달서구 월배로 79 (진천동),42760.0,초록동물병원,2021-11-04 02:40:00.0,128.52025961632359,35.81404921213263
4774,346000001020100001,1,영업/정상,0000,정상,,대구광역시 수성구 상동 279-2,대구광역시 수성구 수성로 85 (상동),,올펫 동물병원,2021-10-31 02:40:00.0,128.6083674272901,35.833306945600704
4775,346000001020100002,1,영업/정상,0000,정상,,대구광역시 수성구 신매동 183번지,대구광역시 수성구 달구벌대로 3258 (신매동),42277.0,다원 동물병원,2018-08-31 23:59:59.0,128.70934665715703,35.83804911066756
4776,346000001020100003,1,영업/정상,0000,정상,,대구광역시 수성구 만촌동 950-1번지,대구광역시 수성구 국채보상로 1006 (만촌동),,메트로 동물병원,2019-01-18 02:40:00.0,128.63741958463328,35.865811628562255
4777,347000001020110003,1,영업/정상,0000,정상,,대구광역시 달서구 진천동 576-1번지,대구광역시 달서구 월배로 93 (진천동),42784.0,위드동물병원,2019-01-16 02:40:00.0,128.5219934768943,35.8143870245602
4778,347000001020140003,1,영업/정상,0000,정상,,대구광역시 달서구 진천동 657-1,대구광역시 달서구 월배로 48 (진천동),42770.0,두남자동물병원,2021-11-06 02:40:00.0,128.51716866955104,35.81302294136888
4779,347000001020140004,1,영업/정상,0000,정상,,대구광역시 달서구 상인동 1595-3번지,대구광역시 달서구 조암남로 9 (상인동),42780.0,하나동물병원,2019-01-16 02:40:00.0,128.52897138694345,35.82231033118234
4780,347000001020140001,1,영업/정상,0000,정상,,대구광역시 달서구 도원동 1436-9번지,대구광역시 달서구 한실로 99 (도원동),42833.0,이룸동물병원,2019-03-13 02:40:00.0,128.53486086432665,35.80694631941381
4781,347000001020160004,1,영업/정상,0000,정상,,대구광역시 달서구 진천동 574-1번지,"대구광역시 달서구 진천로 78, 2층 (진천동)",42784.0,애플동물병원,2019-12-14 02:40:00.0,128.52089986072139,35.81542298488883
4782,347000001020170001,1,영업/정상,0000,정상,,대구광역시 달서구 본리동 62-6번지,대구광역시 달서구 장기로 207 (본리동),42674.0,라파동물병원,2019-01-16 02:40:00.0,128.5347637577095,35.8432876244978
4783,347000001020130001,1,영업/정상,0000,정상,,"대구광역시 달서구 용산동 208-27 k타워 1,2층","대구광역시 달서구 달구벌대로 1521, 1,2층 (용산동, k타워)",42633.0,(주)죽전동물메디컬센터,2021-09-09 02:40:00.0,128.53036370235694,35.8500312030468
4784,347000001020140002,1,영업/정상,0000,정상,,대구광역시 달서구 감삼동 171-4번지,대구광역시 달서구 와룡로 156 (감삼동),42652.0,미소동물병원,2019-01-16 02:40:00.0,128.53467251108523,35.84648515512074
4785,347000001020150001,1,영업/정상,0000,정상,,대구광역시 달서구 대곡동 964번지,대구광역시 달서구 비슬로 2746 (대곡동),42765.0,24시프라임동물병원,2019-02-14 02:40:00.0,128.51257035080204,35.81019830741127
4786,347000001020150002,1,영업/정상,0000,정상,,대구광역시 달서구 대곡동 7-6,대구광역시 달서구 비슬로 2692 (대곡동),42769.0,이솝동물병원,2021-06-17 02:40:00.0,128.50729858088857,35.80798682577959
4787,347000001020160001,1,영업/정상,0000,정상,,대구광역시 달서구 월성동 1811 그루메디컬 105호,"대구광역시 달서구 조암로 4, 105호 (월성동, 그루메디컬)",42752.0,앨리스in동물병원,2021-11-04 02:40:00.0,128.52631725228957,35.82622227963702
4788,347000001020160002,1,영업/정상,0000,정상,,대구광역시 달서구 도원동 1435번지,대구광역시 달서구 도원로 11 (도원동),42833.0,THE나은동물병원,2019-01-16 02:40:00.0,128.53350862842828,35.808624412613156
4789,347000001020170002,1,영업/정상,0000,정상,,대구광역시 달서구 장기동 566-4번지,대구광역시 달서구 용산로 52 (장기동),42690.0,본리종합동물병원,2019-08-15 02:40:00.0,128.5279914512421,35.84219203441462
4790,347000001020170003,1,영업/정상,0000,정상,,대구광역시 달서구 진천동 44-4,대구광역시 달서구 월배로 165 (진천동),42783.0,본 동물메디컬센터 외과동물병원,2021-12-09 02:40:00.0,128.52915327863897,35.817140471303816
4791,347000001020040007,1,영업/정상,0000,정상,,대구광역시 달서구 진천동 508번지 진천역 대성스키이렉스 상가1층 401동 127호,"대구광역시 달서구 월배로 80, 401동 1층 127호 (진천동, 진천역 대성스카이렉스 상가)",42773.0,해맑은동물병원,2019-01-16 02:40:00.0,128.52089248406773,35.81323365994256
4792,347000001020040009,1,영업/정상,0000,정상,,대구광역시 달서구 두류동 472-11번지,대구광역시 달서구 두류공원로 267 (두류동),42647.0,한마음종합동물병원,2019-01-16 02:40:00.0,128.55473431649662,35.856920693565954
4793,347000001020170004,1,영업/정상,0000,정상,,대구광역시 달서구 상인동 1439-1,"대구광역시 달서구 월배로 166, 1, 2, 5층 (상인동)",42788.0,탑스동물메디컬센터,2021-11-14 02:40:00.0,128.5293333399023,35.81656166785409
4794,347000001020040005,1,영업/정상,0000,정상,,대구광역시 달서구 이곡동 1238-6번지,대구광역시 달서구 이곡공원로 19 (이곡동),42619.0,이곡종합동물병원,2019-01-16 02:40:00.0,128.50668151971405,35.85541845681103
4795,345000001020080001,1,영업/정상,0000,정상,,대구광역시 북구 침산동 241-1,대구광역시 북구 침산로 116 (침산동),,아프리카 동물병원,2021-10-22 02:40:00.0,128.5888041526424,35.88642764498073
4796,345000001020100001,1,영업/정상,0000,정상,,대구광역시 북구 대현동 229-19,대구광역시 북구 대현로 27 (대현동),,북부동물병원,2021-10-15 02:40:00.0,128.6006453758844,35.88580833641802
4797,345000001020110002,1,영업/정상,0000,정상,,대구광역시 북구 태전동 1049-4,대구광역시 북구 칠곡중앙대로 344 (태전동),41461.0,강북동물병원,2021-10-15 02:40:00.0,128.54479882882308,35.926263736461316
4798,345000001020110003,1,영업/정상,0000,정상,,대구광역시 북구 복현동 209-1,대구광역시 북구 공항로 12 (복현동),41526.0,준 동물병원,2021-10-15 02:40:00.0,128.613819668886,35.89756543687457
4799,345000001020120001,1,영업/정상,0000,정상,,대구광역시 북구 침산동 269-10 명성푸르지오 101동 A1호,"대구광역시 북구 침산로 153, 101동 1층 A1호 (침산동, 명성푸르지오)",41559.0,라라(Lara) 동물병원,2021-10-15 02:40:00.0,128.5875923459474,35.88905821460161
4800,345000001020120002,1,영업/정상,0000,정상,,대구광역시 북구 칠성동2가 371-2,"대구광역시 북구 중앙대로 526, 2층 (칠성동2가)",41579.0,플러스동물의료센터,2021-10-16 02:40:00.0,128.59376246707382,35.8796383695735
4801,345000001020130001,1,영업/정상,0000,정상,,대구광역시 북구 태전동 1068,대구광역시 북구 칠곡중앙대로 373 (태전동),41452.0,태전동물병원,2021-10-15 02:40:00.0,128.54454156702928,35.92912791100152
4802,345000001020130003,1,영업/정상,0000,정상,,대구광역시 북구 구암동 765-2 동재빌딩 101호,"대구광역시 북구 학정로 440, 101호 (구암동, 동재빌딩)",41424.0,키다리동물병원,2021-10-15 02:40:00.0,128.56135424824393,35.94373845387972
4803,345000001020130004,1,영업/정상,0000,정상,,대구광역시 북구 산격동 1838,"대구광역시 북구 동북로 131, 105동 108,9호 (산격동, 양우내안에아파트 상가)",41519.0,올리브동물병원,2021-10-15 02:40:00.0,128.60526237587996,35.90159092008926
4804,345000001020140001,1,영업/정상,0000,정상,,대구광역시 북구 노원동1가 1-8,대구광역시 북구 침산남로 61 (노원동1가),41553.0,대구24시동물병원,2021-10-15 02:40:00.0,128.57982653683914,35.889556870019774
4805,345000001020150001,1,영업/정상,0000,정상,,대구광역시 북구 서변동 1746-9,대구광역시 북구 서변로 65-1 (서변동),41477.0,가온동물병원,2021-10-15 02:40:00.0,128.59358402906366,35.92145066106588
4806,345000001019940001,1,영업/정상,0000,정상,,대구광역시 북구 노원동2가 290-3,대구광역시 북구 팔달로41길 12 (노원동2가),41558.0,경북가축병원,2021-10-15 02:40:00.0,128.57048844005033,35.88831533027456
4807,345000001019990001,1,영업/정상,0000,정상,,대구광역시 북구 태전동 415-1 102호,"대구광역시 북구 칠곡중앙대로 301, 102호 (태전동)",,칠곡종합동물병원,2021-10-15 02:40:00.0,128.54367514072874,35.92249476936714
4808,506000001019980001,1,영업/정상,0000,정상,,경상북도 김천시 황금동 17-12번지,경상북도 김천시 양금로 249 (황금동),,가람가축병원,2019-01-17 02:40:00.0,128.12101787893727,36.11640670431169
4809,506000001019980002,1,영업/정상,0000,정상,,경상북도 김천시 성내동 181-6번지,경상북도 김천시 자산로 104 (성내동),39588.0,두산동물병원,2019-03-07 02:40:00.0,128.11793197436907,36.120649776295906
4810,506000001019980003,1,영업/정상,0000,정상,,경상북도 김천시 평화동 245-12번지,경상북도 김천시 김천로 65 (평화동),39598.0,삼양가축병원,2019-03-07 02:40:00.0,128.10742379570738,36.12623706528838
4811,506000001019990001,1,영업/정상,0000,정상,,경상북도 김천시 평화동,경상북도 김천시 구름다리2길 33 (평화동),39585.0,우정 팜 크리닉,2018-08-31 23:59:59.0,128.114709930971,36.12593518472612
4812,506000001020000001,1,영업/정상,0000,정상,,경상북도 김천시 남산동 12-3번지,경상북도 김천시 김천로 188 (남산동),39596.0,가야동물병원,2020-06-17 02:40:00.0,128.1180699942502,36.11937985348867
4813,506000001020010001,1,영업/정상,0000,정상,,경상북도 김천시 부곡동 1504번지,경상북도 김천시 부곡맛고을1길 87 (부곡동),,지수애완동물병원,2019-01-17 02:40:00.0,128.09067375194218,36.12421585066117
4814,506000001020030001,1,영업/정상,0000,정상,,경상북도 김천시 황금동 102-1번지,경상북도 김천시 양금로 231-1 (황금동),39616.0,녹십자동물병원,2019-01-17 02:40:00.0,128.1208019003764,36.114900691274705
4816,506000001020040002,1,영업/정상,0000,정상,,경상북도 김천시 대광동 1088번지,경상북도 김천시 공단1길 164 (대광동),,금오산낙농축협동물병원,2019-12-06 02:40:00.0,128.13402100342358,36.14901718724049
4817,506000001020100001,1,영업/정상,0000,정상,,경상북도 김천시 성내동 10-23번지,경상북도 김천시 자산로 184 (성내동),39583.0,미래동물병원,2019-03-07 02:40:00.0,128.11537479175783,36.12661659352373
4818,506000001020150001,1,영업/정상,0000,정상,,경상북도 김천시 신음동 1313번지 대신휴먼시아,"경상북도 김천시 시청로 95, 휴먼시아A동 상가2층 (신음동, 대신휴먼시아)",39546.0,김천연합동물병원,2019-03-30 02:40:00.0,128.11305983670022,36.13691838828314
4819,507000001019740003,1,영업/정상,0000,정상,,경상북도 안동시 풍천면 구담리 488-2번지,경상북도 안동시 풍천면 구담배나들길 33-3,36760.0,구담가축병원,2019-01-20 02:40:00.0,128.46307621019076,36.54208514184195
4820,507000001019790002,1,영업/정상,0000,정상,,경상북도 안동시 금곡동 124-1번지 0통0반,경상북도 안동시 제비원로 172 (금곡동),36690.0,경북가축병원,2018-08-31 23:59:59.0,128.7176092442697,36.56769206841475
4821,507000001020060001,1,영업/정상,0000,정상,,경상북도 안동시 옥야동 340-49번지,경상북도 안동시 제비원로 118 (옥야동),,서울종합동물병원,2018-08-31 23:59:59.0,128.71815040006038,36.562767462361656
4822,507000001020060002,1,영업/정상,0000,정상,,경상북도 안동시 당북동 333-120번지,"경상북도 안동시 제비원로 113-16, 333동 120호 (당북동)",36674.0,보경종합동물병원,2018-08-31 23:59:59.0,128.71746282684816,36.5626741003156
4823,507000001020060003,1,영업/정상,0000,정상,,경상북도 안동시 옥동 796-1번지,경상북도 안동시 옥동1길 2 (옥동),36663.0,안동제1 동물병원,2018-08-31 23:59:59.0,128.69649615574346,36.558494268526324
4824,507000001020120001,1,영업/정상,0000,정상,,,경상북도 안동시 도산면 퇴계로 2150-44,36605.0,경상북도 야생동물 구조관리센터,2021-10-28 02:40:00.0,128.82369498323902,36.70635003177239
4825,507000001020160001,1,영업/정상,0000,정상,,,경상북도 안동시 풍산읍 풍산태사로 1077-2,36621.0,풍산동물병원,2018-08-31 23:59:59.0,128.5728861817221,36.57695563348799
4826,507000001020170002,1,영업/정상,0000,정상,,경상북도 안동시 정하동 371-4번지,"경상북도 안동시 운동장길 10, 106호 (정하동)",36747.0,BAC 바른동물병원,2019-01-18 02:40:00.0,128.71755474882204,36.5511679718992
4827,507000001019830001,1,영업/정상,0000,정상,,경상북도 안동시 옥동 920-4번지 104동 703호,"경상북도 안동시 옥서1길 70, 104동 703호 (옥동, 호반 베르디움)",36638.0,대구가축병원,2018-08-31 23:59:59.0,128.69051215355645,36.562318208987556
4828,507000001019920001,1,영업/정상,0000,정상,,경상북도 안동시 당북동 311-7번지,경상북도 안동시 제비원로 135 (당북동),36671.0,연합가축병원,2018-08-31 23:59:59.0,128.71757369391935,36.564257424993585
4829,507000001019990001,1,영업/정상,0000,정상,,경상북도 안동시 당북동 333-93번지,경상북도 안동시 제비원로 109 (당북동),36674.0,황동물병원,2019-03-07 02:40:00.0,128.71758107913578,36.562018898315486
4830,507000001020000003,1,영업/정상,0000,정상,,경상북도 안동시 안기동 235-17번지,경상북도 안동시 제비원로 289-1 (안기동),,보우종합동물병원,2018-08-31 23:59:59.0,128.71440074304567,36.57733511386945
4831,507000001020020001,1,영업/정상,0000,정상,,경상북도 안동시 광석동 20-4번지 안동봉화축협,"경상북도 안동시 제비원로 152, 안동봉화축협 (광석동)",36697.0,안동봉화축협동물병원,2020-04-04 02:40:00.0,128.7182982157888,36.56579002341706
4832,507000001020030001,1,영업/정상,0000,정상,,경상북도 안동시 송현동 419-1번지,경상북도 안동시 경북대로 555 (송현동),36632.0,영민동물병원,2018-08-31 23:59:59.0,128.69477331158276,36.57816217858267
4833,507000001020030002,1,영업/정상,0000,정상,,경상북도 안동시 명륜동 328-4번지,경상북도 안동시 퇴계로 127 (명륜동),,신세계동물병원,2018-08-31 23:59:59.0,128.72813095323767,36.568793094547296
4834,352000001020130001,1,영업/정상,0000,정상,,인천광역시 연수구 송도동 23-4번지 더샵센트럴파크2차상가 C동 128호,"인천광역시 연수구 센트럴로 194, C동 128호 (송도동, 더샵센트럴파크2차상가)",22003.0,Central 동물병원,2019-01-19 02:40:00.0,126.63812438204425,37.39451063312063
4835,478000001019850001,1,영업/정상,0000,정상,,전라북도 고창군 고창읍 읍내리 212-19번지,전라북도 고창군 고창읍 성산5길 9,56433.0,연합,2018-08-31 23:59:59.0,126.69714267109933,35.43601338463171
4836,478000001019880001,1,영업/정상,0000,정상,,전라북도 고창군 흥덕면 흥덕리 558번지,전라북도 고창군 흥덕면 선운대로 3734,56415.0,흥덕,2019-05-10 02:40:00.0,126.69626188827107,35.51847746465011
4837,478000001019940001,1,영업/정상,0000,정상,,전라북도 고창군 대산면 매산리 244-19번지,전라북도 고창군 대산면 사거1길 77,56468.0,대산,2020-03-19 02:40:00.0,126.59259540251338,35.341505751740435
4838,478000001019940002,1,영업/정상,0000,정상,,전라북도 고창군 고창읍 교촌리 501번지,전라북도 고창군 고창읍 중앙로 321,56430.0,한국,2019-03-10 02:40:00.0,126.70784277253746,35.43506670621956
4839,478000001019990001,1,영업/정상,0000,정상,,전라북도 고창군 고창읍 읍내리 964-1번지,전라북도 고창군 고창읍 고인돌대로 1775,56442.0,고창중앙 동물병원,2019-11-06 02:40:00.0,126.68931726366428,35.438455057237206
4840,478000001020010001,1,영업/정상,0000,정상,,전라북도 고창군 고창읍 읍내리 169번지,전라북도 고창군 고창읍 동리로 137,56441.0,고창,2018-08-31 23:59:59.0,126.70442319818406,35.43280723833806
4841,478000001020070001,1,영업/정상,0000,정상,,전라북도 고창군 고창읍 읍내리 1195,전라북도 고창군 고창읍 보릿골로 16,56439.0,모양동물병원,2021-01-15 02:40:00.0,126.69192286869851,35.42676080838456
4842,478000001020070002,1,영업/정상,0000,정상,,전라북도 고창군 흥덕면 신덕리 35-6번지,전라북도 고창군 흥덕면 부안로 423,56411.0,고창부안축협동물병원,2018-08-31 23:59:59.0,126.6931158495384,35.55706917505634
4843,478000001020130001,1,영업/정상,0000,정상,,전라북도 고창군 고창읍 교촌리 233-11번지,전라북도 고창군 고창읍 성산8길 39-10,56433.0,더나은동물병원,2019-03-10 02:40:00.0,126.69663476881844,35.43799559838295
4844,478000001020140001,1,영업/정상,0000,정상,,전라북도 고창군 흥덕면 흥덕리 54-12번지,전라북도 고창군 흥덕면 선운대로 3771,56413.0,한길동물병원,2018-08-31 23:59:59.0,126.70034900170494,35.52163742418336
4845,478000001020140002,1,영업/정상,0000,정상,,전라북도 고창군 고창읍 덕산리 207-3 (유)충만건설,전라북도 고창군 고창읍 중거리당산로 60,56448.0,치산동물병원,2021-06-30 02:40:00.0,126.69269606179266,35.42593348910481
4846,478000001020160001,1,영업/정상,0000,정상,,전라북도 고창군 고창읍 덕산리 256번지 101호,"전라북도 고창군 고창읍 보릿골로 57-10, 101호",56438.0,인우 동물병원,2020-04-23 02:40:00.0,126.6913399568468,35.43066065321707
4847,472000001019860001,1,영업/정상,0000,정상,,전라북도 완주군 봉동읍 장기리 225번지,전라북도 완주군 봉동읍 봉동로 133,55326.0,박동물병원,2019-03-21 02:40:00.0,127.1652377371396,35.936968099824675
4848,472000001020150002,1,영업/정상,0000,정상,,전라북도 완주군 이서면 금평리 산 145-5 국립축산과학원,"전라북도 완주군 이서면 콩쥐팥쥐로 1500, 국립축산과학원",55365.0,국립축산과학원 동물병원,2020-11-18 02:40:00.0,127.06303941698262,35.82469911895818
4849,472000001020150003,1,영업/정상,0000,정상,,전라북도 완주군 이서면 이문리 711-3번지,전라북도 완주군 이서면 콩쥐팥쥐로 1047,55367.0,광희동물병원,2019-01-18 02:40:00.0,127.01159507502429,35.82087007654918
4850,472000001020150004,1,영업/정상,0000,정상,,전라북도 완주군 이서면 상개리 590,전라북도 완주군 이서면 이서로 42,55366.0,이서동물병원,2021-10-31 02:40:00.0,127.0184988942155,35.81985891484839
4851,394000001020030007,1,영업/정상,0000,정상,,경기도 고양시 일산서구 주엽동 110-2번지 가람상가 208호,"경기도 고양시 일산서구 중앙로 1443, 가람상가 208호 (주엽동)",10387.0,반딧불 동물병원,2019-03-10 02:40:00.0,126.7568541861266,37.670411093151145
4852,394000001020110001,1,영업/정상,0000,정상,,경기도 고양시 일산서구 가좌동 308-1번지 마루프라자 나동 102.103호,"경기도 고양시 일산서구 가좌3로 7-1 (가좌동, 마루프라자 나동 102.103호)",10209.0,가좌동물병원,2019-07-11 02:40:00.0,126.71733774820439,37.685317447953516
4853,470000001019890001,1,영업/정상,0000,정상,,전라북도 남원시 동충동 44-7번지 청원동물병원,"전라북도 남원시 용성로 95, 청원동물병원 (동충동)",55760.0,청원동물병원,2020-06-14 02:40:00.0,127.38404763033982,35.40919360492363
4854,470000001020040001,1,영업/정상,0000,정상,,전라북도 남원시 왕정동 67-1번지,전라북도 남원시 남문로 403 (왕정동),55764.0,하나동물종합병원,2020-06-14 02:40:00.0,127.37265521349242,35.40664376915384
4855,470000001020050001,1,영업/정상,0000,정상,,전라북도 남원시 향교동 263-3,전라북도 남원시 붕맛길 99 (향교동),55740.0,남원축협 동물병원,2022-01-09 02:40:00.0,127.38127533155061,35.41648982258736
4856,470000001020060001,1,영업/정상,0000,정상,,전라북도 남원시 금동 278-4번지,전라북도 남원시 의총로 29 (금동),55768.0,지리산동물병원,2020-06-14 02:40:00.0,127.37300316680634,35.403308005007176
4857,470000001020150001,1,영업/정상,0000,정상,,전라북도 남원시 왕정동 218-3번지,전라북도 남원시 의서길 33 (왕정동),55747.0,신성동물약품병원,2019-04-24 02:40:00.0,127.37004292088743,35.41148744357127
4858,470000001020180001,1,영업/정상,0000,정상,,전라북도 남원시 광치동 644-7번지,"전라북도 남원시 밤티재길 14-5, 1층 (광치동)",55724.0,지리산 산업동물병원,2018-08-31 23:59:59.0,127.36909137479161,35.448167162399315
4859,470000001020180002,1,영업/정상,0000,정상,,전라북도 남원시 운봉읍 동천리 488번지 외1필지,"전라북도 남원시 운봉읍 운봉로 700, 1층",55718.0,운봉제일동물병원,2019-03-08 02:40:00.0,127.52916706513355,35.43795816841395
4860,470000001019820001,1,영업/정상,0000,정상,,전라북도 남원시 금동 252-16번지 성림장,"전라북도 남원시 의총로 61, 성림장 (금동)",55768.0,남원제일가축병원,2020-06-14 02:40:00.0,127.37303940502895,35.4058907695653
4861,470000001019860001,1,영업/정상,0000,정상,,전라북도 남원시 운봉읍 동천리 506-1,"전라북도 남원시 운봉읍 운봉로 702, 부산갈매기식당, 운봉가축병원",55718.0,운봉동물병원,2021-01-21 02:40:00.0,127.52911223796117,35.438133122454445
4862,450000001020000001,1,영업/정상,0000,정상,,충청남도 공주시 의당면 유계리 28번지,충청남도 공주시 의당면 의당전의로 463,32517.0,금강동물병원,2020-04-23 02:40:00.0,127.17444463714328,36.5218964631795
4863,450000001020030001,1,영업/정상,0000,정상,,충청남도 공주시 금흥동 35-3번지 현대아파트 404동 102호,충청남도 공주시 장기로 139-4 (금흥동),32567.0,한국동물병원,2018-12-08 02:40:00.0,127.15204004438758,36.482367860756185
4864,452000001020130003,1,영업/정상,0000,정상,,충청남도 아산시 영인면 아산리 83-2번지,충청남도 아산시 영인면 영인로 45,31432.0,수동물병원,2018-08-31 23:59:59.0,126.95394620096215,36.85422010628613
4865,452000001020160002,1,영업/정상,0000,정상,,충청남도 아산시 용화동 1581번지,충청남도 아산시 용화고길79번길 21 (용화동),31578.0,아산동물의료센터,2019-06-30 02:40:00.0,127.00870346166634,36.774426800593595
4866,452000001020160003,1,영업/정상,0000,정상,,충청남도 아산시 둔포면 둔포리 445-7번지,충청남도 아산시 둔포면 충무로 1779,31403.0,수안동물병원(출장진료전문),2019-01-23 02:40:00.0,127.03300755618983,36.933199342742036
4867,452000001020160004,1,영업/정상,0000,정상,,충청남도 아산시 모종동 578번지 8통3반 라이프아파트 103동 309호,"충청남도 아산시 번영로216번길 36, 30호 (모종동, 신정아파트상가 30호)",31521.0,선동물병원(출장진료전문),2019-01-23 02:40:00.0,127.01135561826439,36.78407618591884
4868,452000001020160005,1,영업/정상,0000,정상,,충청남도 아산시 온천동 1353 명종합동물병원,"충청남도 아산시 번영로 83, 명종합동물병원 (온천동)",31508.0,명동물병원,2021-05-29 02:40:00.0,126.99705433553653,36.786917838374684
4869,452000001020180001,1,영업/정상,0000,정상,,충청남도 아산시 모종동 580-3번지 신정아파트상가 20호,"충청남도 아산시 번영로216번길 36, 1층 20호 (모종동, 신정아파트)",31521.0,안 수의과병원,2018-08-31 23:59:59.0,127.01135561826439,36.78407618591884
4870,452000001020130002,1,영업/정상,0000,정상,,충청남도 아산시 배방읍 공수리 151-36번지,충청남도 아산시 배방읍 모산로126번길 6,31484.0,숲속동물병원,2018-08-31 23:59:59.0,127.05445151078442,36.77692869780665
4871,460000001020140001,1,영업/정상,0000,정상,,충청남도 홍성군 홍북면 신경리 895 빌앤더스오피스텔 444호,"충청남도 홍성군 홍북면 충남대로 36, 444호 (빌앤더스오피스텔)",32263.0,동안동물병원,2021-12-10 02:40:00.0,126.67187998914669,36.65594035271097
4872,460000001020150001,1,영업/정상,0000,정상,,충청남도 홍성군 홍성읍 옥암리 36번지,충청남도 홍성군 홍성읍 내포로136번길 10,32248.0,우사랑동물병원,2019-04-28 02:40:00.0,126.6525682807479,36.59583232184364
4873,460000001020150002,1,영업/정상,0000,정상,,충청남도 홍성군 홍성읍 남장리 214-14번지,충청남도 홍성군 홍성읍 충서로 1222-5,32244.0,임만수 동물병원,2018-08-31 23:59:59.0,126.65396564630386,36.58533194491948
4874,460000001020160002,1,영업/정상,0000,정상,,충청남도 홍성군 홍성읍 고암리 948,"충청남도 홍성군 홍성읍 조양로 203, 1, 2층",32220.0,대산 동물병원,2021-11-27 02:40:00.0,126.6694957472901,36.6004208720463
4876,452000001020020002,1,영업/정상,0000,정상,,충청남도 아산시 온천동 80-5번지,충청남도 아산시 온천대로 1525 (온천동),,가나동물병원,2018-08-31 23:59:59.0,127.00524251341714,36.78370495156538
4877,452000001020080001,1,영업/정상,0000,정상,,충청남도 아산시 염치읍 방현리 296-1번지,충청남도 아산시 염치읍 충무로 471-30,31446.0,아산축산업협동조합(동물병원),2018-08-31 23:59:59.0,127.00423552814789,36.82014881078966
4878,452000001020100001,1,영업/정상,0000,정상,,충청남도 아산시 둔포면 둔포리 396-1번지,충청남도 아산시 둔포면 둔포로 33,,중부벳동물병원,2018-08-31 23:59:59.0,127.03651224132274,36.93033543233643
4879,452000001020100002,1,영업/정상,0000,정상,,충청남도 아산시 둔포면 둔포리 445-7번지,충청남도 아산시 둔포면 충무로 1779,31403.0,건국동물병원(출장진료전문),2019-01-23 02:40:00.0,127.03300755618983,36.933199342742036
4880,393000001020160002,1,영업/정상,0000,정상,,경기도 안산시 단원구 초지동 734-6번지 한미타워 110호,"경기도 안산시 단원구 초지2로 67, 한미타워 110호 (초지동)",15448.0,닥터K동물병원,2019-02-16 02:40:00.0,126.81313973329398,37.30655483684231
4881,452000001019830001,1,영업/정상,0000,정상,,충청남도 아산시 둔포면 둔포리 414-14번지 414-14,충청남도 아산시 둔포면 둔포면로  12-8,,이동물병원,2019-03-09 02:40:00.0,127.03537882687003,36.930532414618874
4882,452000001019920001,1,영업/정상,0000,정상,,충청남도 아산시 권곡동 537-10번지,충청남도 아산시 청운로 159 (권곡동),31515.0,김광수동물병원,2019-03-08 02:40:00.0,127.00605053585025,36.78819884587763
4883,452000001020010001,1,영업/정상,0000,정상,,충청남도 아산시 모종동 580-3번지,충청남도 아산시 번영로216번길 36 (모종동),,정강동물병원,2019-03-09 02:40:00.0,127.01135561826439,36.78407618591884
4884,452000001020010002,1,영업/정상,0000,정상,,충청남도 아산시 온천동 1791번지,충청남도 아산시 번영로 133 (온천동),,온양동물병원,2018-08-31 23:59:59.0,127.00271673572529,36.786273145777436
4885,452000001020100003,1,영업/정상,0000,정상,,충청남도 아산시 배방읍 북수리 1213번지,충청남도 아산시 배방읍 북수서로 32,,배방동물병원,2018-08-31 23:59:59.0,127.06770774716743,36.775972983511124
4886,452000001020110001,1,영업/정상,0000,정상,,충청남도 아산시 용화동 575번지,충청남도 아산시 중앙로 10 (용화동),31573.0,주앤동물병원,2019-03-09 02:40:00.0,127.00033811709105,36.778673760012616
4887,452000001020120001,1,영업/정상,0000,정상,,충청남도 아산시 둔포면 둔포리 451-2번지,충청남도 아산시 둔포면 둔포면로17번길 18,31403.0,한원동물병원,2018-08-31 23:59:59.0,127.03371256075829,36.93198058325294
4888,452000001020130001,1,영업/정상,0000,정상,,충청남도 아산시 온천동 1437번지,충청남도 아산시 시민로 467-41 (온천동),31508.0,충무가축병원,2018-08-31 23:59:59.0,126.99406735299988,36.78973405193248
4889,460000001020070001,1,영업/정상,0000,정상,,충청남도 홍성군 홍성읍 월산리 836-3번지,충청남도 홍성군 홍성읍 월산로50번길 3,32226.0,내포동물병원,2019-04-27 02:40:00.0,126.64433727705044,36.59854338021404
4890,460000001020110001,1,영업/정상,0000,정상,,충청남도 홍성군 홍성읍 옥암리 8-5,충청남도 홍성군 홍성읍 문화로57번길 19,,(주)돼지와건강,2021-01-19 02:40:00.0,126.65538599941746,36.594224891520504
4891,458000001019920001,1,영업/정상,0000,정상,,충청남도 서천군 서천읍 군사리 179-22번지 서천가축병원,"충청남도 서천군 서천읍 서천로14번길 25, 서천가축병원",33645.0,서천가축병원,2019-04-07 02:40:00.0,126.6943226037877,36.07618076132824
4892,458000001019930001,1,영업/정상,0000,정상,,충청남도 서천군 서천읍 군사리 862-10번지 서해동물병원,"충청남도 서천군 서천읍 충절로49번길 26, 서해동물병원",33642.0,서해동물병원,2019-04-07 02:40:00.0,126.68610225910079,36.07628012488359
4893,458000001020070001,1,영업/정상,0000,정상,,충청남도 서천군 한산면 지현리 243-2번지,충청남도 서천군 한산면 한마로 65,33624.0,최가축병원,2019-04-07 02:40:00.0,126.80016996579852,36.08609992674799
4894,458000001020140001,1,영업/정상,0000,정상,,충청남도 서천군 마서면 송내리 755,충청남도 서천군 마서면 금강로 1210,33657.0,국립생태원동물병원,2020-09-02 02:40:00.0,126.72103867895733,36.029311675919146
4895,457000001020170001,1,영업/정상,0000,정상,,충청남도 부여군 규암면 외리 217-16번지,"충청남도 부여군 규암면 계백로 10, 3층",33124.0,초원동물병원,2019-04-27 02:40:00.0,126.87857911489728,36.274152737846286
4896,457000001019800001,1,영업/정상,0000,정상,,충청남도 부여군 부여읍 구아리 141-3번지 3통,충청남도 부여군 부여읍 성왕로 202,33145.0,금강동물병원,2019-04-27 02:40:00.0,126.907226688696,36.28254171675336
4897,457000001019800002,1,영업/정상,0000,정상,,충청남도 부여군 은산면 신대리 393-3번지 3통,충청남도 부여군 은산면 충의로 666-1,33113.0,서울동물병원,2019-04-27 02:40:00.0,126.8501408571278,36.30831361782387
4898,457000001019800003,1,영업/정상,0000,정상,,충청남도 부여군 부여읍 구아리 82-2번지,"충청남도 부여군 부여읍 나성로 108, 1동 1층",33139.0,부여동물병원,2019-04-27 02:40:00.0,126.90624750837216,36.28407352082364
4899,457000001019900001,1,영업/정상,0000,정상,,충청남도 부여군 부여읍 구아리 407-2번지 3통,충청남도 부여군 부여읍 성왕로 182,33144.0,백동물병원,2019-04-27 02:40:00.0,126.90577891872461,36.28100670100109
4900,457000001019950001,1,영업/정상,0000,정상,,충청남도 부여군 부여읍 구아리 141-5번지,충청남도 부여군 부여읍 성왕로 202-3,33145.0,녹십자동물병원,2019-05-03 02:40:00.0,126.90716308179606,36.28243521496885
4901,457000001020010001,1,영업/정상,0000,정상,,충청남도 부여군 부여읍 동남리 546-6번지,충청남도 부여군 부여읍 부장대로 4,33153.0,한라동물병원,2019-04-27 02:40:00.0,126.90279210882916,36.276367107051094
4902,457000001020080001,1,영업/정상,0000,정상,,충청남도 부여군 부여읍 구아리 391,충청남도 부여군 부여읍 성왕로 190-1,33145.0,남부여동물병원,2021-09-08 02:40:00.0,126.90640712430876,36.28162219233272
4903,457000001020110001,1,영업/정상,0000,정상,,충청남도 부여군 임천면 군사리 98번지,충청남도 부여군 임천면 성흥로 103,33219.0,임천동물병원,2019-04-27 02:40:00.0,126.88980461200947,36.18935577463283
4904,457000001020120001,1,영업/정상,0000,정상,,충청남도 부여군 규암면 규암리 117-5번지 금강타운 102호,충청남도 부여군 규암면 계백로 76,33124.0,심동물병원,2018-08-31 23:59:59.0,126.88531999054494,36.27569924187374
4905,455000001019720001,1,영업/정상,0000,정상,,충청남도 금산군 금산읍 중도리 337-3번지 6통5반,충청남도 금산군 금산읍 인삼로 89 (노아동물병원),32738.0,노아동물병원,2019-03-08 02:40:00.0,127.48867701227017,36.102908383829934
4906,455000001019940001,1,영업/정상,0000,정상,,충청남도 금산군 금산읍 상리 176-25번지 19통4반,충청남도 금산군 금산읍 오리정1길 45,32737.0,우신동물병원,2019-03-08 02:40:00.0,127.48515438157253,36.10492721042435
4907,455000001020060001,1,영업/정상,0000,정상,,충청남도 금산군 금산읍 상리 127-4번지,충청남도 금산군 금산읍 금산로 1444,32740.0,가믄장 동물병원,2019-03-08 02:40:00.0,127.48569192724736,36.10263873264468
4908,463000001019960003,1,영업/정상,0000,정상,,충청남도 당진시 읍내동 1252-1,충청남도 당진시 무수동로 109 (읍내동),,푸른가축병원,2021-06-23 02:40:00.0,126.6339324845195,36.8903270790226
4909,463000001019980001,1,영업/정상,0000,정상,,충청남도 당진시 신평면 상오리 418-9,"충청남도 당진시 신평면 덕평로 1273, 1층 104호",31747.0,종합동물병원,2020-11-07 02:40:00.0,126.75162735061691,36.86902366640009
4910,463000001019990001,1,영업/정상,0000,정상,,충청남도 당진시 합덕읍 소소리 513-20번지,충청남도 당진시 합덕읍 남부로 1377,31809.0,당진낙협동물병원,2019-11-06 02:40:00.0,126.72888038694799,36.830068505703466
4911,463000001020000001,1,영업/정상,0000,정상,,충청남도 당진시 읍내동 531-11번지,충청남도 당진시 당진중앙3로 89 (읍내동),31777.0,건국동물병원,2018-08-31 23:59:59.0,126.6270772815703,36.89306209085405
4912,463000001019750001,1,영업/정상,0000,정상,,충청남도 당진시 읍내동 626-9번지 10통,충청남도 당진시 당진중앙2로 17-5 (읍내동),31769.0,정가축병원,2018-08-31 23:59:59.0,126.62355668666704,36.891917378096245
4913,463000001019790001,1,영업/정상,0000,정상,,충청남도 당진시 합덕읍 운산리 263-1번지 2통,충청남도 당진시 합덕읍 합덕시장로 188,31812.0,백제 가축병원,2018-08-31 23:59:59.0,126.77163708211407,36.80873162813268
4914,463000001019950001,1,영업/정상,0000,정상,,충청남도 당진시 읍내동 1317번지,충청남도 당진시 무수동로 77 (읍내동),31776.0,백 동물병원,2018-08-31 23:59:59.0,126.63396323046788,36.888911283910694
4915,463000001019950002,1,영업/정상,0000,정상,,충청남도 당진시 채운동 310-3번지,충청남도 당진시 운학길 26 (채운동),,충남 동물병원,2018-09-13 23:59:59.0,126.62115389867526,36.89360250270878
4916,463000001019960001,1,영업/정상,0000,정상,,충청남도 당진시 합덕읍 운산리 358-2번지 충청동물병원,"충청남도 당진시 합덕읍 운산로 103, 충청동물병원",31811.0,충청동물병원,2018-09-13 23:59:59.0,126.76461927862898,36.80501803116187
4917,463000001019960002,1,영업/정상,0000,정상,,충청남도 당진시 신평면 거산리 161-4번지 거산동물병원,충청남도 당진시 신평면 거산3거리길 4 (거산동물병원),31748.0,거산동물병원,2018-08-31 23:59:59.0,126.74986933274738,36.87857758798619
4918,568000001020150001,1,영업/정상,0000,정상,,충청남도 당진시 면천면 성상리 783-5번지,충청남도 당진시 면천면 동문1길 15-4,31804.0,참 좋은 동물병원,2018-08-31 23:59:59.0,126.66601108665577,36.81744713325622
4919,463000001020090001,1,영업/정상,0000,정상,,충청남도 당진시 대덕동 1652,충청남도 당진시 무수동로 36 (대덕동),,당진종합 동물병원,2020-11-07 02:40:00.0,126.63447610939376,36.88698653484573
4920,463000001020100001,1,영업/정상,0000,정상,,충청남도 당진시 읍내동 300-1번지,"충청남도 당진시 계성3길 6 (읍내동, 행담동물병원)",31770.0,행담 동물병원,2018-08-31 23:59:59.0,126.63239508135909,36.898252001174434
4921,463000001020110001,1,영업/정상,0000,정상,,충청남도 당진시 순성면 봉소리 606-15 가동,"충청남도 당진시 순성면 순성로 419, 가동",31757.0,한울 AHC동물병원,2020-11-12 02:40:00.0,126.70233246662136,36.843232263984866
4922,568000001020120001,1,영업/정상,0000,정상,,충청남도 당진시 읍내동 산 66-2번지,"충청남도 당진시 무수동7길 42, 축협배합사료공장 (읍내동)",31774.0,당진축협동물병원,2020-04-19 02:40:00.0,126.63862836191974,36.88918815344707
4923,568000001020120002,1,영업/정상,0000,정상,,충청남도 당진시 우두동 1436번지,충청남도 당진시 우두로1길 2 (우두동),31768.0,현대동물병원,2019-04-27 02:40:00.0,126.62964829222109,36.90094484145142
4924,568000001020130001,1,영업/정상,0000,정상,,충청남도 당진시 수청동 999번지 로뎀타워 104동,"충청남도 당진시 당진중앙2로 447 (수청동, 로뎀타워 104동)",31771.0,센트럴동물병원,2019-08-28 02:40:00.0,126.64413586776254,36.90073198782718
4925,568000001020140001,1,영업/정상,0000,정상,,충청남도 당진시 대덕동 1841번지,"충청남도 당진시 대덕1로 125-84 (대덕동, 카이저)",31778.0,제일팜산업동물병원,2019-08-16 02:40:00.0,126.64369364562174,36.884512205342325
4926,568000001020140002,1,영업/정상,0000,정상,,충청남도 당진시 합덕읍 소소리 465-1,충청남도 당진시 합덕읍 남부로 1409,31809.0,우리동물병원,2021-07-11 02:40:00.0,126.7302779161143,36.826987261000625
4927,568000001020180001,1,영업/정상,0000,정상,,충청남도 당진시 합덕읍 운산리 268-95,충청남도 당진시 합덕읍 중동길 32,31812.0,강한 우리동물병원,2021-10-27 02:40:00.0,126.76933593606199,36.80746065818396
4928,460000001019850001,1,영업/정상,0000,정상,,충청남도 홍성군 광천읍 신진리 522,충청남도 홍성군 광천읍 홍남로606번길 2,32296.0,김수의과동물병원,2021-11-24 02:40:00.0,126.6150199166104,36.504024283793214
4929,460000001019910003,1,영업/정상,0000,정상,,충청남도 홍성군 홍성읍 대교리 391-15번지,충청남도 홍성군 홍성읍 의사로43번길 7-5,32221.0,홍성종합동물병원,2019-04-27 02:40:00.0,126.66741050875041,36.60121870811789
4930,460000001019950001,1,영업/정상,0000,정상,,충청남도 홍성군 홍성읍 고암리 548-4번지,충청남도 홍성군 홍성읍 조양로 196,,세종동물병원,2019-04-27 02:40:00.0,126.66835067778483,36.60025608778009
4931,460000001019980001,1,영업/정상,0000,정상,,충청남도 홍성군 홍성읍 대교리 91-10번지,충청남도 홍성군 홍성읍 의사로64번길 32,,홍성낙협동물병원,2020-02-14 02:40:00.0,126.66880184769067,36.601160899102254
4932,558000001020090001,1,영업/정상,0000,정상,,충청남도 계룡시 엄사면 엄사리 184-4 지하 1층,"충청남도 계룡시 엄사면 엄사중앙로 93, 지하 1층",32805.0,충남동물병원,2021-12-24 02:40:00.0,127.23873553265221,36.28907858446582
4933,453000001020010001,1,영업/정상,0000,정상,,충청남도 서산시 동문동 1012-24,충청남도 서산시 안견로 247-1 (동문동),31991.0,신화,2020-12-13 02:40:00.0,126.4531823391808,36.77762809211029
4934,453000001020030001,1,영업/정상,0000,정상,,충청남도 서산시 읍내동 587-3,충청남도 서산시 부춘1로 47 (읍내동),31972.0,홍성낙협서산지점,2021-09-19 02:40:00.0,126.44243803971723,36.78587276708139
4935,453000001020050001,1,영업/정상,0000,정상,,충청남도 서산시 잠홍동 558-8번지,충청남도 서산시 고운로 329 (잠홍동),31966.0,정 동물병원,2019-03-08 02:40:00.0,126.46794518367103,36.78650168873323
4936,453000001020110001,1,영업/정상,0000,정상,,충청남도 서산시 동문동 987-13,충청남도 서산시 안견로 256 (동문동),31983.0,로얄동물병원,2021-01-21 02:40:00.0,126.45220830661252,36.77786433497275
4937,453000001020120001,1,영업/정상,0000,정상,,충청남도 서산시 예천동 1300-7,충청남도 서산시 호수공원12로 13 (예천동),31996.0,답21동물병원,2021-01-21 02:40:00.0,126.44497841141593,36.77209289443524
4938,453000001020120002,1,영업/정상,0000,정상,,충청남도 서산시 죽성동 74-1번지 죽성동 삼성아파트,"충청남도 서산시 남부순환로 767 (죽성동, 죽성동 삼성아파트)",32007.0,김도균동물병원,2019-03-08 02:40:00.0,126.44445783455771,36.745982865763956
4939,453000001020130001,1,영업/정상,0000,정상,,충청남도 서산시 동문동 225-1,충청남도 서산시 율지6로 42 (동문동),31993.0,한서동물의료센터,2020-12-12 02:40:00.0,126.46012552210394,36.77903333395834
4940,453000001020140001,1,영업/정상,0000,정상,,충청남도 서산시 읍내동 71-13 서원빌딩,"충청남도 서산시 안견로 312, 서원빌딩 (읍내동)",31984.0,성심동물의료센터,2021-01-21 02:40:00.0,126.44604146720505,36.77750579435888
4941,453000001020160001,1,영업/정상,0000,정상,,충청남도 서산시 대산읍 대산리 149-5번지,충청남도 서산시 대산읍 구진로 4,31909.0,대산동물병원,2019-03-08 02:40:00.0,126.43318134054141,36.935889388398394
4942,453000001020170001,1,영업/정상,0000,정상,,충청남도 서산시 동문동 1024-6,충청남도 서산시 안견로 235 (동문동),31991.0,서산동물병원,2020-12-17 02:40:00.0,126.45458190867006,36.77788355445159
4943,450000001020030012,1,영업/정상,0000,정상,,충청남도 공주시 우성면 동대리 145-6 145-6,충청남도 공주시 우성면 동대리길 78,32531.0,우성농협,2022-01-30 02:40:00.0,127.04922213649382,36.46944541845043
4944,450000001020030016,1,영업/정상,0000,정상,,충청남도 공주시 신관동 642-1번지,충청남도 공주시 번영1로 54 (신관동),32583.0,강북종합,2019-03-08 02:40:00.0,127.13140899802704,36.47237326057706
4945,451000001019860001,1,영업/정상,0000,정상,,충청남도 보령시 대천동 346-4번지,충청남도 보령시 대흥로 77 (대천동),33449.0,차동물병원,2020-06-09 02:40:00.0,126.58845623404589,36.35395648624336
4946,451000001019910001,1,영업/정상,0000,정상,,충청남도 보령시 대천동 434-6번지,충청남도 보령시 중앙로 105 (대천동),33455.0,김동물병원,2019-01-18 02:40:00.0,126.59035578062459,36.35429473431355
4947,451000001019910002,1,영업/정상,0000,정상,,충청남도 보령시 천북면 하만리 628-4,충청남도 보령시 천북면 홍보로 417-1,33402.0,충남동물병원,2020-11-05 02:40:00.0,126.52225505829847,36.47458114113436
4948,451000001019990001,1,영업/정상,0000,정상,,충청남도 보령시 대천동 435-20번지,충청남도 보령시 번영로 30 (대천동),33455.0,제일동물병원,2019-04-04 02:40:00.0,126.5906996356388,36.354204042387636
4949,450000001020140001,1,영업/정상,0000,정상,,충청남도 공주시 사곡면 호계리 300-1,충청남도 공주시 사곡면 마곡사로 106,32523.0,한우사랑동물병원,2020-10-21 02:40:00.0,127.02287917218044,36.50248579315617
4950,450000001020150001,1,영업/정상,0000,정상,,충청남도 공주시 금성동 19-29번지,충청남도 공주시 웅진로 235 (금성동),32538.0,중앙동물병원,2018-08-31 23:59:59.0,127.12102719406045,36.46085308807495
4951,450000001020150002,1,영업/정상,0000,정상,,충청남도 공주시 우성면 상서리 704번지,충청남도 공주시 우성면 우성길 162,32530.0,한울메디벳,2019-07-10 02:40:00.0,127.07594709918665,36.47733866800767
4952,450000001020150003,1,영업/정상,0000,정상,,충청남도 공주시 정안면 내촌리 146-1번지,충청남도 공주시 정안면 보물길 7-12,32512.0,태성동물병원,2019-04-27 02:40:00.0,127.11340432401798,36.592827767413176
4953,450000001020160001,1,영업/정상,0000,정상,,충청남도 공주시 신관동 256-6,충청남도 공주시 관골1길 63 (신관동),32575.0,금비동물병원,2021-05-14 02:40:00.0,127.1325393474813,36.473855755059965
4954,453000001019890001,1,영업/정상,0000,정상,,충청남도 서산시 동문동 293-11,충청남도 서산시 안견로 203 (동문동),31992.0,김신환동물병원,2020-12-11 02:40:00.0,126.45665734524202,36.78006639829301
4955,453000001019900001,1,영업/정상,0000,정상,,충청남도 서산시 동문동 309-3 서산공용버스터미널,"충청남도 서산시 안견로 190, 서산공용버스터미널 (동문동)",31981.0,여한경,2020-12-10 02:40:00.0,126.4557334311586,36.78158686547264
4956,453000001019950001,1,영업/정상,0000,정상,,충청남도 서산시 동문동 269-6 전망빌딩,"충청남도 서산시 안견로 231, 전망빌딩 (동문동)",31991.0,우리,2020-12-16 02:40:00.0,126.45501406233129,36.77803602445799
4957,453000001019960001,1,영업/정상,0000,정상,,충청남도 서산시 동문동 995-15,충청남도 서산시 안견로 263 (동문동),31991.0,고려동물병원,2021-10-02 02:40:00.0,126.45160116926547,36.777316404288406
4958,453000001019970001,1,영업/정상,0000,정상,,충청남도 서산시 해미면 읍내리 291-9,충청남도 서산시 해미면 남문6로 3,31960.0,해미성,2021-10-02 02:40:00.0,126.54067086148153,36.71381777792399
4959,453000001019990001,1,영업/정상,0000,정상,,충청남도 서산시 운산면 용현리 982 농협중앙회가축개량사업소별관,"충청남도 서산시 운산면 해운로 666, 농협중앙회가축개량사업소별관",31948.0,농협 한우개량사업소 가축병원,2022-01-23 02:40:00.0,126.5617791729018,36.7662821307686
4960,558000001020030001,1,영업/정상,0000,정상,,충청남도 계룡시 엄사면 엄사리 243-1번지,"충청남도 계룡시 엄사면 번영로 56, 1층",32806.0,노아동물병원,2019-03-08 02:40:00.0,127.23621362065941,36.28909678917434
4961,558000001020040001,1,영업/정상,0000,정상,,충청남도 계룡시 엄사면 엄사리 171-8 171-8,충청남도 계룡시 엄사면 전원로 8,32803.0,신도안동물병원,2020-09-27 02:40:00.0,127.2389680687677,36.29043378798841
4962,450000001020030004,1,영업/정상,0000,정상,,충청남도 공주시 금성동 184-7 184-7,충청남도 공주시 왕릉로 141-1 (금성동),32537.0,공주동물병원,2020-09-30 02:40:00.0,127.11970938997565,36.46441868815994
4963,450000001020030006,1,영업/정상,0000,정상,,충청남도 공주시 중학동 91-2번지 91-2,충청남도 공주시  웅진로  98-3 (중학동),,충남,2019-03-08 02:40:00.0,127.12091984209877,36.44915642472299
4964,450000001020030007,1,영업/정상,0000,정상,,충청남도 공주시 산성동 174-39 3통5반,충청남도 공주시 웅진로 209 (산성동),32539.0,대관령,2021-02-03 02:40:00.0,127.1217935518391,36.45916178784064
4965,450000001020030008,1,영업/정상,0000,정상,,충청남도 공주시 반죽동 194-3 2통2반,충청남도 공주시 감영길 7 (반죽동),32546.0,이기영,2021-07-03 02:40:00.0,127.119176441975,36.45289006250574
4966,450000001020030009,1,영업/정상,0000,정상,,충청남도 공주시 신관동 197번지 3통4반 새뜸현대아파트 402동 2204호,충청남도 공주시 공주대학로 23-44 (신관동),32587.0,신동,2019-03-08 02:40:00.0,127.13284751405526,36.46852186286458
4967,460000001019980002,1,영업/정상,0000,정상,,충청남도 홍성군 광천읍 신진리 423-7번지,충청남도 홍성군 광천읍 홍남로 664,,신흥동물병원,2018-08-31 23:59:59.0,126.62165719826768,36.50311564864762
4968,460000001020000002,1,영업/정상,0000,정상,,충청남도 홍성군 광천읍 광천리 237-36번지,충청남도 홍성군 광천읍 광천로 295,,임창일동물병원,2019-04-27 02:40:00.0,126.62285874795282,36.500515710571165
4969,460000001020000003,1,영업/정상,0000,정상,,충청남도 홍성군 홍성읍 오관리 285번지,충청남도 홍성군 홍성읍 조양로 141,,충남동물병원,2019-04-27 02:40:00.0,126.66276717614465,36.601871160428075
4970,450000001020130003,1,영업/정상,0000,정상,,충청남도 공주시 신관동 601-8번지,충청남도 공주시 번영1로 42 (신관동),32584.0,세종공주축협동물병원,2019-04-27 02:40:00.0,127.13070696991508,36.47142978480554
4971,451000001020100001,1,영업/정상,0000,정상,,충청남도 보령시 동대동 1701번지,충청남도 보령시 한내로 21 (동대동),33434.0,보령동물병원,2019-06-30 02:40:00.0,126.60351340583945,36.34754348647396
4972,451000001020120001,1,영업/정상,0000,정상,,충청남도 보령시 천북면 하만리 271-2번지,충청남도 보령시 천북면 하궁길 13,33402.0,홍성낙농협동조합 천북동물병원,2020-04-05 02:40:00.0,126.52472402156141,36.481157665823396
4973,451000001020130001,1,영업/정상,0000,정상,,충청남도 보령시 궁촌동 349-4번지,충청남도 보령시 남대천로 123 (궁촌동),33459.0,바른동물병원,2019-06-20 02:40:00.0,126.589060569311,36.345928972222396
4974,451000001020160001,1,영업/정상,0000,정상,,충청남도 보령시 동대동 1354,충청남도 보령시 동현로 12 (동대동),33435.0,훈 동물병원,2020-12-31 02:40:00.0,126.6067404782639,36.35438011807249
4975,454000001020030002,1,영업/정상,0000,정상,,충청남도 논산시 취암동 1040-16번지,충청남도 논산시 계백로 1006-3 (취암동),32974.0,캐비어동물병원,2018-08-31 23:59:59.0,127.08593092303671,36.20340568372368
4976,454000001020030003,1,영업/정상,0000,정상,,충청남도 논산시 취암동 1051-1번지,충청남도 논산시 중앙로398번길 2 (취암동),,호크종합동물병원,2018-08-31 23:59:59.0,127.08660975519247,36.199775605188265
4977,454000001020020001,1,영업/정상,0000,정상,,충청남도 논산시 연무읍 동산리 25-4,충청남도 논산시 연무읍 득안대로 467,33013.0,피그헬스동물병원,2020-09-24 02:40:00.0,127.12612475662317,36.12507227206855
4978,454000001020150001,1,영업/정상,0000,정상,,충청남도 논산시 부적면 마구평리 468-5번지,충청남도 논산시 부적면 마구평1길 6,32914.0,봉 동물병원,2019-01-17 02:40:00.0,127.12402266464441,36.21503482085799
4979,454000001020160001,1,영업/정상,0000,정상,,충청남도 논산시 취암동 581-7번지,충청남도 논산시 시민로 417 (취암동),32954.0,데일리동물병원,2019-01-17 02:40:00.0,127.08339835274498,36.20153049994342
4980,454000001020170001,1,영업/정상,0000,정상,,충청남도 논산시 내동 931번지,충청남도 논산시 시민로194번길 1 (내동),32989.0,논산계룡축협 동물병원,2019-01-17 02:40:00.0,127.09604271139568,36.18494590232239
4981,454000001020180001,1,영업/정상,0000,정상,,충청남도 논산시 벌곡면 검천리 337-3번지,충청남도 논산시 벌곡면 검천길 272,33026.0,비글구조네트워크 동물메디컬센터,2019-04-27 02:40:00.0,127.26581338994741,36.17374563922432
4982,449000001020040007,1,영업/정상,0000,정상,,충청남도 천안시 서북구 두정동 698번지,충청남도 천안시 서북구 두정로 146 (두정동),31090.0,해맑은동물병원,2018-08-31 23:59:59.0,127.13017145272704,36.833565235407626
4983,449000001020040008,1,영업/정상,0000,정상,,충청남도 천안시 서북구 성정동 1485번지 롯데마트 2층,"충청남도 천안시 서북구 성정두정로 1, 2층 (성정동, 롯데마트)",31109.0,펫가든동물병원,2018-08-31 23:59:59.0,127.13777792130976,36.82650437407265
4984,449000001020050001,1,영업/정상,0000,정상,,충청남도 천안시 서북구 백석동 872 대건플라자 108호,"충청남도 천안시 서북구 백석3로 134, 108호 (백석동,대건플라자)",,백석동물병원,2020-08-30 02:40:00.0,127.12212137991482,36.822059473070496
4985,449000001020050002,1,영업/정상,0000,정상,,충청남도 천안시 서북구 쌍용동 1176-1,"충청남도 천안시 서북구 쌍용대로 43 (쌍용동, 진주빌딩)",31155.0,굿모닝24시동물병원,2021-07-18 02:40:00.0,127.12845211602024,36.801277941155995
4986,449000001020060001,1,영업/정상,0000,정상,,충청남도 천안시 동남구 병천면 병천리 230-1번지 1통,충청남도 천안시 동남구 병천면 아우내순대길 16,31254.0,병천동물병원,2018-08-31 23:59:59.0,127.29476893826515,36.759113456718715
4987,461000001020110002,1,영업/정상,0000,정상,,충청남도 예산군 예산읍 주교리 225-9번지,충청남도 예산군 예산읍 역전로 70,,한일동물병원,2018-08-31 23:59:59.0,126.82668431456759,36.68549659747531
4988,450000001020170001,1,영업/정상,0000,정상,,충청남도 공주시 송선동 50-8,충청남도 공주시 장척로 76 (송선동),32590.0,세종팜스,2021-02-21 02:40:00.0,127.1715224146271,36.48529864214776
4989,450000001020070001,1,영업/정상,0000,정상,,충청남도 공주시 신관동 534-2번지 449-74,충청남도 공주시 신덕마을길 5 (신관동),32529.0,천안공주낙농농협동물병원,2018-08-31 23:59:59.0,127.11801057945046,36.47534749850097
4990,450000001020110001,1,영업/정상,0000,정상,,충청남도 공주시 금성동 19-29번지,충청남도 공주시 웅진로 235 (금성동),32538.0,중앙가축병원,2018-08-31 23:59:59.0,127.12102719406045,36.46085308807495
4991,460000001020010001,1,영업/정상,0000,정상,,충청남도 홍성군 홍성읍 대교리 731번지,충청남도 홍성군 홍성읍 의사로36번길 51,,한길동물병원,2018-08-31 23:59:59.0,126.67341078262538,36.60228056060073
4992,460000001020030001,1,영업/정상,0000,정상,,충청남도 홍성군 홍성읍 월산리 859-8번지 203호,"충청남도 홍성군 홍성읍 법원1길 12, 203호",,신베트,2019-04-27 02:40:00.0,126.64878215352411,36.600155354912665
4994,460000001020040002,1,영업/정상,0000,정상,,충청남도 홍성군 홍성읍 고암리 536-1번지,충청남도 홍성군 홍성읍 조양로 190,32231.0,강남동물병원,2019-04-27 02:40:00.0,126.66766974160795,36.600367408947406
4995,460000001020050001,1,영업/정상,0000,정상,,충청남도 홍성군 홍성읍 월산리 277-12번지,충청남도 홍성군 홍성읍 구항길 389,32250.0,홍성축협 동물병원,2018-08-31 23:59:59.0,126.63574897344964,36.58864418691954
4996,460000001020060001,1,영업/정상,0000,정상,,충청남도 홍성군 홍성읍 오관리 297-29번지,충청남도 홍성군 홍성읍 조양로151번길 25,32222.0,강영석동물병원,2019-04-27 02:40:00.0,126.66399117470722,36.60262534456294
4997,449000001020080001,1,영업/정상,0000,정상,,충청남도 천안시 서북구 성정동 1230번지,충청남도 천안시 서북구 성정중4길 3 (성정동),,페트로 동물병원,2018-08-31 23:59:59.0,127.13062005136439,36.82773251466781
4998,450000001020170002,1,영업/정상,0000,정상,,충청남도 공주시 유구읍 석남리 275-10번지,충청남도 공주시 유구읍 중앙1길 88,32506.0,뿌리동물병원,2019-03-08 02:40:00.0,126.94826674260169,36.55244465975474
4999,454000001019830001,1,영업/정상,0000,정상,,충청남도 논산시 대교동 112-1번지 2통,충청남도 논산시 중앙로 504 (대교동),32948.0,논산동물병원,2018-08-31 23:59:59.0,127.07974830385454,36.20759291284364
5000,454000001019870001,1,영업/정상,0000,정상,,충청남도 논산시 반월동 41-8번지 1통,충청남도 논산시 중앙로480번길 42 (반월동),32968.0,중앙동물병원,2019-01-17 02:40:00.0,127.0851566620541,36.206156891740164
5001,454000001019880001,1,영업/정상,0000,정상,,충청남도 논산시 강경읍 염천리 81번지,충청남도 논산시 강경읍 옥녀봉로19번길 38-1,32937.0,서동물병원,2018-08-31 23:59:59.0,127.01186828765132,36.158858580538066
5002,454000001019950001,1,영업/정상,0000,정상,,충청남도 논산시 연무읍 안심리 1-155번지,충청남도 논산시 연무읍 안심로127번길 11-2,33008.0,가나동물병원,2019-01-17 02:40:00.0,127.09619602828694,36.13069742762886
5003,454000001020040003,1,영업/정상,0000,정상,,충청남도 논산시 벌곡면 한삼천리 264-4번지,충청남도 논산시 벌곡면 대둔로 825-6,33026.0,연산동물병원,2019-04-28 02:40:00.0,127.2638807099509,36.207780693210516
5004,454000001020050002,1,영업/정상,0000,정상,,충청남도 논산시 부적면 덕평리 35-3,충청남도 논산시 부적면 백일헌로 25,32914.0,충남동물병원,2020-07-17 02:40:00.0,127.14123537294147,36.21489804289521
5005,454000001020080001,1,영업/정상,0000,정상,,충청남도 논산시 연무읍 안심리 289번지 8통,충청남도 논산시 연무읍 안심로 200-1,33009.0,금강축산가축병원,2019-01-17 02:40:00.0,127.08630044911781,36.13117782894174
5006,454000001020080002,1,영업/정상,0000,정상,,충청남도 논산시 내동 931번지,충청남도 논산시 시민로194번길 1 (내동),,논산계룡축협 동물병원,2018-08-31 23:59:59.0,127.09604271139568,36.18494590232239
5007,454000001020130001,1,영업/정상,0000,정상,,충청남도 논산시 취암동 1039-11번지,충청남도 논산시 관촉로 288 (취암동),32973.0,유명동물병원,2018-08-31 23:59:59.0,127.08785394900578,36.204480759440784
5008,454000001020130002,1,영업/정상,0000,정상,,충청남도 논산시 성동면 정지리 367-11,충청남도 논산시 성동면 원봉길 7,,우리생명과학동물병원,2020-07-17 02:40:00.0,127.05163111819982,36.21043199563793
5009,566000001020130001,1,영업/정상,0000,정상,,충청남도 천안시 서북구 두정동 544번지 두정빌딩 102호,"충청남도 천안시 서북구 두정로 114, 102호 (두정동, 두정빌딩)",31090.0,한빛동물병원,2018-08-31 23:59:59.0,127.12651277761512,36.8337128282137
5010,566000001020130003,1,영업/정상,0000,정상,,충청남도 천안시 서북구 불당동 1492번지 천안불당파크푸르지오 1단지 상가1동 204호,"충청남도 천안시 서북구 불당26로 144, 상가1동 204호 (불당동, 천안불당파크푸르지오 1단지)",31156.0,닥터 전 동물병원,2018-09-17 23:59:59.0,127.10561690259341,36.821000436276385
5011,566000001020130005,1,영업/정상,0000,정상,,충청남도 천안시 서북구 쌍용동 1059번지,충청남도 천안시 서북구 서부대로 408 (쌍용동),31155.0,엔젤동물병원,2018-12-07 02:40:00.0,127.12493038403774,36.80362239693028
