번호,MANAGEMENT_NUMBER,영업상태구분코드,영업상태명,상세영업상태코드,상세영업상태명,SUB_ZIPCODE,SUB_ADDRESS,PHONE_NUMBER,ADDRESS,ZIP_CODE,NAME,데이터갱신일자,LONGITUDE,LATITUDE
1,300000001020010002,1,영업/정상,0,정상,,서울특별시 종로구 창신동 80-1 ,02-744-9098,서울특별시 종로구 지봉로 53-1 (창신동),,해동물병원,2020-11-17,127.01551103760288,37.57490213000532
3,300000001020060001,1,영업/정상,0,정상,,서울특별시 종로구 홍지동 126-8번지 ,3917502,서울특별시 종로구 자하문로 305 (홍지동),,올리브동물병원,2018-08-31,126.95898224906556,37.599280674027014
4,300000001020080001,1,영업/정상,0,정상,,서울특별시 종로구 숭인동 52-8번지 ,3676-1190,서울특별시 종로구 지봉로 96-3 (숭인동),,우리동물병원,2018-08-31,127.01564428385373,37.578706410794794
5,300000001020090001,1,영업/정상,0,정상,,서울특별시 종로구 내자동 125-3번지 ,02-735-7530,서울특별시 종로구 사직로12길 2 (내자동),,누리봄동물병원,2018-08-31,126.97106456862981,37.575792977107234
6,300000001020160001,1,영업/정상,0,정상,,서울특별시 종로구 통인동 147-7 씨에스코즈빌 ,722-8275,"서울특별시 종로구 자하문로 35-3, 씨에스코즈빌 101호 (통인동)",3040.0,광화문동물병원,2020-08-02,126.97116343328463,37.579042555681774
7,300000001020170001,1,영업/정상,0,정상,,서울특별시 종로구 홍파동 42-13 경희궁자이 2단지 상가동 2229호,,"서울특별시 종로구 송월길 99, 상가동 2층 2229호 (홍파동, 경희궁자이 2단지)",3165.0,경희궁 바른 동물병원,2021-04-10,126.96355917764018,37.571316627899954
8,300000001019950002,1,영업/정상,0,정상,,서울특별시 종로구 명륜2가 5-99번지 1통3반 방산빌라 402호,3672-8441,서울특별시 종로구 창경궁로 261 (명륜2가),3075.0,대학로동물병원,2019-05-01,127.00018968649835,37.58464795762958
9,300000001019990001,1,영업/정상,0,정상,,서울특별시 종로구 신영동 1-11 ,379-7575,서울특별시 종로구 진흥로 477-1 (신영동),3007.0,월드펫동물병원,2021-05-06,126.96081567387606,37.606057892251634
10,300000001020200001,1,영업/정상,0,정상,,서울특별시 종로구 신교동 70-10번지 ,02-733-6030,"서울특별시 종로구 자하문로 95, 신교빌딩 1층 (신교동)",3032.0,선동물병원,2020-05-19,126.96998032810143,37.58445029776568
23,300000001020020001,1,영업/정상,0,정상,,서울특별시 종로구 홍지동 127-7번지 5통5반 지층 3호,391-4575,서울특별시 종로구 자하문로 293 (홍지동),3021.0,북악동물병원,2019-05-01,126.96024989369317,37.59888724923421
24,301000001020000002,1,영업/정상,0,정상,,서울특별시 중구 신당동 844번지 남산타운 ,2256-8275,"서울특별시 중구 다산로 32, 5상가동 217호 (신당동, 남산타운)",4595.0,남산동물병원,2019-03-08,127.00928041257745,37.54901359105791
26,301000001019950002,1,영업/정상,0,정상,,서울특별시 중구 충무로4가 93-1번지 ,2263-6134,서울특별시 중구 퇴계로 227 (충무로4가),4558.0,대한동물병원,2019-03-08,126.99689158261832,37.56206054534555
27,301000001020190003,1,영업/정상,0,정상,,서울특별시 중구 신당동 353-130 ,02-2232-9702,"서울특별시 중구 다산로 83-1, 3층 (신당동)",4599.0,애니컴 메디컬센터,2021-06-17,127.00803601602357,37.5520740560915
28,301000001020190004,1,영업/정상,0,정상,,서울특별시 중구 신당동 102-6번지 ,02-2038-7555,"서울특별시 중구 다산로 230, 하나빌딩 1층 (신당동)",4585.0,메종동물병원,2019-05-15,127.01597494230097,37.56349860808269
29,301000001020190005,1,영업/정상,0,정상,,서울특별시 중구 황학동 2545번지 롯데캐슬베네치아 ,02-2234-7585,"서울특별시 중구 청계천로 400, 지하 1층 (황학동, 롯데캐슬베네치아)",4572.0,웰니스클리닉(청계천점),2019-10-31,127.02143375256148,37.570978241007644
30,301000001020190006,1,영업/정상,0,정상,,서울특별시 중구 을지로5가 133-1번지 뉴천지관광호텔 ,02-6965-7502,"서울특별시 중구 을지로38길 20, 뉴천지관광호텔 2층 (을지로5가)",4561.0,헬릭스동물심장수술센터,2020-06-04,127.00334575735738,37.56588431434967
31,301000001020190007,1,영업/정상,0,정상,,서울특별시 중구 을지로5가 133-1번지 뉴천지관광호텔 ,02-6956-7502,"서울특별시 중구 을지로38길 20, 뉴천지관광호텔 1층 (을지로5가)",4561.0,헬릭스동물암센터,2020-06-04,127.00334575735738,37.56588431434967
32,301000001020190008,1,영업/정상,0,정상,,서울특별시 중구 을지로5가 133-1번지 뉴천지관광호텔 ,02-6956-7502,"서울특별시 중구 을지로38길 20, 뉴천지관광호텔 1층 (을지로5가)",4561.0,서울동물영상종양센터,2020-06-04,127.00334575735738,37.56588431434967
33,301000001020210001,1,영업/정상,0,정상,,서울특별시 중구 신당동 855 신당 파인힐 하나유보라 ,,"서울특별시 중구 왕십리로 407, B1-1호 (신당동, 신당 파인힐 하나유보라)",4580.0,24시SD동물영상의료센터,2021-11-19,127.02487540101444,37.56428902869574
34,301000001020210002,1,영업/정상,0,정상,,서울특별시 중구 신당동 855 신당 파인힐 하나유보라 ,02-2039-0303,"서울특별시 중구 왕십리로 407, 신당 파인힐 하나유보라 B1층 03,04,05호 (신당동, 신당 파인힐 하나유보라)",4580.0,24시SD동물의료센터성동,2022-01-08,127.02487540101444,37.56428902869574
35,301000001020200001,1,영업/정상,0,정상,,서울특별시 중구 황학동 1596 ,02-2253-2233,"서울특별시 중구 난계로 197, 1,2,4층 (황학동)",4574.0,웰튼동물의료센터,2020-07-01,127.02326608488407,37.569110787706
36,301000001019920001,1,영업/정상,0,정상,,서울특별시 중구 신당동 336-3번지 명덕빌딩 ,2237-3366,"서울특별시 중구 다산로 175, 명덕빌딩 (신당동)",4608.0,바우미우동물병원,2019-03-08,127.01284103204523,37.55929267345063
37,301000001019950001,1,영업/정상,0,정상,,서울특별시 중구 묵정동 32-1번지 ,2278-0075,서울특별시 중구 퇴계로 254-1 (묵정동),4619.0,황동물병원,2019-03-08,127.00000536326704,37.56237120088657
38,301000001020110001,1,영업/정상,0,정상,,서울특별시 중구 신당동 373-64번지 ,2256-7582,서울특별시 중구 동호로 178 (신당동),4590.0,웰펫동물병원,2019-03-08,127.01148564639642,37.55431126232728
39,301000001019900001,1,영업/정상,0,정상,,서울특별시 중구 필동2가 53번지 ,2274-8558,서울특별시 중구 퇴계로 226 (필동2가),4624.0,윤신근박사동물병원,2019-03-08,126.99685596274878,37.5616282222722
40,301000001020160002,1,영업/정상,0,정상,,서울특별시 중구 황학동 2523 황학 아크로타워 ,02-2232-7975,"서울특별시 중구 퇴계로 447, 1층 131호 (황학동, 황학 아크로타워)",4575.0,바른동물병원,2020-07-18,127.02190934239303,37.566171559826806
41,301000001020110002,1,영업/정상,0,정상,,서울특별시 중구 만리동2가 288번지 서울역한라비발디센트럴 ,02-393-7588,"서울특별시 중구 만리재로 177, 105호 (만리동2가, 서울역한라비발디센트럴)",4501.0,백슬동물병원,2019-03-08,126.96577174062955,37.554369838062264
42,301000001020140001,1,영업/정상,0,정상,,서울특별시 중구 신당동 44-17번지 ,02-2233-6675,"서울특별시 중구 다산로36길 83, 1층 (신당동)",4584.0,좋아요 동물병원,2019-11-29,127.01910994047847,37.56052611921339
55,301000001020010001,1,영업/정상,0,정상,,서울특별시 중구 신당동 368-19번지 ,2233-7574,"서울특별시 중구 다산로 107, 2층 (신당동)",4598.0,미래지동물의료센터,2019-03-08,127.00965055699008,37.553653308724904
61,302000001020020004,1,영업/정상,0,정상,,"서울특별시 용산구 보광동 259-1번지 용호빌딩 202호, 203호 ",749-6750,"서울특별시 용산구 보광로 46, 용호빌딩 지상2층 202,203호 (보광동)",4414.0,21세기동물병원,2019-03-08,126.99921369366507,37.528374570524946
62,302000001020020006,1,영업/정상,0,정상,,서울특별시 용산구 한남동 642-4번지 ,793-9230,서울특별시 용산구 대사관로24길 28 (한남동),4402.0,한남동물병원,2019-03-08,127.00527712201149,37.53242214818158
63,302000001020020009,1,영업/정상,0,정상,,서울특별시 용산구 원효로2가 84-10번지 신영빌딩 ,3273-0075,"서울특별시 용산구 원효로 171, 신영빌딩 (원효로2가)",4364.0,열린동물종합병원,2019-03-08,126.96175285825075,37.53562471475363
64,302000001020150002,1,영업/정상,0,정상,,"서울특별시 용산구 원효로1가 133-3번지 리첸시아 용산 B동 113,114호 ",02-703-0075,"서울특별시 용산구 백범로 341, B동 지상1층 113,114호 (원효로1가, 리첸시아 용산)",4315.0,좋아서하는 동물병원,2019-03-08,126.96736299179834,37.53827570168336
65,302000001020110002,1,영업/정상,0,정상,,서울특별시 용산구 효창동 79-1번지 지상1층 ,3275-0079,"서울특별시 용산구 백범로 285, 지상1층 (효창동)",4318.0,펫동물병원,2019-03-08,126.96108259020718,37.53959718565885
66,302000001020110003,1,영업/정상,0,정상,,서울특별시 용산구 이촌동 300-23 한강맨션상가 105호,792-5455,"서울특별시 용산구 이촌로 248, 105호 (이촌동, 한강맨션)",4426.0,(주)이상윤동물병원,2021-03-19,126.97502655741583,37.519330049328936
67,302000001020110005,1,영업/정상,0,정상,,서울특별시 용산구 산천동 93-1번지 ,706-7975,서울특별시 용산구 효창원로 14 (산천동),4360.0,차오름동물병원,2019-03-08,126.95112366425758,37.53427996067421
68,302000001020030004,1,영업/정상,0,정상,,서울특별시 용산구 용산동2가 45-7번지 ,749-8275,서울특별시 용산구 신흥로 36-1 (용산동2가),4339.0,한사랑동물병원,2019-03-08,126.9873982123215,37.541705060418124
69,302000001020020014,1,영업/정상,0,정상,,서울특별시 용산구 원효로2가 30-4번지 ,719-7070,서울특별시 용산구 원효로 187 (원효로2가),4364.0,원효종합동물병원,2019-03-08,126.96315291056055,37.536432569534576
70,302000001020120001,1,영업/정상,0,정상,,서울특별시 용산구 한남동 707-36번지 한남프라자 2층 ,794-1255,"서울특별시 용산구 한남대로 76, 한남프라자 2층 (한남동)",4418.0,달래동물의료센터,2019-11-24,127.00651531430191,37.53556506956195
71,302000001020120002,1,영업/정상,0,정상,,서울특별시 용산구 보광동 80-11번지 ,790-9808,서울특별시 용산구 보광로 22-1 (보광동),4415.0,보광동물병원,2019-03-08,127.0007582100151,37.526522201635345
72,302000001020120003,1,영업/정상,0,정상,,서울특별시 용산구 산천동 202번지 삼성테마트 119호 ,707-2235,"서울특별시 용산구 원효로 51, 119호 (산천동, 삼성테마트)",4359.0,민트동물병원,2019-12-08,126.9504085251519,37.534027858143226
73,302000001020120005,1,영업/정상,0,정상,,"서울특별시 용산구 이태원동 531번지 지상1,2층 ",797-6677,"서울특별시 용산구 녹사평대로 210, 지상1,2층 (이태원동)",4345.0,이태원동물병원,2019-12-08,126.98723895887048,37.53640806977761
74,302000001020130001,1,영업/정상,0,정상,,서울특별시 용산구 한남동 657-121번지 지상2층 ,02-797-4408,"서울특별시 용산구 대사관로 41, 지상2층 (한남동)",4401.0,동물병원 메이,2019-03-08,127.00277403340652,37.53371262700758
75,302000001020130003,1,영업/정상,0,정상,,서울특별시 용산구 용산동2가 45-1번지 106호 ,02-790-7508,"서울특별시 용산구 신흥로 54, 106호 (용산동2가, 북동연립)",4339.0,퍼스동물병원,2019-03-08,126.98783237359504,37.54310082778386
76,302000001020160001,1,영업/정상,0,정상,,서울특별시 용산구 용산동5가 24번지 파크타워 지하1층 비21호,02-792-2561,"서울특별시 용산구 서빙고로 67, 지하1층 비21호 (용산동5가, 파크타워)",4385.0,바다동물병원(Bada Animal Hospital),2019-03-08,126.97068468940158,37.52427449809244
77,302000001020160002,1,영업/정상,0,정상,,서울특별시 용산구 이촌동 302-88 지상1층 101호 ,02-793-0075,"서울특별시 용산구 이촌로64길 24, 지상1층 101호 (이촌동)",4427.0,24시 시유동물메디컬센터,2021-07-03,126.96990736367218,37.5200075284009
78,302000001020170001,1,영업/정상,0,정상,,서울특별시 용산구 이촌동 300-23번지 한강맨션 11동 102호,02-749-7588,"서울특별시 용산구 이촌로 248, 11동 102호 (이촌동, 한강맨션)",4426.0,베이동물병원,2019-03-08,126.97502655741583,37.519330049328936
79,302000001020170002,1,영업/정상,0,정상,,서울특별시 용산구 한남동 29-6 아이리스프라자 지상3층 ,02-792-8275,"서울특별시 용산구 독서당로 81-1, 아이리스프라자 지상3층 (한남동)",4419.0,더힐동물의료센터,2021-07-08,127.00960394707636,37.53469113763689
80,302000001020180001,1,영업/정상,0,정상,,서울특별시 용산구 한강로3가 63-389 용산시티파크1단지 101동 101호,02-797-1275,"서울특별시 용산구 서빙고로 35, 101동 101호 (한강로3가, 용산시티파크1단지)",4385.0,워너비동물병원 용산점,2020-10-10,126.96914504507323,37.52511135549985
81,302000001020090002,1,영업/정상,0,정상,,"서울특별시 용산구 이촌동 301-263 렉스상가 8-1,8-2호 ",798-7512,"서울특별시 용산구 이촌로 300, 렉스상가 8-1,8-2호 (이촌동)",4425.0,금강동물병원,2021-07-21,126.9800403172846,37.5178953601501
82,302000001020090003,1,영업/정상,0,정상,,서울특별시 용산구 이태원동 225-93번지 ,792-7585,서울특별시 용산구 회나무로13길 6 (이태원동),4344.0,라온동물병원,2019-03-08,126.98956120194894,37.53964631872298
83,302000001020100001,1,영업/정상,0,정상,,서울특별시 용산구 후암동 244-11 ,773-1119,서울특별시 용산구 후암로 32 (후암동),4331.0,아프리카동물병원,2021-08-04,126.97793911403689,37.548710655670035
84,302000001020110001,1,영업/정상,0,정상,,서울특별시 용산구 원효로1가 133-3번지 리첸시아 용산 A동 106호,713-0053,"서울특별시 용산구 백범로 341, A동 지상1층 106호 (원효로1가, 리첸시아 용산)",4315.0,엉클장동물병원,2019-03-08,126.96736299179834,37.53827570168336
85,302000001020050004,1,영업/정상,0,정상,,서울특별시 용산구 이태원동 21-1 태광빌딩 1층 ,792-7602,"서울특별시 용산구 보광로 90, 태광빌딩 1층 (이태원동)",4406.0,청화종합동물병원,2020-07-02,126.99582978447084,37.53110818953957
86,302000001020050005,1,영업/정상,0,정상,,서울특별시 용산구 한남동 653-26번지 ,795-2184,서울특별시 용산구 대사관로 32 (한남동),4403.0,펫토이동물병원,2019-03-08,127.00168324175898,37.53350887297274
87,302000001020020002,1,영업/정상,0,정상,,서울특별시 용산구 후암동 63-1번지 지상1층 ,778-7582,"서울특별시 용산구 후암로 51, 지상1층 (후암동)",4325.0,남산동물병원,2019-03-08,126.97710536484381,37.55049863644887
88,302000001020020003,1,영업/정상,0,정상,,서울특별시 용산구 효창동 70-11번지 ,711-4527,서울특별시 용산구 백범로 293 (효창동),4317.0,효창동물병원,2019-03-08,126.96188663055891,37.53931821176782
89,302000001020210001,1,영업/정상,0,정상,,서울특별시 용산구 한남동 737-4 1층 ,02-6956-2280,"서울특별시 용산구 이태원로 227, 1층 (한남동)",4349.0,더벳한남동물병원,2021-05-02,126.9988255376087,37.535665542305104
90,302000001020190001,1,영업/정상,0,정상,,서울특별시 용산구 청파동2가 90-20번지 지상1층 ,02-719-8275,"서울특별시 용산구 청파로47길 16, 지상1층 (청파동2가)",4309.0,원스동물병원,2019-04-21,126.96949046889718,37.54497969685004
125,303000001020190001,1,영업/정상,0,정상,,서울특별시 성동구 송정동 79-2번지 ,0234094640,서울특별시 성동구 광나루로 337 (송정동),4801.0,수동물병원,2019-05-15,127.06719975632497,37.54852873113181
127,303000001020190002,1,영업/정상,0,정상,,서울특별시 성동구 행당동 155-1번지 파크에비뉴 엔터식스 ,0264546182,"서울특별시 성동구 왕십리로 241, 4층 (행당동, 서울숲 더샵)",4765.0,바우라움동물병원,2019-09-18,127.04014917700954,37.55714914916447
128,303000001020200001,1,영업/정상,0,정상,,서울특별시 성동구 성수동1가 656-968번지 영화빌딩 2층 ,024697975,"서울특별시 성동구 왕십리로 104, 영화빌딩 2층 (성수동1가)",4778.0,오늘동물병원,2020-04-19,127.044868768293,37.546865724644285
129,303000001020210001,1,영업/정상,0,정상,,서울특별시 성동구 행당동 377 서울숲 더샵 4층 ,02-6454-6182,"서울특별시 성동구 왕십리로 241, 4층 (행당동, 서울숲 더샵)",4765.0,바우라움동물병원,2021-06-26,127.04065891561928,37.555964590270456
130,303000001020030007,1,영업/정상,0,정상,,서울특별시 성동구 행당동 322-100번지 ,02-2297-7582,서울특별시 성동구 행당로8길 41-2 (행당동),,오렌지동물병원,2019-03-08,127.03396803461021,37.5560421846118
131,303000001020160002,1,영업/정상,0,정상,,서울특별시 성동구 성수동2가 339-23번지 ,02-468-7582,서울특별시 성동구 뚝섬로 395 (성수동2가),4781.0,제인동물병원,2019-03-08,127.05468951838617,37.53904852318257
132,303000001020040004,1,영업/정상,0,정상,,서울특별시 성동구 금호동2가 485-1 ,02-2233-1848,서울특별시 성동구 금호산길 58(금호동2가),4726.0,한빛동물병원,2021-07-03,127.01955064544147,37.553343386574866
133,303000001020060001,1,영업/정상,0,정상,,서울특별시 성동구 금호동4가 1108번지 지상1층 ,02-6085-7750,"서울특별시 성동구 독서당로 289 (금호동4가,지상1층)",,아지동물병원,2019-06-29,127.02104525932049,37.54803811050031
134,303000001020070002,1,영업/정상,0,정상,,서울특별시 성동구 행당동 318-36 ,02-3395-7975,서울특별시 성동구 고산자로 207 (행당동),4714.0,24시센트럴동물메디컬센터,2021-10-20,127.03369109020292,37.558679455168644
135,303000001020160001,1,영업/정상,0,정상,,서울특별시 성동구 옥수동 561번지 래미안옥수리버젠 상가동 420호,02-6402-0301,"서울특별시 성동구 매봉길 13, 1층 420호 (옥수동, 래미안옥수리버젠상가)",4733.0,오석헌동물병원,2018-08-31,127.01384616017411,37.54496005800862
136,303000001020140003,1,영업/정상,0,정상,,서울특별시 성동구 상왕십리동 811번지 텐즈힐몰 221동 134호,02-2295-0975,"서울특별시 성동구 마장로 137, 221동 134호 (상왕십리동, 텐즈힐몰)",4700.0,텐즈힐링동물병원,2019-05-31,127.02471548749942,37.56936273984891
137,303000001020150002,1,영업/정상,0,정상,,서울특별시 성동구 금호동4가 1338번지 10통4반 현대ESA아파트 910호,2282-3653,서울특별시 성동구 독서당로 328 (금호동4가),4737.0,펫365동물병원,2019-06-16,127.02528540040434,37.54790951137775
138,303000001020120001,1,영업/정상,0,정상,,서울특별시 성동구 성수동2가 333-3번지 1층 ,02-466-2475,서울특별시 성동구 뚝섬로 386 (성수동2가),4775.0,서울숲동물병원,2019-03-08,127.05322891595698,37.53909774788207
139,303000001020120002,1,영업/정상,0,정상,,서울특별시 성동구 옥수동 560 어울림상가 지하 301~4호,02-2291-7582,"서울특별시 성동구 독서당로40길 39, 어울림상가 지하 301~304호 (옥수동)",4739.0,옥수수 동물병원,2022-01-19,127.01819162540772,37.54230866795595
140,303000001020170001,1,영업/정상,0,정상,,,02-2297-9300,"서울특별시 성동구 왕십리로 410, 127동 지하층 030호 (하왕십리동, 센트라스)",4701.0,바라봄동물병원,2019-03-08,127.02480626573087,37.56533907089689
141,303000001020180001,1,영업/정상,0,정상,,서울특별시 성동구 하왕십리동 1070번지 센트라스 ,02-2039-7572,"서울특별시 성동구 왕십리로 410 (하왕십리동, 센트라스)",4701.0,다온동물병원,2019-04-27,127.02764654270162,37.56611045170192
142,303000001020180002,1,영업/정상,0,정상,,서울특별시 성동구 성수동1가 718번지 트리마제 ,02-466-8215,"서울특별시 성동구 왕십리로 16 (성수동1가, 트리마제)",4773.0,달링동물병원,2019-04-27,127.0450458757506,37.53882399940607
143,303000001020160006,1,영업/정상,0,정상,,서울특별시 성동구 성수동1가 22-28번지 1층 ,02-468-7975,"서울특별시 성동구 성수일로 33, 1층 (성수동1가, 정인숙보습학원)",4779.0,포레동물병원,2019-03-08,127.04919976592868,37.54363124380473
144,303000001020140001,1,영업/정상,0,정상,,서울특별시 성동구 하왕십리동 892-4번지 ,02-2297-0075,서울특별시 성동구 왕십리로 381 (하왕십리동),4710.0,왕십리조은동물병원,2019-02-10,127.02787854799621,37.564566513653396
145,303000001020140002,1,영업/정상,0,정상,,서울특별시 성동구 용답동 74-2번지 ,02-3394-7530,서울특별시 성동구 천호대로 288 (용답동),4804.0,24시LC동물의료센터,2018-11-07,127.05274703767623,37.56640553149451
146,303000001020160007,1,영업/정상,0,정상,,서울특별시 성동구 옥수동 528번지 이편한세상옥수파크힐스 ,02-2282-7501,"서울특별시 성동구 매봉길 50 (옥수동, 이편한세상옥수파크힐스)",4731.0,스테이동물병원,2019-04-27,127.0138907999483,37.54833255044661
147,303000001020080001,1,영업/정상,0,정상,,서울특별시 성동구 행당동 346번지 한진노변상가 109호,02-2282-7503,"서울특별시 성동구 행당로 76, 한진노변상가 1,2층 108호109호203호 (행당동)",4717.0,이윤세동물병원,2019-03-08,127.02920737252808,37.55588046818101
148,303000001020100001,1,영업/정상,0,정상,,서울특별시 성동구 행당동 226-3번지 ,02-2281-5200,서울특별시 성동구 왕십리로 282 (행당동),4751.0,한양동물메디컬센터,2019-03-08,127.03701390351956,37.559661752119816
149,303000001020160004,1,영업/정상,0,정상,,서울특별시 성동구 금호동2가 1217번지 래미안하이리버 상가동 비201호,0222810049,"서울특별시 성동구 금호로 105, 비201호 (금호동2가, 래미안하이리버 상가동)",4728.0,금호동물병원,2019-06-30,127.02454137954126,37.551292441663364
150,303000001020130006,1,영업/정상,0,정상,,서울특별시 성동구 금호동4가 800번지 금호동대우아파트 상가동 206호,02-2297-7570,"서울특별시 성동구 독서당로 270, 상가동 2층 206호 (금호동4가, 금호동 대우아파트)",4738.0,바른동물병원,2018-08-31,127.01968327123957,37.54597274892745
151,303000001020130007,1,영업/정상,0,정상,,서울특별시 성동구 마장동 791-9번지 ,02-2291-8275,서울특별시 성동구 마장로 296 (마장동),4758.0,기린동물병원,2018-08-31,127.04277597863005,37.56569154981354
152,303000001020030001,1,영업/정상,0,정상,,서울특별시 성동구 옥수동 263-1번지 ,02-2299-3283,서울특별시 성동구 독서당로 200 (옥수동),,함께하는동물병원,2019-03-08,127.01312704323769,37.54301837240589
153,303000001020120003,1,영업/정상,0,정상,,서울특별시 성동구 행당동 344번지 111호,,"서울특별시 성동구 독서당로59길 84, 신동아아파트상가동 1층 111호 (행당동)",4716.0,도담동물병원(출장진료전문 동물병원),2019-03-08,127.03283691252634,37.55437107474665
154,303000001020130001,1,영업/정상,0,정상,,서울특별시 성동구 홍익동 398-2번지 ,02-2281-8122,서울특별시 성동구 무학로 16 (홍익동),4707.0,라임동물병원,2019-03-08,127.03031722297443,37.56553886679654
155,303000001020030006,1,영업/정상,0,정상,,서울특별시 성동구 행당동 346번지 한진노변상가 110호,02-3395-0075,"서울특별시 성동구 행당로 76, 110호 (행당동, 한진노변상가)",4717.0,평화와생명동물병원,2019-03-08,127.02920737252808,37.55588046818101
184,303000001020190003,1,영업/정상,0,정상,,서울특별시 성동구 하왕십리동 1070번지 센트라스상가 D동 106호,02-2295-9888,"서울특별시 성동구 왕십리로 410, D동 106호 (하왕십리동, 센트라스)",4701.0,베이지동물병원,2020-01-04,127.02764654270162,37.56611045170192
197,304000001020040005,1,영업/정상,0,정상,,서울특별시 광진구 구의동 53-9번지 ,452-7580,서울특별시 광진구 천호대로 663 (구의동),4954.0,아차산동물병원,2019-03-08,127.09022460521084,37.5517923203883
198,304000001020000003,1,영업/정상,0,정상,,서울특별시 광진구 중곡동 58-18번지 ,446-2349,서울특별시 광진구 용마산로 66 (중곡동),4944.0,용마동물병원,2019-03-08,127.08788432510983,37.55952568615302
199,304000001020020001,1,영업/정상,0,정상,,서울특별시 광진구 중곡동 241-34번지 ,462-5595,서울특별시 광진구 긴고랑로 47 (중곡동),4909.0,중곡동물병원,2019-03-08,127.08157227279428,37.56274957492342
200,304000001020020003,1,영업/정상,0,정상,,서울특별시 광진구 중곡동 161-27번지 ,454-9975,서울특별시 광진구 능동로 334 (중곡동),4928.0,방주종합동물병원,2019-03-08,127.0809430508952,37.55932686719565
201,304000001020030003,1,영업/정상,0,정상,,서울특별시 광진구 구의동 68-37 ,457-4545,서울특별시 광진구 광나루로 507 (구의동),4976.0,광진동물의료센터,2020-12-03,127.08595673332383,37.54524387026001
202,304000001020050002,1,영업/정상,0,정상,,서울특별시 광진구 자양동 553-280 ,463-7075,서울특별시 광진구 뚝섬로 504 (자양동),5085.0,이다종합동물병원,2020-08-01,127.06607586775105,37.53580894556568
203,304000001020050004,1,영업/정상,0,정상,,서울특별시 광진구 군자동 1-2 ,463-3216,서울특별시 광진구 능동로 283 (군자동),4997.0,나래동물병원,2021-07-08,127.07815367756237,37.555349749666945
204,304000001020060003,1,영업/정상,0,정상,,서울특별시 광진구 군자동 363-4번지 ,465-7582,서울특별시 광진구 군자로 84 (군자동),5004.0,보람동물병원,2019-03-08,127.0711608103645,37.550521983575585
205,304000001020070003,1,영업/정상,0,정상,,서울특별시 광진구 능동 256-1번지 ,455-0077,서울특별시 광진구 천호대로 642-1 (능동),4987.0,애플동물병원,2019-03-08,127.08830462891267,37.55319038769587
206,304000001020080001,1,영업/정상,0,정상,,서울특별시 광진구 자양동 606-14번지 ,457-8575,서울특별시 광진구 뚝섬로 622-1 (자양동),5099.0,로엘동물병원,2019-03-08,127.07878314889378,37.53205062185059
207,304000001020080002,1,영업/정상,0,정상,,서울특별시 광진구 자양동 662-13 ,02-6954-7582,서울특별시 광진구 뚝섬로 670 (자양동),5102.0,해맑은동물병원,2021-06-08,127.08393793398693,37.53159697090014
208,304000001020160001,1,영업/정상,0,정상,,서울특별시 광진구 자양동 550-1 ,468-6612,"서울특별시 광진구 능동로 49 (자양동, 영지빌딩)",5074.0,로얄 도그앤캣 메디컬센터,2021-06-24,127.06833402839601,37.535814267742914
209,304000001020170006,1,영업/정상,0,정상,,서울특별시 광진구 구의동 611번지 구의현대2단지아파트 ,02-446-8175,"서울특별시 광진구 광나루로56길 32, 105,106,201호 (구의동, 구의현대2단지아파트)",5118.0,광진24시필동물병원,2020-03-01,127.09587402630629,37.538627492499955
210,304000001020170002,1,영업/정상,0,정상,,,02-2024-1253,"서울특별시 광진구 아차산로 272 (자양동, 이마트 자양점)",5065.0,쿨펫동물병원,2018-08-31,127.07263204870206,37.53780315323473
211,304000001020170003,1,영업/정상,0,정상,,,024610079,"서울특별시 광진구 능동로 18, 125호 (자양동, 이튼타워리버3차)",5096.0,반디동물병원,2018-08-31,127.06806022702504,37.53298921898575
212,304000001020170004,1,영업/정상,0,정상,,,024550975,서울특별시 광진구 광나루로 524 (구의동),5031.0,연두동물병원,2018-08-31,127.08768221682297,37.544722968866964
213,304000001020040003,1,영업/정상,0,정상,,서울특별시 광진구 화양동 1 ,450-3664,서울특별시 광진구 능동로 120 (화양동),5029.0,건국대학교 부속 동물병원,2022-01-08,127.07372514846179,37.54254118750076
214,304000001020050001,1,영업/정상,0,정상,,서울특별시 광진구 광장동 530-39번지 ,455-7570,서울특별시 광진구 광나루로 601 (광장동),4984.0,쥬라기동물병원,2019-03-08,127.09521268788946,37.54209726542872
215,304000001020140004,1,영업/정상,0,정상,,서울특별시 광진구 중곡동 119-7번지 ,2038-8253,"서울특별시 광진구 천호대로 623-1, 1층 (중곡동)",4931.0,서울동물병원,2019-03-08,127.08707593318054,37.55455295720504
216,304000001020110001,1,영업/정상,0,정상,,서울특별시 광진구 자양동 553-588번지 ,457-2220,서울특별시 광진구 뚝섬로 541 (자양동),5070.0,준동물병원,2019-03-08,127.07037757613064,37.53491933842427
217,304000001020110002,1,영업/정상,0,정상,,서울특별시 광진구 능동 18-0 ,450-9306,서울특별시 광진구 능동로 216 (능동),4991.0,서울어린이대공원동물병원,2020-09-04,127.08157400766544,37.54958916901234
218,304000001020170001,1,영업/정상,0,정상,,,02-498-7588,"서울특별시 광진구 광나루로 361, 2동 103호 (군자동, 광진동양파라곤)",5003.0,파라곤동물병원,2018-08-31,127.07021986430358,37.548567974456496
219,304000001020190001,1,영업/정상,0,정상,,서울특별시 광진구 자양동 681번지 ,02-455-5975,"서울특별시 광진구 자양로 48, 104호 (자양동)",5112.0,아이본 동물병원,2019-03-17,127.08575245226356,37.532374613191834
220,304000001020210001,1,영업/정상,0,정상,,서울특별시 광진구 자양동 612-56 ,02-2039-9930,"서울특별시 광진구 자양로15길 30, 1층 (자양동)",5055.0,우주동물병원,2021-07-15,127.0819000900277,37.53568513904058
221,304000001020120002,1,영업/정상,0,정상,,서울특별시 광진구 광장동 582번지 ,457-7582,서울특별시 광진구 아차산로 537-17 (광장동),4983.0,나루동물병원,2019-03-08,127.09956206393376,37.54317962714008
222,304000001020120003,1,영업/정상,0,정상,,서울특별시 광진구 중곡동 193-29 ,499-7582,서울특별시 광진구 면목로 142 (중곡동),4908.0,다온동물병원,2021-07-31,127.0814786952818,37.56595240975167
223,304000001020130002,1,영업/정상,0,정상,,서울특별시 광진구 자양동 606-27번지 ,456-0975,서울특별시 광진구 뚝섬로52길 4 (자양동),5099.0,자양동물병원,2019-03-08,127.07934914859422,37.53179358775384
224,304000001020130003,1,영업/정상,0,정상,,서울특별시 광진구 중곡동 166-6번지 ,464-7588,"서울특별시 광진구 능동로 407, 2층 (중곡동)",4908.0,드림펫 동물병원,2019-03-08,127.08379555626935,37.56543223514963
225,304000001020080003,1,영업/정상,0,정상,,서울특별시 광진구 자양동 236-127번지 ,464-2748,서울특별시 광진구 뚝섬로 462 (자양동),5081.0,노룬산동물병원,2019-03-08,127.0617782394941,37.53688770418288
226,304000001020180001,1,영업/정상,0,정상,,서울특별시 광진구 중곡동 162-8번지 ,02-464-7582,서울특별시 광진구 능동로43길 3-5 (중곡동),4915.0,스마트동물병원군자점,2020-04-23,127.08123588377649,37.56083006333615
227,304000001019970002,1,영업/정상,0,정상,,서울특별시 광진구 구의동 659번지 세림리오빌아파트 제비1-1호,457-0292,서울특별시 광진구 아차산로 451 (구의동),5046.0,프라임동물병원,2019-03-08,127.09199075354036,37.539304052873035
228,304000001019990002,1,영업/정상,0,정상,,서울특별시 광진구 광장동 517-5번지 삼익아파트 ,444-7533,서울특별시 광진구 아차산로 493 (광장동),4984.0,동서울동물병원,2019-03-08,127.09619690094907,37.54179866746541
229,304000001020000001,1,영업/정상,0,정상,,서울특별시 광진구 자양동 680번지 ,456-4466,서울특별시 광진구 자양로 94 (자양동),5051.0,시민동물병원,2019-03-08,127.08407821553446,37.53613914160765
230,304000001020000002,1,영업/정상,0,정상,,서울특별시 광진구 화양동 216번지 ,467-3673,서울특별시 광진구 광나루로 392-1 (화양동),5009.0,피카소동물병원,2019-04-20,127.07327667856497,37.54729229363804
261,305000001020070001,1,영업/정상,0,정상,,서울특별시 동대문구 신설동 109-13번지 청계천 대성 스카이렉스1 ,02-2234-1379,"서울특별시 동대문구 청계천로 417, 108호 (신설동, 청계천 대성 스카이렉스1)",2586.0,맑은 동물병원,2019-03-09,127.0239120108285,37.57199845121318
263,305000001020110001,1,영업/정상,0,정상,,서울특별시 동대문구 용두동 38-17번지 ,02-3295-3927,서울특별시 동대문구 고산자로 393-5 (용두동),2566.0,엘동물병원,2019-03-09,127.03762947014728,37.574670465341356
264,305000001020130003,1,영업/정상,0,정상,,서울특별시 동대문구 전농동 652-1번지 ,02-2242-7975,서울특별시 동대문구 답십리로 77 (전농동),2552.0,제연동물병원,2019-03-09,127.04962175884322,37.575126585455266
265,305000001020130004,1,영업/정상,0,정상,,서울특별시 동대문구 장안동 335-3 ,02-2215-7522,서울특별시 동대문구 답십리로 298 (장안동),2637.0,VIP동물의료센터,2021-08-13,127.07355506828767,37.571964731215004
266,305000001020130005,1,영업/정상,0,정상,,서울특별시 동대문구 장안동 374-3번지 ,02-2249-7600,"서울특별시 동대문구 장한로 77, 가나빌딩 (장안동)",2625.0,페트로동물의료원,2019-03-09,127.06850746337156,37.567874298105
267,305000001020140001,1,영업/정상,0,정상,,서울특별시 동대문구 휘경동 267-84 ,02-6242-7500,서울특별시 동대문구 망우로 66 (휘경동),2496.0,하나동물병원,2021-03-10,127.06096030057475,37.58949259732862
268,305000001020140002,1,영업/정상,0,정상,,서울특별시 동대문구 회기동 62-8번지 ,02-969-7579,서울특별시 동대문구 회기로18길 46 (회기동),2460.0,봄봄동물병원,2019-03-09,127.05404919827801,37.59034381537159
269,305000001020150001,1,영업/정상,0,정상,,서울특별시 동대문구 전농동 322-31번지 ,02-6242-8275,서울특별시 동대문구 사가정로 51 (전농동),2553.0,아띠동물의료센터,2019-03-09,127.05233301632775,37.573740810640444
270,305000001020160001,1,영업/정상,0,정상,,서울특별시 동대문구 장안동 483 ,02-2242-0175,"서울특별시 동대문구 한천로 164, 1층 (장안동)",2529.0,스마트동물병원,2021-01-10,127.06767817801989,37.57551298358761
271,305000001020170001,1,영업/정상,0,정상,,서울특별시 동대문구 이문동 292-10번지 이문동 웰츠타워 ,02-965-0075,"서울특별시 동대문구 이문로 136, 2층 208호 (이문동, 이문동 웰츠타워)",2418.0,바론동물병원,2019-06-28,127.06189469597874,37.59848837280965
272,305000001020170002,1,영업/정상,0,정상,,서울특별시 동대문구 답십리동 1003-2번지 세기프라자 ,02-2213-8875,"서울특별시 동대문구 답십리로 140, 세기프라자 2층 211호 (답십리동)",2598.0,더케이동물병원,2019-03-09,127.05564224956846,37.57247268946796
273,305000001020180001,1,영업/정상,0,정상,,서울특별시 동대문구 답십리동 490-57번지 ,02-2242-7510,서울특별시 동대문구 전농로 15-3 (답십리동),2605.0,하이유 동물병원,2019-03-09,127.05590756195654,37.56662024969352
274,305000001019900002,1,영업/정상,0,정상,,서울특별시 동대문구 휘경동 34-48번지 ,02-2244-7755,서울특별시 동대문구 망우로 120 (휘경동),2501.0,심재웅동물병원,2019-03-09,127.06651544667284,37.59110328974754
275,305000001019970001,1,영업/정상,0,정상,,서울특별시 동대문구 장안동 100-8번지 ,02-2244-7479,서울특별시 동대문구 사가정로 221 (장안동),2518.0,박철환동물병원,2019-03-09,127.069692813942,37.57891554187317
276,305000001019980001,1,영업/정상,0,정상,,서울특별시 동대문구 장안동 186-12번지 ,02-2212-5233,"서울특별시 동대문구 한천로 94, 1층 (장안동)",2626.0,뉴월드동물병원,2019-04-27,127.0645337033074,37.56960341419666
277,305000001019990001,1,영업/정상,0,정상,,서울특별시 동대문구 답십리동 53-6번지 ,02-2214-6129,서울특별시 동대문구 전농로 86-1 (답십리동),2606.0,그랜드동물병원,2019-03-09,127.05763705547356,37.572660317698514
278,305000001019990002,1,영업/정상,0,정상,,서울특별시 동대문구 이문동 324-3 ,02-967-0877,서울특별시 동대문구 이문로 80 (이문동),2440.0,애니케어동물병원,2021-10-14,127.05886785717351,37.59404027256055
279,305000001019990003,1,영업/정상,0,정상,,서울특별시 동대문구 청량리동 359번지 ,02-963-7582,"서울특별시 동대문구 홍릉로 48-1, 1층 (청량리동)",2484.0,푸른종합동물병원,2020-01-11,127.04407059972982,37.58458516306944
280,305000001020010001,1,영업/정상,0,정상,,서울특별시 동대문구 장안동 307-3번지 ,02-2215-2022,서울특별시 동대문구 장한로 139 (장안동),2530.0,장평25시동물종합병원,2019-03-09,127.07139172957456,37.57290204742258
281,305000001020030001,1,영업/정상,0,정상,,서울특별시 동대문구 용두동 732-5번지 ,02-925-3686,"서울특별시 동대문구 안암로 40, 1층 (용두동)",2578.0,안암동물병원,2019-03-09,127.0267915838305,37.580547828567695
282,305000001020040001,1,영업/정상,0,정상,,서울특별시 동대문구 전농동 38-24번지 ,02-2244-1081,서울특별시 동대문구 사가정로 121 (전농동),2507.0,주주동물병원,2019-03-09,127.05847809764073,37.57786871950275
283,305000001020050004,1,영업/정상,0,정상,,서울특별시 동대문구 청량리동 400번지 ,02-960-7501,서울특별시 동대문구 홍릉로 64-1 (청량리동),2484.0,디아크동물병원,2019-03-09,127.0435316408911,37.585943918957035
284,305000001020200002,1,영업/정상,0,정상,,서울특별시 동대문구 답십리동 52-3 ,02-2217-8930,"서울특별시 동대문구 전농로 80, 1층 (답십리동)",2606.0,아이원 동물병원,2020-09-18,127.05759267003772,37.57194872981387
285,305000001020200001,1,영업/정상,0,정상,,서울특별시 동대문구 장안동 435-6번지 ,02-2213-0075,"서울특별시 동대문구 장한로 44, 1층 (장안동)",2643.0,아인스동물병원,2020-01-12,127.0673870661698,37.565070521886575
286,305000001020170003,1,영업/정상,0,정상,,서울특별시 동대문구 장안동 330-2번지 ,02-2212-7596,"서울특별시 동대문구 답십리로 293, 1층 (장안동)",2523.0,현대종합동물병원,2019-07-24,127.07305558017414,37.57250673833485
287,305000001020210001,1,영업/정상,0,정상,,서울특별시 동대문구 답십리동 3-125 ,02-3394-7075,서울특별시 동대문구 답십리로 224-1 (답십리동),2610.0,땅콩동물병원,2021-05-09,127.0652661356853,37.57258295493639
309,305000001020100001,1,영업/정상,0,정상,,서울특별시 동대문구 용두동 790번지 롯데캐슬피렌체 ,02-957-7075,"서울특별시 동대문구 정릉천동로 58, 1층 125호 (용두동, 롯데캐슬피렌체)",2566.0,그린동물병원,2019-03-09,127.03572143904137,37.57718453062543
310,306000001020200002,1,영업/정상,0,정상,,서울특별시 중랑구 묵동 238-8 하태윤산부인과 ,949-7577,"서울특별시 중랑구 동일로 925, 3층 (묵동)",2005.0,치료해 주오,2022-02-13,127.07681453477063,37.612956403815055
311,306000001020060001,1,영업/정상,0,정상,,서울특별시 중랑구 면목동 353-25번지 ,2207-9931,서울특별시 중랑구 면목로 273 (면목동),,주연동물병원,2018-08-31,127.08570676842993,37.57729473342183
312,306000001020060002,1,영업/정상,0,정상,,서울특별시 중랑구 신내동 571-8번지 ,432-7530,서울특별시 중랑구 신내로10길 7 (신내동),2069.0,진서동물병원,2019-03-08,127.09592363151589,37.60469896001905
313,306000001020060003,1,영업/정상,0,정상,,서울특별시 중랑구 망우동 490-7번지 신인빌딩 ,436-7311,"서울특별시 중랑구 망우로 396, 신인빌딩 (망우동)",2163.0,세진동물병원,2019-03-08,127.09625445418062,37.598681108112615
314,306000001020060006,1,영업/정상,0,정상,,서울특별시 중랑구 면목동 103-4 1층 ,492-9303,"서울특별시 중랑구 겸재로 207, 1층 (면목동)",2162.0,숲속동물병원,2021-08-01,127.090561718554,37.58931457597054
315,306000001020080001,1,영업/정상,0,정상,,서울특별시 중랑구 중화동 207 ,"494-7582,",서울특별시 중랑구 망우로 247 (중화동),2117.0,로얄동물메디컬센터,2021-08-13,127.08001976999981,37.59543562890142
316,306000001020090001,1,영업/정상,0,정상,,서울특별시 중랑구 면목동 606-6번지 ,437-7579,서울특별시 중랑구 사가정로 363 (면목동),2227.0,면목동물병원,2018-11-01,127.08490194088373,37.58121544125563
317,306000001020100001,1,영업/정상,0,정상,,서울특별시 중랑구 신내동 648번지 디아뜨갤러리 ,0234220977,"서울특별시 중랑구 신내로 225, 디아뜨갤러리 142호 (신내동)",2024.0,하니동물병원,2018-10-12,127.09129202319775,37.616957415336586
318,306000001020100002,1,영업/정상,0,정상,,"서울특별시 중랑구 면목동 119-10 1,2층 ",2208-6788,"서울특별시 중랑구 겸재로 165, 1,2층 (면목동)",2145.0,한국동물메디컬센터(KAMC),2021-06-03,127.08589954575771,37.588194684240015
319,306000001020190002,1,영업/정상,0,정상,,서울특별시 중랑구 신내동 563-2번지 ,02-433-7515,서울특별시 중랑구 신내로 66 (신내동),2069.0,아이봄 동물병원,2019-09-08,127.09562721005543,37.60504884095696
320,306000001020200001,1,영업/정상,0,정상,,서울특별시 중랑구 면목동 172-93번지 ,02-470-4707,"서울특별시 중랑구 동일로 593, 2층 (면목동)",2232.0,레미 동물병원,2020-06-12,127.0794684301132,37.58335595562549
321,306000001020210002,1,영업/정상,0,정상,,서울특별시 중랑구 면목동 71-41 ,,"서울특별시 중랑구 상봉로 17, 1층 (면목동)",2202.0,닥터멍동물병원,2021-04-29,127.09412600042516,37.58749587059373
323,306000001020030002,1,영업/정상,0,정상,,서울특별시 중랑구 상봉동 137-7 ,2094-8344,서울특별시 중랑구 중랑천로 71 (상봉동),,서울우유협동조합유우진료소,2022-01-23,127.07236905164828,37.591725888629846
324,306000001020130001,1,영업/정상,0,정상,,서울특별시 중랑구 상봉동 99-10 ,2208-0329,"서울특별시 중랑구 망우로 315, 2층 (상봉동)",2098.0,닥터 아이펫 동물병원,2021-06-03,127.08747279202046,37.59722893022389
325,306000001020140001,1,영업/정상,0,정상,,서울특별시 중랑구 신내동 645번지 홈플러스 2층 ,3421-9075,"서울특별시 중랑구 신내로 201, 2층 (신내동, 홈플러스)",2024.0,도그플러스 동물병원,2018-08-31,127.09376325782108,37.615794649298955
326,306000001020140002,1,영업/정상,0,정상,,서울특별시 중랑구 신내동 405-5번지 ,02-433-3387,"서울특별시 중랑구 봉화산로 232, B동 1층 (신내동)",2067.0,행복이 있는 동물병원,2018-08-31,127.09836100176489,37.60781942893978
327,306000001020160001,1,영업/정상,0,정상,,서울특별시 중랑구 면목동 17-31번지 ,02-494-7775,"서울특별시 중랑구 용마산로 434 (면목동, 청파빌딩)",2189.0,보담동물병원,2018-08-31,127.0974041181564,37.58995069309038
328,306000001020170001,1,영업/정상,0,정상,,서울특별시 중랑구 중화동 207-6번지 ,02-6215-3416,"서울특별시 중랑구 망우로 241, 지하1층 (중화동, 영해빌딩)",2117.0,한국동물영상의학센터,2018-08-31,127.07942270479505,37.59504205753519
329,306000001020180001,1,영업/정상,0,정상,,서울특별시 중랑구 상봉동 137-16번지 ,,서울특별시 중랑구 중랑천로 81 (상봉동),2118.0,중랑차 동물병원,2019-07-03,127.07263642716646,37.59243803713411
330,306000001019910001,1,영업/정상,0,정상,,서울특별시 중랑구 묵동 175-2번지 3층 ,973-1953,"서울특별시 중랑구 동일로 920, 3층 (묵동)",2033.0,태능동물병원,2019-04-04,127.07757937039554,37.61259595606131
331,306000001019920001,1,영업/정상,0,정상,,서울특별시 중랑구 면목동 497-7번지 혜원동물병원 ,439-8300,"서울특별시 중랑구 면목로 341, 혜원동물병원 (면목동)",2228.0,혜원동물병원,2018-10-12,127.08829215382633,37.582349243083975
332,306000001019950001,1,영업/정상,0,정상,,서울특별시 중랑구 면목동 353-4번지 ,434-5465,서울특별시 중랑구 면목로 269 (면목동),2240.0,보람동물병원,2019-03-08,127.08575219553346,37.5770254006088
333,306000001019960001,1,영업/정상,0,정상,,서울특별시 중랑구 면목동 102-51번지 ,435-0166,서울특별시 중랑구 겸재로 187 (면목동),2161.0,엔젤동물병원,2019-03-08,127.08837074736081,37.58879668245511
334,306000001019970001,1,영업/정상,0,정상,,서울특별시 중랑구 묵동 239-76번지 ,974-0339,"서울특별시 중랑구 동일로 899, 1층 (묵동)",2006.0,홍상희동물병원,2018-08-31,127.0773899189289,37.61066506761772
335,306000001020000001,1,영업/정상,0,정상,,서울특별시 중랑구 면목동 225-7 ,435-2275,"서울특별시 중랑구 면목로 442-1, 1층 (면목동)",2160.0,하스펫탈동물병원,2021-06-20,127.08695803463773,37.59157193165951
336,306000001020000002,1,영업/정상,0,정상,,서울특별시 중랑구 중화동 11-36번지 삼일시티빌 1층 ,3422-0001,"서울특별시 중랑구 봉화산로 103, 1층 (중화동, 삼일시티빌)",2048.0,신내동물병원,2018-08-31,127.0857173697278,37.60271567555419
337,306000001020010003,1,영업/정상,0,정상,,서울특별시 중랑구 중화동 305-44 유정빌딩 ,2207-0073,"서울특별시 중랑구 봉화산로 39-1, 유정빌딩 2층 (중화동)",2017.0,진정훈동물병원,2022-02-06,127.07877176183995,37.60176654726923
338,306000001020010004,1,영업/정상,0,정상,,서울특별시 중랑구 면목동 634-5 ,493-7582,서울특별시 중랑구 면목로 311 (면목동),2238.0,성지동물병원,2021-08-01,127.0877734689347,37.57991331188929
339,306000001020020003,1,영업/정상,0,정상,,서울특별시 중랑구 망우동 364-27번지 금란동물병원 ,492-7582,"서울특별시 중랑구 용마산로 532, 금란동물병원 (망우동)",2176.0,금란동물병원,2019-04-12,127.10059680117193,37.59845016548781
340,306000001020020004,1,영업/정상,0,정상,,서울특별시 중랑구 중화동 207 지하1층 ,2208-7533,"서울특별시 중랑구 망우로 247, 지하1층 (중화동, 로얄스포츠센터)",2117.0,24시 동물응급의료센터,2021-08-13,127.08001976999981,37.59543562890142
341,306000001020050003,1,영업/정상,0,정상,,서울특별시 중랑구 신내동 646번지 금강리빙스텔 119호,3421-7588,"서울특별시 중랑구 신내로 211, 119호 (신내동, 금강리빙스텔)",2024.0,쥬라기동물병원,2018-08-31,127.0926774061072,37.616325672381635
371,307000001020130001,1,영업/정상,0,정상,,서울특별시 성북구 하월곡동 88-677번지 ,915-5301,서울특별시 성북구 동소문로 302 (하월곡동),2733.0,호담동물병원,2019-04-26,127.02853145543506,37.60678448023679
373,307000001020140002,1,영업/정상,0,정상,,서울특별시 성북구 하월곡동 46-73 코업스타클래스 1층 ,943-7582,"서울특별시 성북구 화랑로 76 (하월곡동, 코업스타클래스 1층)",2799.0,도담도담동물병원,2021-01-09,127.04044516219182,37.60182099492948
374,307000001020030004,1,영업/정상,0,정상,,서울특별시 성북구 길음동 1276번지 ,913-1874,"서울특별시 성북구 동소문로 248 (길음동, 삼부상가 102동 6,7호)",2735.0,길음동물병원,2018-08-31,127.02377587681414,37.60277267993874
375,307000001020050003,1,영업/정상,0,정상,,서울특별시 성북구 장위동 64-124번지 ,915-7582,서울특별시 성북구 돌곶이로 91 (장위동),2772.0,행복한동물병원,2019-04-26,127.05635049987825,37.611175702734435
376,307000001020060001,1,영업/정상,0,정상,,서울특별시 성북구 종암동 68-1번지 ,929-1212,서울특별시 성북구 종암로19길 7 (종암동),2810.0,미소동물병원,2019-04-26,127.03435296625503,37.59838778841538
377,307000001020070001,1,영업/정상,0,정상,,서울특별시 성북구 석관동 268-11번지 ,967-0300,서울특별시 성북구 돌곶이로 56 (석관동),2784.0,중앙동물병원,2019-04-26,127.05931979913343,37.60886931872731
378,307000001020070003,1,영업/정상,0,정상,,서울특별시 성북구 하월곡동 16-7번지 ,912-0018,서울특별시 성북구 화랑로 91 (하월곡동),2751.0,비비펫 동물병원,2019-04-26,127.04213101974017,37.6029892243582
379,307000001020070004,1,영업/정상,0,정상,,서울특별시 성북구 정릉동 285-4 정호빌딩 ,943-8376,"서울특별시 성북구 보국문로 68-1, 정호빌딩 1층 (정릉동)",2711.0,보성통증동물병원,2021-04-17,127.00937757035841,37.610603756947505
380,307000001020070005,1,영업/정상,0,정상,,서울특별시 성북구 정릉동 16-162 ,914-5545,"서울특별시 성북구 정릉로 328, 1층 (정릉동)",2816.0,ZOO동물병원,2020-12-19,127.01954285113105,37.602010642624215
381,307000001020080003,1,영업/정상,0,정상,,서울특별시 성북구 길음동 1125-9번지 ,989-8575,서울특별시 성북구 삼양로 84 (길음동),2726.0,우리동물병원,2019-04-26,127.0225603718014,37.61085167352015
382,307000001020080004,1,영업/정상,0,정상,,서울특별시 성북구 보문동5가 3-1 ,926-8275,서울특별시 성북구 보문로 99 (보문동5가),2872.0,24시 애니동물병원,2021-10-07,127.01983392955536,37.58393877771689
383,307000001020090001,1,영업/정상,0,정상,,서울특별시 성북구 동소문동6가 3-1 1층 ,953-0075,"서울특별시 성북구 동소문로 73, 1층 (동소문동6가, 시티플레이스)",2830.0,VIP 동물의료센터,2022-01-20,127.01342772941709,37.59230997561004
384,307000001019980001,1,영업/정상,0,정상,,서울특별시 성북구 장위동 225-61번지 ,,서울특별시 성북구 장위로 81 (장위동),2756.0,큐동물병원,2018-08-31,127.04570239910365,37.61400382247061
385,307000001019990001,1,영업/정상,0,정상,,서울특별시 성북구 성북동1가 115-23 ,02-743-7582,서울특별시 성북구 성북로 27 (성북동1가),2880.0,한사랑동물병원,2021-09-29,127.00383550312435,37.590354015686565
386,307000001020000001,1,영업/정상,0,정상,,서울특별시 성북구 동소문동3가 79번지 ,929-5496,서울특별시 성북구 동소문로 66 (동소문동3가),2860.0,나래종합동물병원,2018-08-31,127.01297216400994,37.591396616882214
387,307000001020200002,1,영업/정상,0,정상,,서울특별시 성북구 돈암동 644 돈암코오롱하늘채 ,02-6956-0040,"서울특별시 성북구 아리랑로 75, 상가3동 1층 110호 (돈암동, 돈암코오롱하늘채)",2826.0,원러브동물의료센터,2020-12-05,127.01268976570879,37.599166787650816
388,307000001020160002,1,영업/정상,0,정상,,"서울특별시 성북구 길음동 1285번지 길음뉴타운7단지 두산위브상가 103호, 104호 ",02-941-5575,"서울특별시 성북구 길음로13길 22, 103호, 104호 (길음동, 길음7구역두산위브아파트)",2715.0,스마트동물병원 성북길음점,2019-04-26,127.0188288406941,37.60977638768289
389,307000001020160003,1,영업/정상,0,정상,,서울특별시 성북구 하월곡동 62-4번지 ,912-6555,서울특별시 성북구 오패산로 22 (하월곡동),2751.0,포유동물병원,2019-05-09,127.03774318540877,37.604218336209264
390,307000001020170001,1,영업/정상,0,정상,,서울특별시 성북구 동소문동6가 237번지 ,02-927-7878,서울특별시 성북구 아리랑로 27 (동소문동6가),2830.0,로이동물병원,2019-04-26,127.01575661503075,37.5953564340413
391,307000001020140003,1,영업/정상,0,정상,,서울특별시 성북구 길음동 1284번지 길음뉴타운 제상가비동 제지2층 25호 ,942-4883,"서울특별시 성북구 길음로 33 (길음동, 길음뉴타운 제상가비동 제지2층 25호)",2720.0,카카오 N 동물병원,2019-04-26,127.0179448706489,37.607561163144645
392,307000001020140004,1,영업/정상,0,정상,,서울특별시 성북구 길음동 1163 ,984-0075,서울특별시 성북구 삼양로4길 3 (길음동),2732.0,강북 24시 N 동물의료센터,2021-09-17,127.02437715040672,37.605839856145344
393,307000001020150001,1,영업/정상,0,정상,,서울특별시 성북구 하월곡동 76-16 ,02-6925-4347,서울특별시 성북구 오패산로 75-1 (하월곡동),2737.0,넬 동물의료센터,2021-10-07,127.0357819336523,37.608806958206245
394,307000001020160001,1,영업/정상,0,정상,,서울특별시 성북구 성북동 155-15번지 1층 ,02-766-7577,"서울특별시 성북구 성북로 66, 1층 (성북동)",2835.0,앙리동물병원,2019-04-26,127.00171710962867,37.59345786812012
395,307000001020030001,1,영업/정상,0,정상,,서울특별시 성북구 동소문동5가 8-1번지 ,928-7582,서울특별시 성북구 동소문로 74 (동소문동5가),2846.0,드림동물병원,2018-08-31,127.01369824263519,37.59183534986663
396,307000001020100001,1,영업/정상,0,정상,,서울특별시 성북구 석관동 332-23번지 ,969-0075,서울특별시 성북구 돌곶이로 31 (석관동),2788.0,태양 동물병원,2019-04-26,127.06068495292483,37.60702845760687
397,307000001020100002,1,영업/정상,0,정상,,서울특별시 성북구 종암동 86-1번지 ,927-7585,서울특별시 성북구 종암로 113 (종암동),2803.0,쓰담쓰담 동물병원,2019-04-26,127.03367422895819,37.60016130714337
398,307000001020190001,1,영업/정상,0,정상,,서울특별시 성북구 동선동5가 1번지 ,02-927-7517,"서울특별시 성북구 아리랑로 18, 1층 101호 (동선동5가)",2829.0,성신동물병원,2019-09-29,127.01632726747569,37.59451471939206
399,307000001020190002,1,영업/정상,0,정상,,서울특별시 성북구 길음동 498-1 래미안길음센터피스 ,02-982-7975,"서울특별시 성북구 숭인로 50, 상가동 2203호 (길음동, 래미안길음센터피스)",2727.0,더편한동물병원,2021-09-16,127.02755626734614,37.61041054575517
400,307000001020200001,1,영업/정상,0,정상,,서울특별시 성북구 장위동 173-114 래미안장위퍼스트하이 ,029117582,"서울특별시 성북구 한천로 713, 515동 상가 206,207호 (장위동, 래미안장위퍼스트하이)",2760.0,퍼스트동물병원,2020-11-13,127.05232980334428,37.61916570490073
401,307000001020000004,1,영업/정상,0,정상,,서울특별시 성북구 보문동2가 49번지 ,928-5599,서울특별시 성북구 보문로 137 (보문동2가),2871.0,서울종합동물병원,2019-04-26,127.01819642023848,37.587104044989765
402,307000001020010002,1,영업/정상,0,정상,,서울특별시 성북구 장위동 8-2 석계역 한일노벨리아시티 210호,918-3344,"서울특별시 성북구 화랑로 299, 2층 210호 (장위동, 석계역 한일노벨리아시티)",2779.0,대학동물병원,2021-02-19,127.06112182491333,37.61358724122329
403,307000001020010004,1,영업/정상,0,정상,,서울특별시 성북구 종암동 19-1번지 ,924-4555,서울특별시 성북구 종암로 65 (종암동),2810.0,강북동물병원,2018-08-31,127.0351650735241,37.59620751416777
435,308000001019990001,1,영업/정상,0,정상,,서울특별시 강북구 수유동 319-12 삼흥연립 ,991-4304,서울특별시 강북구 삼양로123길 6-12 (수유동),1029.0,사랑동물병원,2020-11-06,127.01533225241592,37.64535910877914
437,308000001020130001,1,영업/정상,0,정상,,서울특별시 강북구 미아동 777-3 ,02-983-7000,서울특별시 강북구 삼양로 252 (미아동),1122.0,봉식동물병원,2020-11-07,127.01847778815669,37.62586002507692
438,308000001020070001,1,영업/정상,0,정상,,"서울특별시 강북구 미아동 813번지 지층 1-2, 1-3호 110동 ",980-2340,"서울특별시 강북구 삼양로19길 25, 110동 지층 1-2,1-3호 (미아동, 삼성래미안트리베라1차아파트)",1200.0,삼성동물병원,2019-03-10,127.02072627696785,37.613942302223734
439,308000001020140001,1,영업/정상,0,정상,,서울특별시 강북구 미아동 839-223번지 1층 ,02-987-7588,"서울특별시 강북구 솔샘로 203-2, 1층 (미아동)",1187.0,스마트 동물병원,2019-03-10,127.0153472665813,37.62030397727856
440,308000001020040004,1,영업/정상,0,정상,,서울특별시 강북구 번동 471-1번지 ,990-7588,서울특별시 강북구 도봉로98길 56 (번동),1060.0,동물을사랑하는사람들,2019-03-10,127.0327597589689,37.64084734545267
441,308000001020040005,1,영업/정상,0,정상,,서울특별시 강북구 번동 309번지 덕수빌딩 1층 ,985-7525,"서울특별시 강북구 오현로 194 (번동, 덕수빌딩 1층)",1224.0,강북동물병원,2019-03-10,127.03989891503008,37.628812571138184
442,308000001020090001,1,영업/정상,0,정상,,서울특별시 강북구 수유동 472-268번지 예향교회 1층 ,903-5525,"서울특별시 강북구 삼양로 336, 예향교회 1층 (수유동)",1111.0,보노보노동물병원,2019-03-10,127.01774263697186,37.63344728905264
443,308000001020090002,1,영업/정상,0,정상,,서울특별시 강북구 미아동 1318번지 ,988-6543,서울특별시 강북구 월계로 53 (미아동),1237.0,호 동물병원,2019-03-10,127.0353651431372,37.61193256435439
444,308000001020100001,1,영업/정상,0,정상,,서울특별시 강북구 미아동 812번지 래미안트리베라 201동 116호 ,02-986-9875,"서울특별시 강북구 삼양로27길 19 (미아동, 래미안트리베라 201동 116호)",1195.0,쿠키동물병원,2020-05-20,127.02040151022686,37.61731167928712
445,308000001020020002,1,영업/정상,0,정상,,서울특별시 강북구 미아동 812 삼성래미안트리베라아파트 ,988-7582,"서울특별시 강북구 삼양로27길 19, 상가 204동 108호 (미아동, 삼성래미안트리베라아파트)",1195.0,솔샘동물병원,2021-08-05,127.02040151022686,37.61731167928712
446,308000001020020003,1,영업/정상,0,정상,,서울특별시 강북구 수유동 279-290번지 ,996-1007,서울특별시 강북구 삼양로 499 (수유동),1026.0,애니케어 동물병원 수유점,2019-03-10,127.01426003030534,37.64775437648541
447,308000001020150001,1,영업/정상,0,정상,,서울특별시 강북구 미아동 1357-6번지 미아프라자 106호,02-984-7588,"서울특별시 강북구 삼양로27길 35-21, 미아프라자 106호 (미아동)",1196.0,H 동물병원,2020-06-10,127.01893931514012,37.61794948403541
448,308000001020150002,1,영업/정상,0,정상,,서울특별시 강북구 수유동 340-2번지 ,02-993-8266,"서울특별시 강북구 삼양로117길 5, 1층 (수유동)",1033.0,초이스동물병원,2019-03-10,127.01569950467686,37.64339507058133
449,308000001020030003,1,영업/정상,0,정상,,서울특별시 강북구 수유동 266-20 ,998-1785,서울특별시 강북구 한천로 1135(수유동),1039.0,대형동물병원,2021-09-30,127.01822390673722,37.645882121928494
450,308000001020170001,1,영업/정상,0,정상,,"서울특별시 강북구 수유동 39-10번지 1, 2층 ",02-903-7582,"서울특별시 강북구 노해로 65, 1, 2층 (수유동, 리안스페이스)",1077.0,24시 수유 바른펫 동물의료센터,2019-11-30,127.02226547277537,37.641452494651936
451,308000001020170002,1,영업/정상,0,정상,,서울특별시 강북구 미아동 1353-5 에스케이북한산시티 상가동 2동 209호,02-983-8575,"서울특별시 강북구 솔샘로 184, 에스케이북한산시티 상가동 2동 209호 (미아동)",1192.0,사랑의 동물병원,2020-11-06,127.01279256606452,37.61996943656816
452,308000001020030004,1,영업/정상,0,정상,,서울특별시 강북구 미아동 48-24번지 ,02-988-0251,서울특별시 강북구 월계로 35 (미아동),1222.0,창문동물병원,2018-08-31,127.03379366726287,37.611117284658526
453,308000001020030005,1,영업/정상,0,정상,,서울특별시 강북구 미아동 197-9번지 ,02-987-7959,서울특별시 강북구 도봉로 202 (미아동),1133.0,위즈동물병원,2019-07-17,127.02630582281449,37.62674167596927
454,308000001019920001,1,영업/정상,0,정상,,서울특별시 강북구 미아동 734-258 백운M빌딩 ,989-9552,"서울특별시 강북구 삼양로 190, 백운M빌딩 1층 (미아동)",1174.0,삼양동물병원,2020-09-03,127.02107207659925,37.620859964426316
455,308000001019950001,1,영업/정상,0,정상,,서울특별시 강북구 미아동 98-39번지 ,982-8698,서울특별시 강북구 도봉로 88 (미아동),1165.0,중앙동물병원,2019-03-10,127.03039586385995,37.61702688698088
456,308000001019970001,1,영업/정상,0,정상,,서울특별시 강북구 수유동 47-69번지 ,907-1565,서울특별시 강북구 덕릉로 79 (수유동),1081.0,동물병원 위드,2019-06-25,127.02261310494455,37.634803170371164
457,308000001020190001,1,영업/정상,0,정상,,서울특별시 강북구 미아동 42-11 덕신빌딩 4층 ,02-941-7900,"서울특별시 강북구 월계로 3, 덕신빌딩 4층 (미아동)",1220.0,24시루시드동물메디컬센터,2021-10-24,127.03063081775304,37.609571050306336
458,308000001020190002,1,영업/정상,0,정상,,서울특별시 강북구 미아동 561-2번지 현대성우아파트 102동 110호,02-946-0011,"서울특별시 강북구 삼양로24길 19, 102동 110호 (미아동, 현대성우아파트)",1201.0,아이사랑동물병원,2019-04-26,127.02210435080659,37.6172043958941
459,308000001020210002,1,영업/정상,0,정상,,서울특별시 강북구 미아동 561-2 현대성우아파트 ,02)946-0011,"서울특별시 강북구 삼양로24길 19, 현대성우아파트 102동 1층 109호 (미아동, 현대성우아파트)",1201.0,아이사랑동물병원 건강검진센터,2022-01-07,127.02210435080659,37.6172043958941
460,308000001020210001,1,영업/정상,0,정상,,서울특별시 강북구 미아동 137-24 ,070-8691-3121,"서울특별시 강북구 도봉로 110-1, 4층 (미아동)",1164.0,모네동물피부과,2022-01-07,127.02939762316673,37.61891217032775
475,308000001020020001,1,영업/정상,0,정상,,서울특별시 강북구 수유동 252-199번지 ,999-9110,서울특별시 강북구 노해로 94 (수유동),1051.0,현대종합동물병원,2019-03-30,127.02303272733536,37.643766784703516
476,309000001019900001,1,영업/정상,0,정상,,서울특별시 도봉구 쌍문동 356번지 12통7반 삼익빌라 101동 403호,900-9929,서울특별시 도봉구 도봉로 469 (쌍문동),1447.0,퓨리나동물병원,2018-08-31,127.0336603556955,37.64763810077565
478,309000001019950002,1,영업/정상,0,정상,,서울특별시 도봉구 방학동 664-11번지 15통5반 101호,3491-7060,서울특별시 도봉구 도당로 63 (방학동),1356.0,화신종합동물병원,2020-02-26,127.0346525306566,37.663794006963606
479,309000001019990001,1,영업/정상,0,정상,,서울특별시 도봉구 창동 568-5번지 ,992-0074,서울특별시 도봉구 덕릉로 256 (창동),1474.0,한빛동물병원,2018-08-31,127.03979013544756,37.64018981018835
480,309000001019990002,1,영업/정상,0,정상,,서울특별시 도봉구 방학동 653-17 ,3494-0075,서울특별시 도봉구 도봉로 723 (방학동),1350.0,방학동물병원,2021-04-28,127.04320100091503,37.66909479887194
481,309000001020210001,1,영업/정상,0,정상,,서울특별시 도봉구 쌍문동 256 에벤에셀아파트 ,0269547544,"서울특별시 도봉구 해등로 255, 101동 1층 121~123호 (쌍문동, 에벤에셀아파트)",1429.0,보듬동물병원,2021-04-23,127.02823833818583,37.65736808160885
482,309000001020180004,1,영업/정상,0,정상,,서울특별시 도봉구 창동 661-3 ,993-0075,서울특별시 도봉구 도봉로 506 (창동),1453.0,둘리동물병원,2021-12-16,127.0361022125195,37.650370938495975
483,309000001020050002,1,영업/정상,0,정상,,서울특별시 도봉구 쌍문동 88-115번지 1층 ,902-7582,"서울특별시 도봉구 도봉로 499, 1층 (쌍문동)",1442.0,삼성동물종합병원,2018-08-31,127.03528958761304,37.65022906931033
484,309000001020050006,1,영업/정상,0,정상,,서울특별시 도봉구 방학동 731 한화아파트 상가 105호 ,955-2882,"서울특별시 도봉구 방학로 187, 105호 (방학동, 한화아파트 상가)",1383.0,유현동물병원,2020-07-17,127.03170992060552,37.66129125017763
485,309000001020020001,1,영업/정상,0,정상,,서울특별시 도봉구 방학동 665-11번지 2통6반 삼익세라믹아파트 105동 503호,3491-4748,서울특별시 도봉구 방학로 162 (방학동),1356.0,가나동물병원,2018-08-31,127.03409860269176,37.66271405153556
486,309000001020180006,1,영업/정상,0,정상,,서울특별시 도봉구 도봉동 562-26번지 ,955-8400,서울특별시 도봉구 도봉로 875 (도봉동),1304.0,도담동물병원,2019-05-01,127.04554018823276,37.682675937280365
487,309000001020190003,1,영업/정상,0,정상,,서울특별시 도봉구 도봉동 623-103번지 1층 ,6369-0075,"서울특별시 도봉구 마들로 695, 1층 (도봉동)",1328.0,빛가온동물병원,2019-04-20,127.04636598214482,37.67219499792061
488,309000001020190002,1,영업/정상,0,정상,,서울특별시 도봉구 방학동 680-1번지 1층 ,3491-8000,"서울특별시 도봉구 도봉로 669, 1층 (방학동)",1346.0,현대종합동물병원,2020-06-06,127.04206196988521,37.664401791989526
489,309000001020190004,1,영업/정상,0,정상,,서울특별시 도봉구 도봉동 636-12 킴스타워 ,955-6530,"서울특별시 도봉구 마들로 664, 킴스타워 2층 (도봉동)",1330.0,김미경 동물병원,2021-10-22,127.04649935932267,37.669418989824784
490,309000001020200001,1,영업/정상,0,정상,,서울특별시 도봉구 창동 743-23 ,,"서울특별시 도봉구 마들로 548, 102, 103호 (창동)",1408.0,블루핀동물병원,2020-07-16,127.0499197937609,37.660381232153696
491,309000001020130002,1,영업/정상,0,정상,,서울특별시 도봉구 창동 75-4번지 ,2038-9980,"서울특별시 도봉구 노해로65길 14, 1층, 지층 (창동, 영일빌딩)",1405.0,하비동물병원,2020-01-24,127.0465311758127,37.652041803380854
492,309000001020140001,1,영업/정상,0,정상,,서울특별시 도봉구 쌍문동 716-31번지 ,02-905-9119,"서울특별시 도봉구 도봉로 603, 1층, 지층 (쌍문동)",1392.0,별난동물병원,2018-08-31,127.0403049108352,37.65859275362828
493,309000001020150001,1,영업/정상,0,정상,,서울특별시 도봉구 방학동 653-17 3층 ,3494-0075,"서울특별시 도봉구 도봉로 723, 3층 (방학동)",1350.0,방학동물외과센터,2021-12-18,127.04320100091503,37.66909479887194
494,309000001020170002,1,영업/정상,0,정상,,서울특별시 도봉구 창동 650-11번지 ,906-7575,서울특별시 도봉구 도봉로110다길 20 (창동),1459.0,트윈스동물병원,2019-05-01,127.03370016632414,37.645359717527406
495,309000001020170004,1,영업/정상,0,정상,,서울특별시 도봉구 도봉동 62-43번지 도봉투웨니퍼스트2단지 ,954-6990,"서울특별시 도봉구 도봉로180길 28, 도봉투웨니퍼스트2단지 (도봉동)",1320.0,해봄동물병원,2019-05-01,127.04750440685234,37.682544425492615
496,309000001020180001,1,영업/정상,0,정상,,서울특별시 도봉구 쌍문동 45-8번지 ,997-0075,서울특별시 도봉구 해등로 184 (쌍문동),1394.0,태일동물종합병원,2019-05-01,127.03642431837343,37.65793667322339
497,309000001020180003,1,영업/정상,0,정상,,서울특별시 도봉구 창동 731-72번지 ,999-7582,서울특별시 도봉구 도봉로 586 (창동),1401.0,강북우리동물의료센터,2019-05-01,127.04003448484708,37.65687103949154
498,309000001020090001,1,영업/정상,0,정상,,서울특별시 도봉구 창동 749-16번지 ,996-8275,"서울특별시 도봉구 도봉로 618, 108호 (창동)",1397.0,행복한동물병원,2019-03-09,127.04177839609889,37.65943028859931
499,309000001020090002,1,영업/정상,0,정상,,서울특별시 도봉구 쌍문동 262-10번지 104호,907-7512,서울특별시 도봉구 시루봉로 59 (쌍문동),1375.0,사랑해요동물병원,2018-08-31,127.02771819465855,37.65619057126136
500,309000001020130001,1,영업/정상,0,정상,,서울특별시 도봉구 방학동 713-35 ,02-6402-0365,서울특별시 도봉구 방학로 54 (방학동),1335.0,365동물병원,2020-07-28,127.04636356820244,37.66296777743905
531,309000001019940001,1,영업/정상,0,정상,,서울특별시 도봉구 창동 635-42번지 20통1반 건영캐스빌아파트 101동 1201호,992-9414,서울특별시 도봉구 덕릉로 230 (창동),1473.0,신창동물병원,2018-08-31,127.03403410811872,37.64144067115258
541,310000001019980001,1,영업/정상,0,정상,,서울특별시 노원구 중계동 363번지 대림벽산상가 102호,935-0075,"서울특별시 노원구 한글비석로8길 16, 102호 (중계동, 대림벽산상가)",1738.0,25시동물병원,2018-08-31,127.07791494089449,37.647276014423426
542,310000001019990001,1,영업/정상,0,정상,,서울특별시 노원구 상계동 1110번지 42통7반 두산아파트 111동 1107호,02-932-6658,"서울특별시 노원구 동일로 1649 (상계동, 윤일빌딩)",1608.0,은빛동물병원,2019-03-14,127.05314820165003,37.67738444655315
543,310000001020180004,1,영업/정상,0,정상,,서울특별시 노원구 상계동 1025-32번지 1층 ,02-930-7161,"서울특별시 노원구 동일로 1626, 1층 (상계동)",1630.0,서정동물병원,2019-04-27,127.0558228297413,37.67357096139484
544,310000001020180005,1,영업/정상,0,정상,,서울특별시 노원구 상계동 746-4번지 명지프라자빌딩 102호,02-932-8575,"서울특별시 노원구 동일로 1363, 명지프라자빌딩 102호 (상계동)",1763.0,더싼 동물병원,2019-04-27,127.06126536783331,37.65041787693033
545,310000001020050003,1,영업/정상,0,정상,,서울특별시 노원구 상계동 1265번지 동방미주(아)109-1001 ,930-7975,"서울특별시 노원구 동일로 1689 (상계동, 하이베라스)",1604.0,수 동물병원,2018-08-31,127.05659133745245,37.681604700879326
546,310000001020060001,1,영업/정상,0,정상,,서울특별시 노원구 중계동 413-9 두림빌딩 102호,952-6426,"서울특별시 노원구 덕릉로 589, 두림빌딩 102호 (중계동)",1708.0,엘케이동물병원,2021-07-16,127.07173974663665,37.65096967640214
547,310000001020060002,1,영업/정상,0,정상,,서울특별시 노원구 중계동 525번지 풍림(아) 111-1808 ,6224-3858,"서울특별시 노원구 동일로203가길 29 (중계동, 브라운스톤중계)",1779.0,브라운동물병원,2018-08-31,127.0642572490894,37.639936247671336
548,310000001020060003,1,영업/정상,0,정상,,서울특별시 노원구 상계동 11-410번지 태성빌라 202호 ,937-9724,"서울특별시 노원구 동일로 1622 (상계동, 유성상가)",1630.0,수락 동물병원,2019-11-07,127.05597289959879,37.673006700835636
549,310000001020060004,1,영업/정상,0,정상,,서울특별시 노원구 공릉동 227-68번지 ,949-7512,서울특별시 노원구 화랑로 473 (공릉동),1803.0,화랑동물병원,2018-08-31,127.07964521261421,37.61928566796354
550,310000001020070002,1,영업/정상,0,정상,,서울특별시 노원구 월계동 98-9 ,900-7710,"서울특별시 노원구 월계로45길 28 (월계동, 월계아파트형공장)",1882.0,유림동물병원,2022-02-10,127.05125357112873,37.6269408015146
551,310000001020080001,1,영업/정상,0,정상,,서울특별시 노원구 월계동 52-24번지 ,973-7588,서울특별시 노원구 화랑로 349 (월계동),1914.0,우솔동물병원,2018-08-31,127.06665788548501,37.615393563817314
552,310000001020080002,1,영업/정상,0,정상,,서울특별시 노원구 상계동 749-10 ,951-7582,서울특별시 노원구 동일로 1370 (상계동),1756.0,(주)한빛종합동물병원,2021-04-07,127.06188060389826,37.65092279117452
553,310000001020080003,1,영업/정상,0,정상,,서울특별시 노원구 중계동 947-16번지 38통5반 3층 ,978-4775,"서울특별시 노원구 섬밭로 258 (중계동, 건영옴니백화점)",1779.0,웰리스 동물병원,2019-07-24,127.06475444554881,37.63882673427046
555,310000001020100001,1,영업/정상,0,정상,,서울특별시 노원구 상계동 682번지 13통8반 동신아파트 103동 708호,939-6898,서울특별시 노원구 한글비석로52길 18 (상계동),1655.0,이앤박동물병원,2018-08-31,127.0638269763385,37.66455149176767
556,310000001020100002,1,영업/정상,0,정상,,서울특별시 노원구 월계동 3-94번지 드림빌 201호 ,905-7588,서울특별시 노원구 월계로 333 (월계동),1879.0,아란종합동물병원,2018-08-31,127.05736365827381,37.62935743637048
557,310000001020110001,1,영업/정상,0,정상,,서울특별시 노원구 공릉동 494-17번지 영운빌딩 1층 ,976-7582,"서울특별시 노원구 동일로 1051 (공릉동, 영운빌딩 1층)",1857.0,스마일플러스동물병원,2018-08-31,127.07323178250162,37.62380133775669
558,310000001019940001,1,영업/정상,0,정상,,서울특별시 노원구 중계동 503번지 시영1단지B상가 118호,973-5959,"서울특별시 노원구 동일로207길 17, 118호 (중계동, 시영1단지B상가 )",1778.0,롯데동물병원,2018-08-31,127.06410842608189,37.642026332862095
559,310000001020200002,1,영업/정상,0,정상,,서울특별시 노원구 상계동 318-2 (주)노원24시동물의료센터 3층 ,070-4351-3854,"서울특별시 노원구 노원로 408, (주)노원24시동물의료센터 3층 (상계동)",1704.0,앤(N)고양이병원,2021-10-22,127.06812544432603,37.65317735416941
560,310000001020120002,1,영업/정상,0,정상,,"서울특별시 노원구 중계동 360-9 두타빌 A동 111,112호 ",939-7579,"서울특별시 노원구 한글비석로 245 (중계동, 두타빌 A동 111,112호)",1743.0,중계이오동물병원,2021-08-14,127.07637751961909,37.64959686829792
561,310000001020120003,1,영업/정상,0,정상,,서울특별시 노원구 중계동 361번지 ,951-7707,서울특별시 노원구 노원로 330 (중계동),1746.0,펫가든,2018-08-31,127.07108998324219,37.64654839682095
562,310000001020130001,1,영업/정상,0,정상,,서울특별시 노원구 공릉동 362-3번지 ,977-0275,서울특별시 노원구 동일로 1104 (공릉동),1839.0,엔젤동물병원,2018-08-31,127.07187656424091,37.62850379456356
563,310000001019990002,1,영업/정상,0,정상,,서울특별시 노원구 중계동 450번지 ,931-1575,"서울특별시 노원구 한글비석로 363, 종로약국 (중계동)",1699.0,은마로동물병원,2019-08-07,127.07442694581313,37.6579100944877
564,310000001020130003,1,영업/정상,0,정상,,서울특별시 노원구 상계동 318-2 (주)노원24시동물의료센터 1층 ,919-0075,"서울특별시 노원구 노원로 408, (주)노원24시동물의료센터 1층 (상계동)",1704.0,주식회사 노원24시동물의료센터,2022-02-13,127.06812544432603,37.65317735416941
565,310000001020150001,1,영업/정상,0,정상,,서울특별시 노원구 공릉동 576-23 ,,서울특별시 노원구 동일로 1025-1 (공릉동),1858.0,메인동물메디컬센터,2021-03-13,127.07392313090698,37.621709745291824
566,310000001020160001,1,영업/정상,0,정상,,"서울특별시 노원구 상계동 318-2 (주)노원24시동물의료센터 2, 4층 ",02-932-0075,"서울특별시 노원구 노원로 408, (주)노원24시동물의료센터 2, 4층 (상계동)",1704.0,한국동물암센터,2021-03-24,127.06812544432603,37.65317735416941
567,310000001020160002,1,영업/정상,0,정상,,서울특별시 노원구 상계동 397-5번지 ,02-952-7582,"서울특별시 노원구 노원로 470, 1층 (상계동, 금녕빌딩)",1685.0,스마트동물병원,2018-08-31,127.06575908700489,37.658460892538926
568,310000001020160003,1,영업/정상,0,정상,,서울특별시 노원구 공릉동 90-1번지 해중빌딩 105호,02-949-7582,"서울특별시 노원구 노원로1길 9 (공릉동, 해중빌딩)",1827.0,키움 동물병원,2018-08-31,127.0863929303672,37.62219249320161
569,310000001019990003,1,영업/정상,0,정상,,서울특별시 노원구 상계동 78번지 15통2반 진로유통조합아파트 1102호,02-936-0907,"서울특별시 노원구 노원로 540 (상계동, 상계주공아파트 9단지상가)",1676.0,그린동물병원,2019-03-14,127.05939546021752,37.661457447100915
570,310000001020000001,1,영업/정상,0,정상,,서울특별시 노원구 상계동 79-145번지 44통4반 ,3391-0075,"서울특별시 노원구 덕릉로 738 (상계동, 정진145빌딩)",1648.0,고려동물병원,2018-08-31,127.07625107471557,37.66341969488784
571,310000001020180002,1,영업/정상,0,정상,,서울특별시 노원구 월계동 333-1번지 월계이마트 ,02-949-0975,"서울특별시 노원구 마들로3길 15, 월계이마트 2층 (월계동)",1906.0,웰니스 동물병원,2020-06-04,127.06185806117327,37.62734056922862
572,310000001020180003,1,영업/정상,0,정상,,서울특별시 노원구 월계동 292-59번지 상천빌딩1층 ,02-905-7588,"서울특별시 노원구 월계로 336, 상천빌딩 1층 (월계동)",1885.0,닥터스종합동물병원,2019-04-27,127.05784581090866,37.62914964332212
573,310000001020010001,1,영업/정상,0,정상,,서울특별시 노원구 공릉동 94-6번지 13통7반 301호,949-5975,서울특별시 노원구 공릉로 168 (공릉동),1818.0,미래동물병원,2018-08-31,127.08007189831707,37.625005605324475
574,310000001020010002,1,영업/정상,0,정상,,서울특별시 노원구 중계동 512번지 시영2단지상가 116호,979-8275,"서울특별시 노원구 동일로 1280, 116호 (중계동, 시영2단지상가)",1782.0,우리들동물종합병원,2018-08-31,127.06656755715404,37.64272091539423
575,310000001020020003,1,영업/정상,0,정상,,서울특별시 노원구 상계동 71-225번지 23통5반 ,02-932-7582,서울특별시 노원구 덕릉로 810-1 (상계동),1646.0,당고개동물병원,2019-03-14,127.08423943084588,37.67043030804373
576,310000001020020004,1,영업/정상,0,정상,,서울특별시 노원구 중계동 366-10번지 중원코아빌딩 101호,02-938-1122,"서울특별시 노원구 한글비석로 272, 101호 (중계동, 중원코아빌딩)",1720.0,참사랑동물병원,2019-12-20,127.07759291968415,37.65173577231777
577,310000001020020008,1,영업/정상,0,정상,,서울특별시 노원구 상계동 2-1번지 부영(아) 109-1903 ,952-0089,"서울특별시 노원구 동일로 1530 (상계동, 다모아빌딩)",1674.0,참동물병원,2019-11-07,127.05806037723914,37.66507343829933
578,310000001020030001,1,영업/정상,0,정상,,서울특별시 노원구 상계동 430-13번지 ,935-7588,서울특별시 노원구 노원로34길 76 (상계동),1679.0,한강동물병원,2018-08-31,127.06606852730738,37.66246790978464
579,310000001020040002,1,영업/정상,0,정상,,서울특별시 노원구 공릉동 441-152 1층 ,971-7511,"서울특별시 노원구 동일로192길 87, 1층 (공릉동)",1833.0,수피아동물병원,2021-10-27,127.07756389490798,37.627702811963786
580,310000001020050001,1,영업/정상,0,정상,,서울특별시 노원구 상계동 749-5번지 상계주공4단지아파트 ,908-7585,"서울특별시 노원구 동일로 1356, 상가동 2층 201호 (상계동, 상계주공4단지아파트)",1756.0,시마동물병원,2018-08-31,127.0622172762928,37.650065510544586
581,310000001020190001,1,영업/정상,0,정상,,서울특별시 노원구 상계동 763-5 ,02-931-1333,서울특별시 노원구 동일로 1333 (상계동),1767.0,브이아이피 동물의료센터,2021-04-21,127.06232893304417,37.64782616705082
582,310000001020200001,1,영업/정상,0,정상,,서울특별시 노원구 공릉동 596-5 ,02-971-5955,"서울특별시 노원구 동일로 1014, 1층, 2층 (공릉동)",1848.0,골드퍼피동물병원 공릉점,2022-02-26,127.07492556015299,37.620636233673395
583,310000001020210001,1,영업/정상,0,정상,,서울특별시 노원구 상계동 1025-31 1층 ,02-952-9111,"서울특별시 노원구 동일로 1636, 1층 (상계동)",1630.0,나우동물의료센터,2021-10-03,127.05561464746282,37.674402209941036
633,311000001020200003,1,영업/정상,0,정상,,서울특별시 은평구 불광동 276-32 ,02-6956-7599,"서울특별시 은평구 불광로 59, 1층 나호 (불광동)",3358.0,동물병원 움,2020-11-11,126.93171163572765,37.61235075429181
634,311000001020180002,1,영업/정상,0,정상,,서울특별시 은평구 대조동 223-13번지 1층 ,02-358-7582,"서울특별시 은평구 연서로 162, 1층 (대조동)",3388.0,연서동물종합병원,2019-03-08,126.91787167726783,37.61319862913542
635,311000001020210003,1,영업/정상,0,정상,,서울특별시 은평구 진관동 63 롯데몰 은평점 ,,"서울특별시 은평구 통일로 1050, 롯데몰 은평점 2층 (진관동)",3306.0,아이러브펫동물병원 은평점,2021-09-10,126.91919651172937,37.639155660239545
636,311000001020210001,1,영업/정상,0,정상,,서울특별시 은평구 역촌동 7-15 대광빌딩 ,0269527519,"서울특별시 은평구 연서로 122, 대광빌딩 1,2층 (역촌동)",3399.0,24시예담동물의료센터,2021-05-01,126.9168123167819,37.6095898684669
637,311000001020160001,1,영업/정상,0,정상,,서울특별시 은평구 진관동 82번지 은평뉴타운우물골아파트 두산위브 202동 B01호 ,02-387-8275,"서울특별시 은평구 진관2로 67, 202동 B층 01호 (진관동, 은평뉴타운우물골아파트)",3306.0,서울햇빛동물병원,2019-03-08,126.92455182220644,37.63458262316826
638,311000001020100001,1,영업/정상,0,정상,,서울특별시 은평구 진관동 5번지 은평뉴타운상림마을 629동 116호,382-7511,"서울특별시 은평구 진관4로 87, 629동 116호 (진관동, 은평뉴타운상림마을)",3304.0,한빛동물병원,2018-08-31,126.9288471890757,37.647960427180614
639,311000001019960001,1,영업/정상,0,정상,,서울특별시 은평구 신사동 20-24번지 ,388-3008,서울특별시 은평구 은평로 29 (신사동),3423.0,늘푸른동물병원,2020-05-31,126.91100847259438,37.59826165664657
640,311000001019960002,1,영업/정상,0,정상,,서울특별시 은평구 녹번동 117-112번지 ,354-4110,서울특별시 은평구 통일로 697 (녹번동),3375.0,녹번동물병원,2018-08-31,126.93174143032977,37.60808986224415
641,311000001020070004,1,영업/정상,0,정상,,서울특별시 은평구 대조동 179-16 북한산 포레스트 ,358-7566,"서울특별시 은평구 서오릉로 80(대조동, 북한산 포레스트)",3395.0,새은평동물의료센터,2022-02-24,126.92218578605218,37.60759107614287
642,311000001020020003,1,영업/정상,0,정상,,서울특별시 은평구 갈현동 462-25번지 ,384-7743,서울특별시 은평구 연서로 185 (갈현동),3334.0,금쪽같은내새끼 동물병원,2018-08-31,126.91782733588354,37.6153585435787
643,311000001020020004,1,영업/정상,0,정상,,서울특별시 은평구 신사동 9-34번지 ,355-7931,서울특별시 은평구 갈현로 35 (신사동),3435.0,한마음동물병원,2018-08-31,126.91011792088976,37.60099344407145
644,311000001020170002,1,영업/정상,0,정상,,서울특별시 은평구 진관동 83번지 은평뉴타운우물골 205동 B104호,02-6953-8275,"서울특별시 은평구 진관2로 77, 205동 지하1층 B104호 (진관동, 은평뉴타운우물골)",3306.0,우리덕구동물병원,2019-03-08,126.92756812295264,37.6345636999397
645,311000001020170003,1,영업/정상,0,정상,,서울특별시 은평구 증산동 202-27번지 지하1층 ,02-373-5555,"서울특별시 은평구 증산로9길 26-23, 지하1층 (증산동)",3496.0,가든펫동물병원,2019-03-08,126.90856382854105,37.58693715595658
646,311000001019750002,1,영업/정상,0,정상,,서울특별시 은평구 응암동 119-17번지 ,387-6920,서울특별시 은평구 응암로 261 (응암동),3455.0,응암동물병원,2018-08-31,126.9183428596392,37.59526417817715
647,311000001019880001,1,영업/정상,0,정상,,서울특별시 은평구 갈현동 394-19번지 ,357-8538,서울특별시 은평구 통일로 879 (갈현동),3329.0,김정복동물병원,2019-03-08,126.91956817932859,37.621380070595826
648,311000001019900001,1,영업/정상,0,정상,,서울특별시 은평구 불광동 274-10번지 ,356-1656,서울특별시 은평구 불광로 37 (불광동),3358.0,불광동물병원,2020-05-30,126.92978147398385,37.611321315793525
649,311000001019950001,1,영업/정상,0,정상,,서울특별시 은평구 응암동 576-25번지 ,304-5553,서울특별시 은평구 응암로 226 (응암동),3467.0,한얼동물병원,2018-08-31,126.91791554798512,37.59204420874399
650,311000001020190001,1,영업/정상,0,정상,,서울특별시 은평구 녹번동 215 ,02-6964-8276,서울특별시 은평구 은평로 213 (녹번동),3383.0,24시 치유동물의료센터,2021-07-23,126.93134929697739,37.601414156103715
651,311000001020200001,1,영업/정상,0,정상,,서울특별시 은평구 진관동 67-1번지 은평구 뉴타운2지구 에코테라스 102호,02-384-3100,"서울특별시 은평구 진관3로 37, 은평구 뉴타운2지구 에코테라스 102호 (진관동)",3301.0,피움동물병원,2020-05-06,126.91922298043211,37.63819853641729
652,311000001020200002,1,영업/정상,0,정상,,서울특별시 은평구 녹번동 28-1 ,,서울특별시 은평구 통일로 665 (녹번동),3382.0,어울동물의료센터,2020-08-28,126.93361650768998,37.605867922192864
653,311000001020210002,1,영업/정상,0,정상,,서울특별시 은평구 응암동 603-52 ,0234777677,"서울특별시 은평구 응암로 152, 101호 (응암동)",3478.0,다솜동물병원,2021-08-14,126.91570686167884,37.58564174830598
654,311000001020140001,1,영업/정상,0,정상,,서울특별시 은평구 응암동 194-23 ,02-969-7582,서울특별시 은평구 백련산로 145 (응암동),3463.0,스머프동물병원,2021-07-21,126.92508987303215,37.59820221368385
655,311000001020140002,1,영업/정상,0,정상,,서울특별시 은평구 불광동 554-1번지 1층 ,02-356-8353,"서울특별시 은평구 불광로 60, 1층 (불광동)",3365.0,다루동물병원,2019-03-08,126.93210882556009,37.612377655806654
656,311000001020150001,1,영업/정상,0,정상,,서울특별시 은평구 역촌동 51-22번지 ,02-388-0275,서울특별시 은평구 역말로 7 (역촌동),3415.0,도담동물병원,2019-03-08,126.91114765535725,37.605724716152714
657,311000001020000002,1,영업/정상,0,정상,,서울특별시 은평구 갈현동 498-3번지 ,386-6092,서울특별시 은평구 서오릉로 192 (갈현동),3335.0,미래동물병원,2020-05-29,126.91233379338871,37.613776411392486
658,311000001020010001,1,영업/정상,0,정상,,서울특별시 은평구 대조동 224-24번지 ,382-3243,서울특별시 은평구 서오릉로 140 (대조동),3394.0,더독동물병원,2018-08-31,126.91761486102101,37.61136236602646
659,311000001020120001,1,영업/정상,0,정상,,서울특별시 은평구 대조동 187-24번지 ,02-359-2020,서울특별시 은평구 통일로 817 (대조동),3385.0,Dr.윤24시동물병원,2019-07-25,126.9231741649928,37.61654675429366
660,311000001020120002,1,영업/정상,0,정상,,서울특별시 은평구 진관동 20번지 상림마을 821동 101호 ,385-8275,"서울특별시 은평구 진관3로 70 (진관동, 상림마을 821동 101호)",3302.0,뉴타운동물병원,2019-03-08,126.922646268026,37.642221597667564
661,311000001020120003,1,영업/정상,0,정상,,"서울특별시 은평구 갈현동 431-5번지 지층, 2층 ",02-358-1591,"서울특별시 은평구 연서로29길 24, 지, 2층 (갈현동, 정운빌딩)",3330.0,도그원 동물의료센터,2020-02-20,126.91773169496739,37.619640900527486
662,311000001020130001,1,영업/정상,0,정상,,서울특별시 은평구 응암동 91-5 ,02-387-7582,서울특별시 은평구 은평로 93 (응암동),3461.0,24시스마트동물메디컬센터,2021-11-06,126.91812697629994,37.59978119401053
663,311000001020160002,1,영업/정상,0,정상,,서울특별시 은평구 불광동 104-94번지 ,02-354-7544,"서울특별시 은평구 연서로 317 (불광동, 동윤빌딩)",3343.0,둘레길동물병원,2019-03-08,126.92769810170594,37.62375606628358
664,311000001020160004,1,영업/정상,0,정상,,서울특별시 은평구 대조동 14-27번지 2층 ,02-352-7275,"서울특별시 은평구 통일로 727-5, 2층 (대조동)",3397.0,개와냥이동물병원,2019-03-08,126.92921647898639,37.61020624783528
665,311000001020160005,1,영업/정상,0,정상,,서울특별시 은평구 응암동 244-212번지 ,02-3152-0075,서울특별시 은평구 백련산로 29 (응암동),3470.0,참좋은동물병원,2019-03-08,126.92245901367913,37.5882140495835
666,311000001020030005,1,영업/정상,0,정상,,서울특별시 은평구 역촌동 22-49번지 101호,356-7547,"서울특별시 은평구 연서로 72, 1층 101호 (역촌동)",3402.0,우신동물병원,2018-08-31,126.91571106272168,37.60556954384499
667,311000001020040004,1,영업/정상,0,정상,,서울특별시 은평구 갈현동 394-27번지 ,02-384-0075,서울특별시 은평구 통일로 885 (갈현동),3329.0,메디펫동물병원,2018-08-31,126.91952283590606,37.62198185125108
668,311000001020050004,1,영업/정상,0,정상,,서울특별시 은평구 증산동 174-6번지 103호 ,306-8575,"서울특별시 은평구 증산로 267, 103호 (증산동)",3500.0,한수24시동물병원,2020-06-24,126.90704390321604,37.581800329555385
669,311000001020060001,1,영업/정상,0,정상,,서울특별시 은평구 구산동 1-1번지 ,354-0975,서울특별시 은평구 연서로 137 (구산동),3412.0,로얄동물병원,2020-06-07,126.916803468427,37.6111523920062
670,311000001020170001,1,영업/정상,0,정상,,"서울특별시 은평구 불광동 643 북한산 힐스테이트7차, 상가동 지하2층 128호, 지하1층 228호 ",02-356-9475,"서울특별시 은평구 통일로 796, 상가동 지하2층 128호, 지하1층 228호 (불광동, 북한산 힐스테이트7차)",3357.0,담은동물병원,2021-08-27,126.9266860627506,37.616531576980954
671,311000001019990002,1,영업/정상,0,정상,,서울특별시 은평구 응암동 589-12번지 2층 ,02-306-0158,"서울특별시 은평구 가좌로 239, 2층 (응암동, 스타이루)",3484.0,오거리동물병원,2018-08-31,126.9159714122632,37.59079658763635
672,311000001020000001,1,영업/정상,0,정상,,서울특별시 은평구 응암동 74-14번지 ,382-7582,서울특별시 은평구 은평로 208 (응암동),3472.0,LOVE MY PET 동물병원,2019-03-08,126.93073719296068,37.6010440488151
673,311000001020090002,1,영업/정상,0,정상,,서울특별시 은평구 응암동 107-12번지 ,354-0087,서울특별시 은평구 응암로 286 (응암동),3465.0,야옹동물병원,2019-03-08,126.92005651765776,37.596970468773364
697,312000001020090001,1,영업/정상,0,정상,,서울특별시 서대문구 북가좌동 333-7번지 302호,307-3335,서울특별시 서대문구 응암로 117 (북가좌동),3677.0,초콜릿종합동물병원,2019-01-13,126.91348128556606,37.58312995580973
699,312000001020110003,1,영업/정상,0,정상,,서울특별시 서대문구 북가좌동 304-29번지 ,02-305-8275,서울특별시 서대문구 거북골로 178 (북가좌동),3691.0,가재울봉쥬르동물병원,2018-08-31,126.9108986453143,37.57718182377564
700,312000001020120001,1,영업/정상,0,정상,,서울특별시 서대문구 북가좌동 306-21번지 ,302-3275,서울특별시 서대문구 응암로 66 (북가좌동),3691.0,두리틀동물병원,2019-02-16,126.91080725273744,37.57883712247836
701,312000001020150001,1,영업/정상,0,정상,,서울특별시 서대문구 남가좌동 385번지 DMC파크뷰자이 ,0262720075,"서울특별시 서대문구 가재울미래로 2, 상가403, 상가404동 108호 (남가좌동, DMC파크뷰자이)",3711.0,햇살동물병원,2020-04-10,126.91783720863677,37.572257975790045
702,312000001020180002,1,영업/정상,0,정상,,서울특별시 서대문구 북가좌동 300-2번지 ,02-373-7500,"서울특별시 서대문구 응암로 76, 102호 (북가좌동)",3683.0,위드 동물병원,2019-01-13,126.91143603470077,37.57964162066893
703,312000001020150003,1,영업/정상,0,정상,,서울특별시 서대문구 냉천동 195번지 ,02-733-5060,서울특별시 서대문구 통일로 171-1 (냉천동),3735.0,독립문동물병원,2019-01-13,126.96319656584494,37.56909289783505
704,312000001020150004,1,영업/정상,0,정상,,서울특별시 서대문구 남가좌동 124-1번지 ,02-305-4242,"서울특별시 서대문구 가재울미래로 2 (남가좌동, DMC파크뷰자이)",3711.0,어울림동물병원,2018-08-31,126.91844995339142,37.57024055050916
705,312000001020150005,1,영업/정상,0,정상,,서울특별시 서대문구 남가좌동 369-10번지 ,02-305-5975,"서울특별시 서대문구 증가로 150, 100동 B209, B210호 (남가좌동)",3670.0,오즈동물병원,2019-12-25,126.92015811649495,37.57878097809333
706,312000001020170001,1,영업/정상,0,정상,,서울특별시 서대문구 남가좌동 385번지 DMC파크뷰자이 ,02-305-7505,"서울특별시 서대문구 가재울미래로 2, 204동 1층 102-2,103-1호 (남가좌동, DMC파크뷰자이)",3711.0,강앤정 동물병원,2018-10-03,126.91783720863677,37.572257975790045
707,312000001020180001,1,영업/정상,0,정상,,서울특별시 서대문구 연희동 135-9번지 내풍빌딩 ,02-3144-7582,"서울특별시 서대문구 연희로 114, 내풍빌딩 지층 (연희동)",3724.0,에이플러스 동물병원,2018-10-03,126.93192500420881,37.5678625048063
708,312000001019940001,1,영업/정상,0,정상,,서울특별시 서대문구 북가좌동 308-1번지 ,307-4633,서울특별시 서대문구 응암로 77 (북가좌동),3679.0,가좌동물병원,2018-10-03,126.91114845462215,37.58003110712814
709,312000001019960002,1,영업/정상,0,정상,,서울특별시 서대문구 홍은동 398-9번지 ,373-2923,서울특별시 서대문구 가좌로 104 (홍은동),3659.0,백년동물병원,2019-01-13,126.9267080463434,37.58204541992438
710,312000001019970001,1,영업/정상,0,정상,,서울특별시 서대문구 홍제동 103-6번지 ,737-8375,서울특별시 서대문구 통일로 392 (홍제동),3633.0,한솔동물병원,2018-10-03,126.94865538838862,37.58490701887254
711,312000001019970002,1,영업/정상,0,정상,,서울특별시 서대문구 북아현동 126-12번지 ,393-0075,서울특별시 서대문구 신촌로 289-1 (북아현동),3758.0,북아현동물병원,2018-10-03,126.9582783722257,37.55754600773865
712,312000001019980001,1,영업/정상,0,정상,,서울특별시 서대문구 홍제동 330-54번지 ,396-5525,서울특별시 서대문구 통일로 463 (홍제동),3636.0,홍제동물병원,2018-10-03,126.94274184384736,37.58963707353296
713,312000001020030005,1,영업/정상,0,정상,,서울특별시 서대문구 연희동 89-9번지 ,332-2883,서울특별시 서대문구 연희로25길 101 (연희동),3699.0,연희동물병원,2019-01-13,126.93208466225592,37.56916045675942
714,312000001020050001,1,영업/정상,0,정상,,서울특별시 서대문구 북아현동 136-21번지 e편한세상신촌 4단지 ,365-7582,"서울특별시 서대문구 신촌로35길 10, 지하1층 424호 (북아현동, e편한세상신촌 4단지)",3772.0,마음을 나누는 동물병원,2018-10-03,126.95536881317221,37.55782682702732
715,312000001020010002,1,영업/정상,0,정상,,서울특별시 서대문구 홍은동 217-30번지 나호,3217-1081,서울특별시 서대문구 통일로 489 (홍은동),3647.0,신영동물병원,2019-05-25,126.94093067118831,37.591664406748315
716,312000001020020001,1,영업/정상,0,정상,,서울특별시 서대문구 연희동 88-20번지 ,02-333-8632,서울특별시 서대문구 연희로 132 (연희동),3723.0,라파엘종합동물병원,2019-01-13,126.93305274583139,37.56921213246124
717,312000001020020002,1,영업/정상,0,정상,,서울특별시 서대문구 남가좌동 381번지 ,309-8275,"서울특별시 서대문구 거북골로 120 (남가좌동, DMC센트레빌아파트)",3690.0,프란다스동물병원,2019-01-13,126.9156591132092,37.5759738575468
718,312000001020190001,1,영업/정상,0,정상,,서울특별시 서대문구 연희동 79-12 ,02-333-7750,"서울특별시 서대문구 연희로 178, 1층 (연희동)",3723.0,헬로우 동물병원,2021-04-07,126.93575908142054,37.572771299064335
719,312000001020200002,1,영업/정상,0,정상,,서울특별시 서대문구 북아현동 251-40 ,02-393-7577,"서울특별시 서대문구 신촌로 209, 1,2층 (북아현동)",3767.0,링크동물의료센터,2022-02-09,126.94926857335645,37.557209530875056
720,312000001020040004,1,영업/정상,0,정상,,서울특별시 서대문구 영천동 299 ,393-6675,서울특별시 서대문구 통일로 197 (영천동),3734.0,우리동물병원,2021-07-30,126.96128883105288,37.570924555502764
721,312000001020040006,1,영업/정상,0,정상,,서울특별시 서대문구 홍제동 90-67번지 ,739-5834,서울특별시 서대문구 통일로 375 (홍제동),3730.0,빛가온동물병원,2019-01-13,126.9493002868045,37.583524862277336
753,312000001020110001,1,영업/정상,0,정상,,서울특별시 서대문구 남가좌동 338-39번지 ,303-1114,서울특별시 서대문구 증가로 111 (남가좌동),3692.0,한스동물병원,2019-01-13,126.92484603622852,37.57665245905615
754,313000001020180005,1,영업/정상,0,정상,,서울특별시 마포구 구수동 56-8 ,02-715-7575,서울특별시 마포구 창전로 50-1 (구수동),4087.0,산책 동물병원,2021-07-22,126.932655302606,37.546857967835194
755,313000001020180007,1,영업/정상,0,정상,,서울특별시 마포구 공덕동 404 풍림브이아이피텔 ,02-6383-0303,"서울특별시 마포구 마포대로 127, 풍림브이아이피텔 (공덕동)",4144.0,콩닥 동물병원,2021-07-22,126.9521686947295,37.54622826853038
756,313000001020070002,1,영업/정상,0,정상,,서울특별시 마포구 도화동 182-6 ,02-6405-7582,서울특별시 마포구 도화길 42 (도화동),4169.0,박창석종합동물병원,2021-01-14,126.95036638997327,37.541504761493066
757,313000001020070003,1,영업/정상,0,정상,,서울특별시 마포구 상암동 34-46 ,02-375-7222,서울특별시 마포구 월드컵북로 336 (상암동),3930.0,상암동물병원,2021-07-04,126.89465947000195,37.576043426673856
758,313000001020180006,1,영업/정상,0,정상,,서울특별시 마포구 염리동 156-1 ,02-2088-1375,서울특별시 마포구 백범로 130 (염리동),4149.0,아이웰 동물의료센터,2021-07-24,126.94511930828267,37.546130543254435
759,313000001019880001,1,영업/정상,0,정상,,서울특별시 마포구 노고산동 56-7 ,02-336-3929,서울특별시 마포구 신촌로16길 34(노고산동),4057.0,서진동물병원,2021-08-08,126.93421389093679,37.55423269595688
760,313000001019910001,1,영업/정상,0,정상,,서울특별시 마포구 망원동 415-32번지 ,02-332-7984,"서울특별시 마포구 포은로 107, 2층 (망원동)",4009.0,서교동물병원,2019-05-10,126.90454821319969,37.5565815216525
761,313000001020010003,1,영업/정상,0,정상,,서울특별시 마포구 상수동 310-1번지 ,02-335-5232,서울특별시 마포구 독막로 85 (상수동),4049.0,셀레네동물병원,2019-03-29,126.92274650898283,37.54793243180712
762,313000001020010004,1,영업/정상,0,정상,,서울특별시 마포구 신공덕동 159 신공덕2차삼성래미안 ,02-6375-0075,"서울특별시 마포구 만리재로 74, 2상가 117호 (신공덕동, 신공덕2차삼성래미안)",4187.0,C.T.종합동물병원,2021-07-04,126.95803157928675,37.54637885644653
763,313000001019950001,1,영업/정상,0,정상,,서울특별시 마포구 서교동 395-44 ,02-333-9558,서울특별시 마포구 양화로 68 (서교동),4044.0,뉴욕종합동물병원,2021-07-04,126.91606596347141,37.55075251463188
764,313000001019950002,1,영업/정상,0,정상,,서울특별시 마포구 대흥동 337-41 ,02-707-2340,서울특별시 마포구 대흥로 48 (대흥동),4159.0,용강동물병원,2021-07-04,126.9395124519287,37.5448436949903
765,313000001019970001,1,영업/정상,0,정상,,서울특별시 마포구 노고산동 1-67 ,02-717-7571,서울특별시 마포구 신촌로 154 (노고산동),4104.0,디엔씨동물병원,2021-07-04,126.94264562217043,37.55635010377248
766,313000001019980001,1,영업/정상,0,정상,,서울특별시 마포구 아현동 331-11 ,02-364-3517,서울특별시 마포구 신촌로 248 (아현동),4115.0,월드펫동물병원,2021-09-30,126.95332850165354,37.55702573206792
767,313000001020000001,1,영업/정상,0,정상,,서울특별시 마포구 합정동 411-18번지 ,02-325-2026,서울특별시 마포구 독막로 45 (합정동),4047.0,홍익동물종합병원,2020-06-06,126.91838529739422,37.54809627322328
768,313000001020000003,1,영업/정상,0,정상,,서울특별시 마포구 망원동 386-2 망원 양경회관 ,02-332-0175,"서울특별시 마포구 월드컵로 65, 망원 양경회관 (망원동)",4018.0,망원동물종합병원,2021-07-04,126.91082223891303,37.55483935286589
769,313000001020030008,1,영업/정상,0,정상,,서울특별시 마포구 망원동 378-3 ,02-3142-0008,서울특별시 마포구 월드컵로 73 (망원동),4013.0,동물사랑동물병원,2021-07-04,126.91031398736871,37.55539064115371
770,313000001020040007,1,영업/정상,0,정상,,서울특별시 마포구 동교동 174-14 ,02-323-7582,서울특별시 마포구 신촌로 16 (동교동),4056.0,마리동물병원,2021-10-08,126.92808889217305,37.55800930055179
771,313000001020050002,1,영업/정상,0,정상,,서울특별시 마포구 성산동 152-7 ,02-302-7502,"서울특별시 마포구 월드컵북로 224, 청화상가 104호 (성산동)",3941.0,행복한 동물병원,2021-07-04,126.9044546009555,37.569815120579065
772,313000001020210003,1,영업/정상,0,정상,,서울특별시 마포구 염리동 14-149 ,02-6954-7522,"서울특별시 마포구 대흥로24길 24, 마포프레스티지자이상가 B동 107호 (염리동)",4124.0,서울준동물병원,2021-05-26,126.9469537125612,37.554272964502445
773,313000001020210004,1,영업/정상,0,정상,,서울특별시 마포구 성산동 151-6 ,02-376-7675,"서울특별시 마포구 월드컵북로 218, 2층 (성산동)",3941.0,키다리 동물병원,2021-05-28,126.90502107402205,37.569498471501525
774,313000001020210002,1,영업/정상,0,정상,,서울특별시 마포구 상수동 402 래미안밤섬리베뉴 1 ,02-3144-3253,"서울특별시 마포구 독막로20나길 22, B106호 (상수동, 래미안밤섬리베뉴 1)",4076.0,삼색이동물병원,2021-05-14,126.92548789825894,37.54662360079723
775,313000001020170006,1,영업/정상,0,정상,,서울특별시 마포구 성산동 200-24번지 ,02-375-1963,서울특별시 마포구 월드컵북로 167 (성산동),3948.0,와우 동물병원,2019-03-29,126.9097944392788,37.56701487574165
776,313000001020170007,1,영업/정상,0,정상,,서울특별시 마포구 망원동 477-3 ,02-336-0073,"서울특별시 마포구 월드컵로 147, 1층 (망원동, 한익빌딩)",3963.0,이황 동물병원,2021-07-22,126.90543644266208,37.560772404308814
777,313000001020170008,1,영업/정상,0,정상,,서울특별시 마포구 공덕동 222-2 공덕 메디힐스 지하1층 ,02-2135-2225,"서울특별시 마포구 마포대로11길 35, 공덕 메디힐스 지하1층 (공덕동)",4142.0,날으는 동물병원,2021-07-22,126.9521660599951,37.5489272735047
778,313000001020170009,1,영업/정상,0,정상,,서울특별시 마포구 상암동 1648 S-PLEX CENTER 지하1층 ,02-2124-2832,"서울특별시 마포구 매봉산로 31, S-PLEX CENTER 지하1층 (상암동)",3909.0,서울동물복지지원센터 동물병원,2021-09-26,126.89004184345632,37.57563777531616
779,313000001020180002,1,영업/정상,0,정상,,서울특별시 마포구 서교동 444-5 ,02-3142-7298,"서울특별시 마포구 월드컵로 46, 2층 (서교동)",4029.0,이층애 고양이동물병원,2021-08-25,126.91223653274513,37.55338019417791
780,313000001020140003,1,영업/정상,0,정상,,서울특별시 마포구 동교동 200-29 ,02-322-1275,서울특별시 마포구 동교로 193 (동교동),3993.0,워너비 동물병원,2021-07-22,126.92250597223664,37.55770773581627
781,313000001020140004,1,영업/정상,0,정상,,서울특별시 마포구 상암동 115-11 ,02-306-1259,"서울특별시 마포구 월드컵북로 347, 1층 (상암동)",3912.0,동물병원 닥터K,2021-10-02,126.89313560028094,37.576333649939514
782,313000001020140006,1,영업/정상,0,정상,,서울특별시 마포구 상암동 1655 ,02-307-3355,"서울특별시 마포구 상암산로1길 24 (상암동, 월드컵파크 4단지 상가 113-2)",3907.0,아프지말게 동물병원,2021-07-22,126.88868877944981,37.57768639817598
783,313000001020140007,1,영업/정상,0,정상,,서울특별시 마포구 염리동 164-4 ,02-711-3375,"서울특별시 마포구 독막로 295 (염리동, 삼부골든타워106호)",4151.0,굿모닝 동물병원,2021-07-22,126.94604432550499,37.54469971471943
784,313000001020070007,1,영업/정상,0,정상,,서울특별시 마포구 서교동 447-2 이화빌딩 ,02-337-7575,"서울특별시 마포구 월드컵북로 27, 이화빌딩 (서교동)",4001.0,웰케어동물병원,2021-07-04,126.91909981598018,37.55688745836893
785,313000001020090001,1,영업/정상,0,정상,,서울특별시 마포구 노고산동 40-56 웨스턴5빌딩 ,02-701-7580,"서울특별시 마포구 신촌로 110, 지상1,2,8층 및 지하1,2층 웨스턴5빌딩 (노고산동)",4101.0,웨스턴 동물의료센터,2021-09-26,126.93808024010467,37.55522235408673
786,313000001020150001,1,영업/정상,0,정상,,서울특별시 마포구 성산동 17-23 ,02-335-3333,서울특별시 마포구 월드컵북로12길 22 (성산동),3978.0,우리동생 동물병원,2021-05-26,126.91576283180548,37.56203774992316
787,313000001020160001,1,영업/정상,0,정상,,서울특별시 마포구 용강동 494-68 ,02-715-0075,"서울특별시 마포구 대흥로 24 (용강동, 서강빌딩(1~2층))",4162.0,닥터 호오 동물병원,2021-10-22,126.93788028157817,37.543033571125314
788,313000001020160002,1,영업/정상,0,정상,,서울특별시 마포구 아현동 424-14 영지빌딩 ,02-393-3588,"서울특별시 마포구 마포대로16길 7, 영지빌딩 2층 (아현동)",4205.0,24시 산들산들 동물병원,2021-07-22,126.95653241907553,37.55097483479162
789,313000001020170001,1,영업/정상,0,정상,,서울특별시 마포구 서교동 5-2번지 ,02-335-7577,"서울특별시 마포구 월드컵로 98 (서교동, 서현빌딩 1층)",3996.0,푸른숲 동물병원,2019-03-29,126.90926523726795,37.55740069054376
790,313000001020170003,1,영업/정상,0,정상,,서울특별시 마포구 성산동 94-4 성미빌딩 ,02-375-7575,"서울특별시 마포구 월드컵북로 151, 성미빌딩 1층 (성산동)",3948.0,라온동물병원,2021-07-22,126.9108239252375,37.56599803097276
791,313000001020170004,1,영업/정상,0,정상,,서울특별시 마포구 아현동 331-2 ,02-719-7052,"서울특별시 마포구 신촌로 258, 1,2층 (아현동)",4115.0,소망동물병원,2021-07-22,126.95429876294016,37.55709201074923
792,313000001020100003,1,영업/정상,0,정상,,서울특별시 마포구 서교동 444-5 ,02-323-8275,서울특별시 마포구 월드컵로 46 (서교동),4029.0,로얄동물메디컬센터w,2021-08-25,126.91223653274513,37.55338019417791
793,313000001020120001,1,영업/정상,0,정상,,서울특별시 마포구 망원동 338-76 ,02-326-0275,서울특별시 마포구 포은로 64 (망원동),4018.0,박효리군 동물병원,2021-07-22,126.90654513189638,37.552897300926624
794,313000001020120002,1,영업/정상,0,정상,,서울특별시 마포구 합정동 473 마포 한강 2차 푸르지오 ,02-338-0275,"서울특별시 마포구 월드컵로3길 14, 123호 (합정동, 마포 한강 2차 푸르지오)",4024.0,캣&덴탈 하이디 동물병원,2021-07-22,126.91186544249858,37.55105335662231
795,313000001020130004,1,영업/정상,0,정상,,서울특별시 마포구 도화동 153 ,02-712-8875,서울특별시 마포구 삼개로 28 (도화동),4173.0,도화동물병원,2021-07-22,126.94724627395033,37.537825666839616
796,313000001020130005,1,영업/정상,0,정상,,서울특별시 마포구 서교동 494 ,02-338-2475,"서울특별시 마포구 양화로 72, 효성해링턴타워 101동 제1층 121,122호 (서교동)",4044.0,아이엠 동물병원,2020-07-09,126.91653677308001,37.55099366216717
797,313000001020130006,1,영업/정상,0,정상,,서울특별시 마포구 공덕동 256-13 제일빌딩 ,02-701-0705,"서울특별시 마포구 만리재로 15, 제일빌딩 108호 (공덕동)",4214.0,공덕 건강한 동물병원,2021-07-22,126.95267491262679,37.54455964507347
798,313000001020130001,1,영업/정상,0,정상,,서울특별시 마포구 공덕동 385-65 공덕SK리더스뷰 ,02-713-8275,"서울특별시 마포구 백범로31길 7, 101동 104,105호 (공덕동, 공덕SK리더스뷰)",4147.0,힐링 24시 동물병원,2021-07-22,126.94915010566572,37.54535377248047
896,314000001020180001,1,영업/정상,0,정상,,서울특별시 양천구 목동 783-2 ,02-2647-1772,서울특별시 양천구 등촌로 58 (목동),7965.0,하니동물병원,2021-12-16,126.86377644475955,37.53512804377935
897,314000001020210002,1,영업/정상,0,정상,,서울특별시 양천구 신월동 536-6 1층 ,02-2694-7575,"서울특별시 양천구 신월로 179, 1층 (신월동)",8030.0,신월라온동물의료센터,2021-08-27,126.8430138396113,37.519185054249824
898,314000001020210001,1,영업/정상,0,정상,,서울특별시 양천구 신월동 559-7 2층 ,0226918119,"서울특별시 양천구 신월로10길 22, 2층층 (신월동)",8065.0,정말로동물병원,2021-11-28,126.84085942314003,37.51531535897285
899,314000001020130005,1,영업/정상,0,정상,,서울특별시 양천구 목동 603-2번지 대우마이빌 102호 ,2643-7579,"서울특별시 양천구 공항대로 552 (목동, 대우마이빌 102호)",7946.0,오라고동물병원,2018-08-31,126.86690644967018,37.549504550584174
900,314000001020140002,1,영업/정상,0,정상,,서울특별시 양천구 목동 799-1번지 1층 ,6348-1982,"서울특별시 양천구 목동중앙서로 42, 1층 (목동)",7967.0,팜랜드동물병원,2018-08-31,126.86848925546602,37.53283742718932
901,314000001020140003,1,영업/정상,0,정상,,서울특별시 양천구 목동 531-13번지 101호,2651-1855,"서울특별시 양천구 목동중앙본로 100, 101호 (목동)",7973.0,대현동물병원,2018-08-31,126.87089543323022,37.54447518887788
902,314000001020140004,1,영업/정상,0,정상,,서울특별시 양천구 신월동 130-5번지 1층 ,6959-8448,"서울특별시 양천구 남부순환로 421, 1층 (신월동)",7921.0,서서울호수동물병원,2019-03-08,126.8324193423895,37.53029216442278
903,314000001020040005,1,영업/정상,0,정상,,서울특별시 양천구 신월동 546-25 ,2692-8255,서울특별시 양천구 신월로 149 (신월동),8032.0,파란종합 동물병원,2020-10-18,126.84027868993768,37.51756761897769
904,314000001020060001,1,영업/정상,0,정상,,서울특별시 양천구 신월동 972-6 ,2606-1990,서울특별시 양천구 지양로 52 (신월동),8040.0,일오삼동물병원,2020-11-12,126.83492320318905,37.52051990465836
905,314000001020060003,1,영업/정상,0,정상,,서울특별시 양천구 목동 515-1 ,2655-2258,서울특별시 양천구 공항대로 636 (목동),7968.0,행복한동물병원,2020-11-12,126.87539113628836,37.54669747472296
906,314000001020120001,1,영업/정상,0,정상,,서울특별시 양천구 신정동 995-4번지 ,2644-0069,서울특별시 양천구 목동로 181 (신정동),8022.0,상아동물병원,2018-08-31,126.86439914489392,37.52466218416725
907,314000001020120002,1,영업/정상,0,정상,,서울특별시 양천구 목동 907-10번지 ,2648-8275,서울특별시 양천구 목동서로 57 (목동),7983.0,목동 동물병원,2019-04-28,126.87984877535565,37.536673517407934
908,314000001020060004,1,영업/정상,0,정상,,서울특별시 양천구 목동 601-6 ,2651-8575,서울특별시 양천구 목동중앙북로 37 (목동),7947.0,미니주동물병원,2020-11-12,126.86783844476126,37.548054820761756
909,314000001020030011,1,영업/정상,0,정상,,서울특별시 양천구 목동 773-3 106호 ,2062-1110,"서울특별시 양천구 목동중앙로 43 (목동,106호)",,리즈동물병원,2020-11-12,126.86948979503167,37.533537798873695
910,314000001020040001,1,영업/정상,0,정상,,서울특별시 양천구 신정동 337-7 ,2643-7882,서울특별시 양천구 목동남로4길 6-11 (신정동),8104.0,참사랑동물병원,2021-06-01,126.86509923946643,37.5082218337894
911,314000001020190001,1,영업/정상,0,정상,,서울특별시 양천구 목동 721-1번지 목동한강팰리스 ,02-2643-2777,"서울특별시 양천구 등촌로 114, 목동한강팰리스 1층 (목동)",7957.0,가온동물병원,2019-01-31,126.8640709469965,37.540162101822204
912,314000001020190002,1,영업/정상,0,정상,,서울특별시 양천구 신정동 1007-10 ,02-2642-7588,서울특별시 양천구 목동로 161 (신정동),8023.0,우리들동물메디컬센터,2021-12-15,126.86494158949168,37.52291546735076
913,314000001020190003,1,영업/정상,0,정상,,서울특별시 양천구 신월동 984-1번지 인산빌딩 ,02-2690-7579,"서울특별시 양천구 지양로 7, 인산빌딩 1층 (신월동)",8044.0,해맞이 동물병원,2019-12-07,126.83774437392321,37.51742203104986
914,314000001020190004,1,영업/정상,0,정상,,서울특별시 양천구 신정동 1006-3번지 4층 ,02-2642-7588,"서울특별시 양천구 목동로 171, 4층 (신정동)",8023.0,우리들 노령동물 암센터,2019-12-29,126.86471555754099,37.52365986960222
915,314000001020200001,1,영업/정상,0,정상,,서울특별시 양천구 목동 753-12번지 ,02-6949-0413,"서울특별시 양천구 목동중앙로 89, 1층 (목동)",7961.0,봄날동물병원,2020-04-16,126.871868157743,37.53726689527939
916,314000001020200002,1,영업/정상,0,정상,,서울특별시 양천구 신월동 1002-3 ,02-2607-7582,"서울특별시 양천구 신월로 124, 1층 (신월동)",8047.0,신월동물병원,2021-05-09,126.8377520261571,37.516277493981896
917,314000001020200003,1,영업/정상,0,정상,,서울특별시 양천구 신정동 324-7 대림아크로빌 102호,02-2653-3335,"서울특별시 양천구 목동서로 401, 1층 102호 (신정동, 대림아크로빌)",8092.0,산책동물병원,2020-07-25,126.85960311837572,37.51542559995099
918,314000001019900001,1,영업/정상,0,정상,,서울특별시 양천구 신월동 501-12 ,2693-8883,서울특별시 양천구 중앙로 295 (신월동),8028.0,우신동물병원,2021-03-19,126.85140797804068,37.522568477408534
919,314000001019900002,1,영업/정상,0,정상,,서울특별시 양천구 목동 657-16 ,2642-9159,서울특별시 양천구 등촌로 160 (목동),7951.0,강현림 종합동물병원,2020-11-12,126.86244541365144,37.54407185001383
920,314000001019940001,1,영업/정상,0,정상,,서울특별시 양천구 신정동 1020-17번지 ,02-2651-9953,서울특별시 양천구 은행정로 10 (신정동),8087.0,해성동물병원,2019-01-18,126.86013641190625,37.52062687045602
921,314000001020080002,1,영업/정상,0,정상,,서울특별시 양천구 신월동 446-4번지 ,2690-5673,서울특별시 양천구 월정로 46 (신월동),7936.0,햇살동물병원,2019-01-18,126.8423266823896,37.52382549524805
922,314000001020080004,1,영업/정상,0,정상,,서울특별시 양천구 목동 917-6 지하2층 ,2645-7582,서울특별시 양천구 목동동로 309 (목동),7997.0,행복한세상동물병원,2021-06-12,126.87608367321214,37.5293734491095
923,314000001020070002,1,영업/정상,0,정상,,서울특별시 양천구 신정동 117-37 ,02-2652-1865,서울특별시 양천구 신목로 78 (신정동),8009.0,리더스 동물병원,2020-11-12,126.8742486160578,37.52166147206004
924,314000001019990002,1,영업/정상,0,정상,,서울특별시 양천구 신월동 50-5번지 ,2695-1231,서울특별시 양천구 남부순환로 347 (신월동),7905.0,민병철동물병원,2018-08-31,126.82844527476685,37.536192075064356
925,314000001020090003,1,영업/정상,0,정상,,서울특별시 양천구 목동 962 목동트라팰리스 ,2645-2727,"서울특별시 양천구 오목로 299, 목동트라팰리스 (목동)",8001.0,쿨펫이마트 목동점 동물병원,2021-06-11,126.87038302963786,37.52599304434545
926,314000001019960001,1,영업/정상,0,정상,,서울특별시 양천구 신정동 294-62번지 ,0226546183,서울특별시 양천구 목동동로10길 6 (신정동),8014.0,노아동물병원,2018-10-15,126.87069181015792,37.518448585997255
927,314000001019970002,1,영업/정상,0,정상,,서울특별시 양천구 신월동 444-11 ,2607-0022,서울특별시 양천구 오목로 45 (신월동),7930.0,양천종합동물병원,2022-02-19,126.84263833461647,37.52229072514613
928,314000001020020002,1,영업/정상,0,정상,,서울특별시 양천구 목동 805-1 ,2649-0774,서울특별시 양천구 등촌로 16 (목동),7966.0,필동물종합병원,2021-07-16,126.86413065848967,37.53144132387872
929,314000001020090005,1,영업/정상,0,정상,,서울특별시 양천구 목동 907번지 현대월드타워 160호,2645-7588,"서울특별시 양천구 목동서로 77, 현대월드타워 160호 (목동)",7983.0,가나종합동물병원,2019-12-20,126.87804170354346,37.53598621359378
930,314000001020110002,1,영업/정상,0,정상,,서울특별시 양천구 목동 919-7 홈플러스목동점 ,2643-0283,"서울특별시 양천구 목동서로 170, 홈플러스목동점 (목동)",7992.0,닥터펫동물병원,2020-11-12,126.87327656162927,37.53032778523729
931,314000001020030006,1,영업/정상,0,정상,,서울특별시 양천구 신정동 987-3 1층 ,2697-7576,"서울특별시 양천구 오목로 198-1 (신정동,1층)",,신정 동물병원,2020-11-12,126.85946466076216,37.52526963054466
932,314000001020030007,1,영업/정상,0,정상,,서울특별시 양천구 목동 657-21번지 등촌빌딩 ,2642-8653,"서울특별시 양천구 등촌로 172, 등촌빌딩 A동 102호 (목동)",7951.0,토론토 동물병원,2019-01-18,126.86261051738744,37.54502014294579
933,314000001020170003,1,영업/정상,0,정상,,"서울특별시 양천구 신정동 329 목동신시가지아파트14단지 B상가 117,호",2642-1239,"서울특별시 양천구 목동동로 130, 117, 118호 (신정동, 목동신시가지아파트14단지)",8018.0,페토브 동물병원,2021-06-04,126.87033747460848,37.51619093722924
934,314000001020170004,1,영업/정상,0,정상,,서울특별시 양천구 신정동 1182-11 ,02-2601-8875,"서울특별시 양천구 중앙로 237, 1층 (신정동)",8073.0,24시 서울 탑 동물병원,2020-09-30,126.85362600417402,37.51772873985802
935,314000001020170005,1,영업/정상,0,정상,,서울특별시 양천구 목동 507-2 덕수프라자 ,8464597,"서울특별시 양천구 목동중앙북로 73, 덕수프라자 2층 (목동)",7947.0,두암동물병원,2020-11-03,126.87137607359507,37.54687273068171
936,314000001020170006,1,영업/정상,0,정상,,서울특별시 양천구 신정동 202-13 쌍용빌딩 4층 ,02-2060-0999,"서울특별시 양천구 목동남로2길 21, 쌍용빌딩 4층 (신정동)",8104.0,캐슬동물종합병원,2020-11-14,126.86454608478701,37.507803484380545
937,314000001020150002,1,영업/정상,0,정상,,"서울특별시 양천구 목동 903번지 목동신시가지아파트3단지 상가동 105호, 204호 ",2644-8878,"서울특별시 양천구 목동서로 100, 상가동 105, 204호 (목동, 목동신시가지아파트3단지)",7982.0,파리스동물병원,2019-08-10,126.87294902707983,37.534359202372364
938,314000001020150003,1,영업/정상,0,정상,,서울특별시 양천구 신정동 1320-2번지 신정프라자 203호,2694-8275,"서울특별시 양천구 신정이펜2로 22, 203호 (신정동, 신정프라자)",8049.0,구름동물병원,2018-08-31,126.8325509203814,37.512898741897715
939,314000001020150004,1,영업/정상,0,정상,,서울특별시 양천구 신정동 321-6번지 센트럴프라자 104호,2650-8275,"서울특별시 양천구 목동서로 349, 104호 (신정동, 센트럴프라자)",8095.0,공원옆동물병원,2018-08-31,126.8654975810416,37.51749421319413
940,314000001020160001,1,영업/정상,0,정상,,서울특별시 양천구 신정동 1028-4번지 ,02-2061-5277,서울특별시 양천구 신월로 320 (신정동),8082.0,밀리언동물병원,2019-03-08,126.85646469514754,37.521324447523305
941,314000001020160002,1,영업/정상,0,정상,,서울특별시 양천구 목동 408-115 ,02-2604-0156,"서울특별시 양천구 오목로 280, 1층 (목동)",8003.0,리베동물메디컬센터,2021-08-14,126.86822515253019,37.525160502382164
942,314000001020020004,1,영업/정상,0,정상,,서울특별시 양천구 목동 613-8번지 혜인빌딩 ,2645-1475,"서울특별시 양천구 등촌로 218, 혜인빌딩 (목동)",7946.0,혜인종합 동물병원,2019-01-18,126.86390611422316,37.549150665539095
943,314000001020170001,1,영업/정상,0,정상,,서울특별시 양천구 신정동 1052-3 ,02-2643-8204,서울특별시 양천구 중앙로 230 (신정동),8091.0,다온동물병원,2021-01-29,126.85463723763424,37.517187772759996
995,315000001020190001,1,영업/정상,0,정상,,서울특별시 강서구 염창동 246-11번지 ,26991222,"서울특별시 강서구 양천로 663-1, 1층 (염창동)",7543.0,푸른들동물병원,2019-01-04,126.87083506090542,37.552164022561136
996,315000001020060001,1,영업/정상,0,정상,,서울특별시 강서구 화곡동 345-9번지 12통7반 2층동 202호,2695-0072,서울특별시 강서구 강서로 36 (화곡동),7760.0,세인트동물병원,2020-03-06,126.84341632275864,37.530504435379214
997,315000001020130004,1,영업/정상,0,정상,,서울특별시 강서구 화곡동 13통3반 주공아파트 203동 1901호,02-2602-0507,"서울특별시 강서구 까치산로 80 (화곡동, 화곡동물병원)",7677.0,화곡동물병원,2019-03-09,126.84762375008572,37.54563994798707
998,315000001020140001,1,영업/정상,0,정상,,서울특별시 강서구 화곡동 27통5반 동양아파트 108동 2406호,02-2692-8275,서울특별시 강서구 강서로18길 17 (화곡동),7751.0,한마음동물병원,2019-03-09,126.84664671784238,37.53398022944469
999,315000001020130003,1,영업/정상,0,정상,,서울특별시 강서구 화곡동 134번지 8통3반 공원아파트 507호,02-2604-3584,"서울특별시 강서구 강서로17길 52 (화곡동, 화곡면옥)",7769.0,세명 동물병원,2019-03-09,126.8429018328474,37.532701400733174
1000,315000001020140004,1,영업/정상,0,정상,,서울특별시 강서구 등촌동 658-4 ,02-518-7500,서울특별시 강서구 화곡로 371 (등촌동),7590.0,강서YD동물의료센터,2022-01-06,126.85217570357365,37.55696598252248
1001,315000001020150001,1,영업/정상,0,정상,,서울특별시 강서구 마곡동 747 마곡엠밸리10단지 101호,02-2662-8111,"서울특별시 강서구 마곡중앙1로 72, 101호 (마곡동, 마곡엠밸리10단지)",7629.0,24시 강서 젠틀리동물의료센터,2021-12-08,126.82017810506888,37.55932766743373
1002,315000001020150002,1,영업/정상,0,정상,,서울특별시 강서구 화곡동 29통3반 한화 유로메트로 102동 1501호,02-2603-0075,"서울특별시 강서구 강서로 215 (화곡동, 삼광빌딩)",7706.0,미소동물의료센터,2019-07-06,126.8368372575852,37.544897776412654
1003,315000001020150003,1,영업/정상,0,정상,,,2663-8520,서울특별시 강서구 개화동로29길 15 (방화동),7620.0,공항축산,2020-04-09,126.80770515909998,37.56362755284582
1004,315000001020150005,1,영업/정상,0,정상,,서울특별시 강서구 공항동 28-10 ,26610530,서울특별시 강서구 공항대로 39 (공항동),7619.0,송정동물메디컬센터,2021-08-06,126.81169674144843,37.561563132394284
1005,315000001020160003,1,영업/정상,0,정상,,서울특별시 강서구 내발산동 646번지 ,02-3664-0075,"서울특별시 강서구 공항대로 284, 1층 2호 (내발산동)",7646.0,우리아이동물메디컬센터,2019-07-17,126.83911302017853,37.55815028215372
1006,315000001020160004,1,영업/정상,0,정상,,서울특별시 강서구 가양동 1480-5번지 ,02-3661-8200,"서울특별시 강서구 양천로57길 10-20, 102호 (가양동, 이스타빌Ⅰ)",7526.0,고려종합동물병원,2018-08-31,126.85301457960414,37.562621717068154
1007,315000001020020003,1,영업/정상,0,정상,,서울특별시 강서구 방화동 ,2664-7773,"서울특별시 강서구 금낭화로 52 (방화동, 세성빌딩)",7607.0,황하동물병원,2019-06-13,126.81179542965887,37.56995735559868
1008,315000001020070002,1,영업/정상,0,정상,,서울특별시 강서구 방화동 1265번지 24통4반 숲속마을 402동 502호,2665-8256,"서울특별시 강서구 방화대로47가길 7 (방화동, 방화샤르망1오피스텔)",7511.0,굿모닝동물병원,2019-05-12,126.81303285630418,37.57649924496404
1009,315000001020080001,1,영업/정상,0,정상,,서울특별시 강서구 화곡동 313번지 목동신시가지 아파트 902-203 ,,"서울특별시 강서구 강서로 254 (화곡동, 우장산아이파크이편한세상)",7691.0,다나동물병원,2019-05-01,126.83749772891062,37.551183704419856
1010,315000001020100001,1,영업/정상,0,정상,,서울특별시 강서구 화곡동 1070-1번지 ,02-2693-0075,"서울특별시 강서구 화곡로 112, 1층 (화곡동)",7718.0,파스텔동물병원,2019-03-09,126.83446568271954,37.539785906309234
1011,315000001020100003,1,영업/정상,0,정상,,서울특별시 강서구 내발산동 722-15 ,02-2697-0052,서울특별시 강서구 강서로45길 28 (내발산동),7639.0,오즈동물병원,2022-02-05,126.83457575275857,37.548117732650596
1013,315000001020110001,1,영업/정상,0,정상,,서울특별시 강서구 가양동 17번지 4통10반 파크리오 119동 403호,3665-1838,"서울특별시 강서구 양천로 431 (가양동, 홈플러스가양점)",7527.0,가양쿨펫동물병원,2018-08-31,126.85010522444689,37.56426917290815
1014,315000001020110002,1,영업/정상,0,정상,,서울특별시 강서구 내발산동 1139번지 16통3반 초록아파트 107동 702호,02-2667-5666,"서울특별시 강서구 수명로 74 (내발산동, 발산시티타워)",7635.0,스마일동물병원,2018-08-31,126.82620679153175,37.552585810316785
1015,315000001020130001,1,영업/정상,0,정상,,서울특별시 강서구 등촌동 628-13번지 101-1호,,"서울특별시 강서구 양천로 510, 1층 101-1호 (등촌동, 현대프린스텔빌딩)",7548.0,24시 안박동물병원,2020-06-14,126.85636175664618,37.5600876587251
1016,315000001020020007,1,영업/정상,0,정상,,서울특별시 강서구 내발산동 655-12 ,3665-5982,"서울특별시 강서구 강서로 333, 104호 105호 (내발산동)",7632.0,박동물병원,2021-05-19,126.83692980246997,37.55547221823157
1017,315000001020020008,1,영업/정상,0,정상,,서울특별시 강서구 화곡동 861-8번지 9통2반 ,2608-0973,"서울특별시 강서구 곰달래로 199 (화곡동, 고득영동물병원)",7749.0,고득영동물병원,2018-08-31,126.85505022241344,37.53143500977899
1018,315000001020020009,1,영업/정상,0,정상,,서울특별시 강서구 화곡동 904번지 8통8반 목동신시가지아파트 405동 805호,2602-7582,"서울특별시 강서구 화곡로 143 (화곡동, 충효빌딩)",7714.0,우장동물병원,2019-03-09,126.83764742878567,37.54114740965514
1019,315000001020020011,1,영업/정상,0,정상,,서울특별시 강서구 화곡동 421-23번지 ,2691-5900,"서울특별시 강서구 곰달래로15길 46 (화곡동, 강서동물병원)",7771.0,강서동물병원,2019-05-03,126.8395419216929,37.53221931437266
1020,315000001020030005,1,영업/정상,0,정상,,서울특별시 강서구 화곡동 1059-51번지 ,2694-4821,"서울특별시 강서구 화곡로 205 (화곡동, 대한동물병원)",7696.0,대한동물병원,2018-08-31,126.84311780156116,37.54386967937443
1021,315000001020030004,1,영업/정상,0,정상,,서울특별시 강서구 가양동 1480-5번지 10통7반 이스타빌1 502호,3663-7584,"서울특별시 강서구 양천로57길 10-20 (가양동, 이스타빌Ⅰ)",7526.0,해맑은동물병원,2019-03-09,126.85301457960414,37.562621717068154
1022,315000001020020013,1,영업/정상,0,정상,,서울특별시 강서구 화곡동 425-1번지 8통6반 청구빌라 301호,2608-0234,"서울특별시 강서구 강서로 45 (화곡동, 미래동물병원)",7774.0,미래동물병원,2019-05-01,126.84116758963167,37.530514124884434
1023,315000001020020014,1,영업/정상,0,정상,,서울특별시 강서구 염창동 244-26번지 ,3665-7582,"서울특별시 강서구 양천로 651, 1층 (염창동)",7544.0,염창제일동물병원,2019-03-09,126.86981068675647,37.55307720911583
1024,315000001020020019,1,영업/정상,0,정상,,서울특별시 강서구 화곡동 772-71번지 신진통상빌딩 ,2652-7515,"서울특별시 강서구 등촌로 55, 신진통상빌딩 (화곡동)",7741.0,서울플러스종합동물병원,2019-03-09,126.86327192906938,37.53480878669986
1025,315000001020000001,1,영업/정상,0,정상,,서울특별시 강서구 방화동 259번지 23통8반 대림아파트 208동 801호,2666-5667,"서울특별시 강서구 양천로 72 (방화동, 해성빌딩)",7604.0,SKY동물병원,2019-06-13,126.8118215331432,37.573197788920766
1026,315000001020020001,1,영업/정상,0,정상,,서울특별시 강서구 화곡동 349-23번지 21통2반 ,2603-0781,"서울특별시 강서구 강서로17길 20 (화곡동, 용봉동물병원)",7769.0,용봉동물병원,2019-05-01,126.84460437893776,37.53307460381351
1027,315000001020040002,1,영업/정상,0,정상,,서울특별시 강서구 방화동 53-273번지 ,2666-6075,"서울특별시 강서구 금낭화로 109 (방화동, 하나동물병원)",7515.0,하나동물병원,2019-03-09,126.81148332207454,37.575305187374326
1028,315000001020170001,1,영업/정상,0,정상,,서울특별시 강서구 마곡동 747번지 1014동 103호,2661-7515,"서울특별시 강서구 마곡중앙1로 72, 1014동 103호 (마곡동, 마곡엠밸리10단지)",7629.0,마곡나무 동물병원,2018-08-31,126.82017810506888,37.55932766743373
1029,315000001020170002,1,영업/정상,0,정상,,서울특별시 강서구 마곡동 751번지 ,2666-0829,"서울특별시 강서구 마곡중앙로 36, 상가동 103호 (마곡동, 마곡엠밸리15단지)",7811.0,공감동물병원,2018-08-31,126.82997250994124,37.560113688309244
1030,315000001020170003,1,영업/정상,0,정상,,서울특별시 강서구 화곡동 371-32번지 ,2065-7582,"서울특별시 강서구 가로공원로 198, 1층 (화곡동, 청파빌딩)",7762.0,올스타동물의료센터,2019-05-01,126.83792257212599,37.53697788954667
1031,315000001020170004,1,영업/정상,0,정상,,서울특별시 강서구 화곡동 796-1번지 피앤와이빌딩 3호,2644-5975,"서울특별시 강서구 곰달래로 260, 피앤와이빌딩 1층 3호 (화곡동)",7785.0,하트온동물병원,2019-03-09,126.86180488953792,37.53197891121597
1032,315000001020180002,1,영업/정상,0,정상,,"서울특별시 강서구 염창동 265-23번지 9,10호",3662-8661,"서울특별시 강서구 양천로 674, 9,10호 (염창동)",7554.0,서서울동물병원,2019-05-02,126.87108296840903,37.551332344866054
1033,315000001019950001,1,영업/정상,0,정상,,서울특별시 강서구 화곡동 46-236번지 ,2692-9290,서울특별시 강서구 까치산로 74 (화곡동),7677.0,시온동물병원,2018-08-31,126.84730824536665,37.545232373216194
1034,315000001020040003,1,영업/정상,0,정상,,서울특별시 강서구 등촌동 24통7반 우장산롯데캐슬 307동 1003호,3665-7975,"서울특별시 강서구 공항대로 335 (등촌동, 경왕빌딩)",7590.0,24시아프리카동물메디컬센터,2021-04-01,126.84491983703485,37.55820255122462
1035,315000001020050003,1,영업/정상,0,정상,,서울특별시 강서구 방화동 585-1번지 24통8반 대우아파트 204동 306호,2666-0370,"서울특별시 강서구 방화대로47가길 7 (방화동, 방화샤르망1오피스텔)",7511.0,와우동물병원,2018-08-31,126.81303285630418,37.57649924496404
1036,315000001020210003,1,영업/정상,0,정상,,서울특별시 강서구 내발산동 702-16 ,02-2664-8275,"서울특별시 강서구 강서로 282, 1층 (내발산동)",7680.0,우장산동물의료센터,2021-07-08,126.83658932143227,37.55090748225177
1037,315000001020210004,1,영업/정상,0,정상,,서울특별시 강서구 내발산동 750 발산로얄타워 ,02-2666-2611,"서울특별시 강서구 수명로 82, 발산로얄타워 2층 202호 (내발산동)",7635.0,마음사랑 동물병원,2021-08-15,126.8264625346112,37.55345366959899
1038,315000001020210002,1,영업/정상,0,정상,,서울특별시 강서구 등촌동 507-8 렙쇼메이빌딩 ,02-6953-7576,"서울특별시 강서구 등촌로 223, 렙쇼메이빌딩 2층 (등촌동)",7665.0,로운동물의료센터,2021-07-24,126.86338400813557,37.54962468961312
1039,315000001020190002,1,영업/정상,0,정상,,서울특별시 강서구 마곡동 743-4번지 마곡엠밸리7단지 ,2666-7990,"서울특별시 강서구 마곡서로 133, 712동 102-1호 (마곡동, 마곡엠밸리7단지)",7798.0,참동물병원,2019-05-16,126.82385562920646,37.5676898499064
1040,315000001020200001,1,영업/정상,0,정상,,서울특별시 강서구 방화동 245-31 ,0226627515,"서울특별시 강서구 방화대로33길 3, 1~2층 (방화동)",7605.0,마곡M동물의료센터,2021-12-22,126.8163464687668,37.56861265402466
1042,315000001020200003,1,영업/정상,0,정상,,서울특별시 강서구 등촌동 680 한울빌딩 ,02-2235-1533,"서울특별시 강서구 강서로62길 10, 한울빌딩 1층 (등촌동)",7583.0,차지우동물병원,2021-06-02,126.84042884493981,37.56289875958808
1059,316000001020200006,1,영업/정상,0,정상,,서울특별시 구로구 고척동 50-48 고척프라자 ,02-2135-5866,"서울특별시 구로구 중앙로 64, 고척프라자 (고척동)",8218.0,올리브동물병원,2022-01-07,126.862800538098,37.503800504884595
1061,316000001019990001,1,영업/정상,0,정상,,"서울특별시 구로구 구로동 309-2 지상1층, 지하1층 ",839-7585,"서울특별시 구로구 도림로 72, 1,B1층 (구로동)",8371.0,라라동물의료원,2020-10-23,126.89167273237034,37.489323258542605
1062,316000001019990002,1,영업/정상,0,정상,,서울특별시 구로구 구로동 505-17 유성빌딩 ,869-7582,"서울특별시 구로구 구로중앙로31길 30, 24시 지구촌 동물 메디컬센터 (구로동)",8280.0,24시 지구촌 동물메디컬 센터,2021-09-11,126.88478088370871,37.498792877437204
1063,316000001019990003,1,영업/정상,0,정상,,서울특별시 구로구 고척동 265-4번지 28통8반 ,2615-5014,서울특별시 구로구 고척로 157 (고척동),8246.0,개봉동물병원,2019-03-09,126.85112141741796,37.50344907062058
1064,316000001020040008,1,영업/정상,0,정상,,서울특별시 구로구 개봉동 175-8 청실아파트 상가 211호,2681-7585,"서울특별시 구로구 경인로40길 25, 상가동 211호 (개봉동, 청실아파트)",8276.0,한샘동물병원,2021-08-21,126.8597674380796,37.49548259799981
1065,316000001020010002,1,영업/정상,0,정상,,서울특별시 구로구 개봉동 403-144 2층 ,2686-3939,"서울특별시 구로구 개봉로 38-1, 광훈빌딩 2층 (개봉동)",8333.0,케이나인종합동물병원,2021-09-11,126.85640928461537,37.48908806218669
1066,316000001020030002,1,영업/정상,0,정상,,서울특별시 구로구 신도림동 337번지 신도림1차푸르지오 101동 139호,2636-3992,"서울특별시 구로구 경인로 661, 신도림1차푸르지오 101동 139호 (신도림동)",8208.0,신도림동물병원,2019-03-09,126.88774360185143,37.50942085804669
1067,316000001020120001,1,영업/정상,0,정상,,서울특별시 구로구 구로동 501-12번지 진명빌딩 ,859-8775,"서울특별시 구로구 구로중앙로34길 30, 진명빌딩 (구로동)",8293.0,벨라동물병원,2019-03-09,126.88460666096424,37.50057886489096
1068,316000001020140002,1,영업/정상,0,정상,,서울특별시 구로구 천왕동 279-3 골드프라자 201호,02-2060-7512,"서울특별시 구로구 천왕로 106, 골드프라자 201호 (천왕동)",8365.0,안정택동물병원,2022-01-07,126.83934378828015,37.4887903003663
1069,316000001020140004,1,영업/정상,0,정상,,서울특별시 구로구 개봉동 492 개봉푸르지오 ,2619-5102,"서울특별시 구로구 남부순환로 775 (개봉동, 개봉푸르지오)",8236.0,24시 명동물메디컬센터,2022-01-07,126.84813181957209,37.50041023362062
1070,316000001019930002,1,영업/정상,0,정상,,서울특별시 구로구 개봉동 403-138 ,2619-0888,서울특별시 구로구 개봉로 50 (개봉동),8332.0,개명동물병원,2022-01-07,126.85630192332572,37.49018588654445
1071,316000001019980001,1,영업/정상,0,정상,,서울특별시 구로구 오류동 48-1 ,2686-8008,서울특별시 구로구 경인로 196 (오류동),8271.0,금강종합동물병원,2022-01-07,126.84292898300338,37.49536889097655
1072,316000001020040002,1,영업/정상,0,정상,,서울특별시 구로구 고척동 50-95번지 ,2619-7533,서울특별시 구로구 중앙로 67 (고척동),8224.0,해피동물병원,2019-03-09,126.86169794515853,37.503568211848275
1073,316000001020150002,1,영업/정상,0,정상,,서울특별시 구로구 궁동 170-11 2층 ,02-2611-5223,"서울특별시 구로구 오리로 1286, 2층 (궁동)",8255.0,365 마음동물병원,2021-09-11,126.8300230025437,37.49627927257331
1074,316000001020160001,1,영업/정상,0,정상,,서울특별시 구로구 구로동 650-4 SK허브수 B동 205호,0267347500,"서울특별시 구로구 구일로10길 27, SK허브수 B동 2층 5호 (구로동)",8323.0,허브동물병원,2022-01-07,126.87272262777724,37.49588113676805
1075,316000001020180001,1,영업/정상,0,정상,,서울특별시 구로구 고척동 343 고척 월드메르디앙 109동 5호,0236660204,"서울특별시 구로구 중앙로8길 11, 109동 5호 (고척동, 고척 월드메르디앙)",8223.0,드림동물병원,2022-01-07,126.86314722843964,37.502945167441794
1076,316000001019830001,1,영업/정상,0,정상,,서울특별시 구로구 오류동 33-1 예성라온팰리스 103동 101호,2612-3232,"서울특별시 구로구 경인로 236, 예성라온팰리스 103동 101호 (오류동)",8270.0,오류동물병원,2020-08-07,126.84690088329444,37.49708285421049
1077,316000001019930001,1,영업/정상,0,정상,,서울특별시 구로구 구로동 152-6 ,851-1368,서울특별시 구로구 도림로 98 (구로동),8369.0,사랑동물병원,2022-01-07,126.89391138823196,37.49083583127999
1078,316000001020100001,1,영업/정상,0,정상,,"서울특별시 구로구 신도림동 432-1 신도림에스케이뷰 101동 103호, 104호 ",2631-0085,"서울특별시 구로구 경인로 638, 101동 1층 3,4호 (신도림동, 신도림에스케이뷰)",8209.0,구로종합동물병원,2022-01-07,126.88649757154434,37.50700506324964
1079,316000001020110002,1,영업/정상,0,정상,,서울특별시 구로구 오류동 166-9 ,2066-2579,서울특별시 구로구 오류로 55 (오류동),8342.0,캥거루 동물병원,2022-01-07,126.83974900306931,37.48983127863079
1080,316000001020110003,1,영업/정상,0,정상,,서울특별시 구로구 신도림동 337 홈플러스 신도림점 지하1층 ,3439-7533,"서울특별시 구로구 경인로 661, 홈플러스 신도림점 지하1층 (신도림동)",8208.0,아이러브펫동물병원(신도림점),2022-01-07,126.88774360185143,37.50942085804669
1081,316000001020070001,1,영업/정상,0,정상,,서울특별시 구로구 구로동 722-4 ,861-0075,서울특별시 구로구 구로동로 111-1 (구로동),8316.0,푸른동물병원,2022-01-07,126.88430949570267,37.488590815660146
1082,316000001020210002,1,영업/정상,0,정상,,"서울특별시 구로구 항동 121-1 203, 204호 ",02-2687-7582,"서울특별시 구로구 서해안로 2096, 203, 204호 (항동)",8368.0,클로버 동물병원,2021-09-08,126.82298063319732,37.4797452138355
1083,316000001020210001,1,영업/정상,0,정상,,서울특별시 구로구 신도림동 435-10 신도림3차푸르지오아파트 ,02-6949-3575,"서울특별시 구로구 경인로 619-3, 201호 (신도림동, 신도림3차푸르지오아파트)",8210.0,24시 신도림S동물의료센터,2021-08-08,126.88408668620136,37.50684362566615
1084,316000001020200005,1,영업/정상,0,정상,,"서울특별시 구로구 항동 128-14 와이제이프라자 104, 204호 ",0220887578,"서울특별시 구로구 항동로3길 4, 와이제이프라자 104, 204호 (항동)",8368.0,항동푸른숲동물병원,2022-01-07,126.82461984515413,37.48093108403513
1085,316000001020200001,1,영업/정상,0,정상,,서울특별시 구로구 신도림동 400-1 110호,02-2672-7582,"서울특별시 구로구 신도림로 7, 1층 110호 (신도림동)",8206.0,구로다나은동물병원,2022-01-07,126.87714156088455,37.50617619311134
1086,316000001020200002,1,영업/정상,0,정상,,서울특별시 구로구 고척동 76-38번지 원메디타운 201호,028567582,"서울특별시 구로구 경인로 403, 원메디타운 2층 201호 (고척동)",8227.0,고척원동물의료센터,2020-05-03,126.86421799392848,37.498071503238634
1087,316000001020200003,1,영업/정상,0,정상,,서울특별시 구로구 구로동 631-23 서울반려동물교육센터 ,02-2636-7645,"서울특별시 구로구 경인로 472, 서울반려동물교육센터 (구로동)",8278.0,서울동물복지지원센터 동물병원(구로),2021-08-13,126.87101328703262,37.497930550974864
1088,316000001020200004,1,영업/정상,0,정상,,서울특별시 구로구 개봉동 403-229 조양빌딩 ,02-2060-7975,"서울특별시 구로구 개봉로20길 26, 조양빌딩 1층 (개봉동)",8329.0,모두동물병원,2020-07-30,126.85642052709044,37.49322253034771
1113,316000001020040005,1,영업/정상,0,정상,,서울특별시 구로구 개봉동 353-15번지 ,2060-8673,서울특별시 구로구 개봉로 121 (개봉동),8274.0,굿모닝 동물병원,2019-03-09,126.85614214426188,37.4966582009065
1114,317000001020120002,1,영업/정상,0,정상,,서울특별시 금천구 독산동 102-12번지 9통9반 ,,"서울특별시 금천구 두산로 71 (독산동, 롯데빅마켓 3층)",8524.0,쿨펫동물병원,2018-08-31,126.89571299531035,37.47059377836068
1116,317000001020160001,1,영업/정상,0,정상,,서울특별시 금천구 독산동 1023-14번지 ,,"서울특별시 금천구 독산로 225, 1층 (독산동)",8581.0,독산온동물병원,2018-08-31,126.90150699931677,37.46701860752677
1117,317000001020030001,1,영업/정상,0,정상,,서울특별시 금천구 시흥동 837-37 ,894-3030,서울특별시 금천구 독산로 58 (시흥동),8573.0,제일종합동물병원,2021-09-16,126.90623910997321,37.452566613262114
1118,317000001020050002,1,영업/정상,0,정상,,서울특별시 금천구 시흥동 909-5번지 ,804-0975,서울특별시 금천구 금하로 694 (시흥동),8642.0,은행나무종합동물병원,2018-08-31,126.9071329645442,37.45161466728111
1119,317000001020070002,1,영업/정상,0,정상,,서울특별시 금천구 시흥동 838-33번지 ,806-8355,서울특별시 금천구 금하로 679 (시흥동),8627.0,조정연동물병원,2018-08-31,126.90579413139325,37.452602427301315
1120,317000001020070003,1,영업/정상,0,정상,,서울특별시 금천구 독산동 193-31번지 ,856-4113,서울특별시 금천구 독산로 272 (독산동),8557.0,그린동물병원,2018-08-31,126.90323640262176,37.470967598286315
1121,317000001020070004,1,영업/정상,0,정상,,서울특별시 금천구 독산동 378-397번지 ,894-8085,서울특별시 금천구 독산로 188 (독산동),8562.0,금천동물병원,2019-04-10,126.90347544705504,37.463920462756995
1122,317000001020070005,1,영업/정상,0,정상,,서울특별시 금천구 독산동 1077-31번지 ,805-2825,서울특별시 금천구 시흥대로 276 (독산동),8623.0,파랑새동물병원,2019-10-12,126.89954258575142,37.458308625073926
1123,317000001020070009,1,영업/정상,0,정상,,서울특별시 금천구 독산동 1150번지 금천롯데캐슬골드파크2차 ,809-0075,"서울특별시 금천구 벚꽃로 30, 211호 (독산동, 금천롯데캐슬골드파크2차)",8608.0,금나래동물병원,2020-03-18,126.89417645553611,37.45823978482844
1124,317000001020080001,1,영업/정상,0,정상,,서울특별시 금천구 시흥동 262-6번지 ,805-4758,서울특별시 금천구 금하로 745 (시흥동),8656.0,노아동물병원,2019-01-20,126.9125734741738,37.45021250354452
1125,317000001020160002,1,영업/정상,0,정상,,서울특별시 금천구 독산동 1102-5번지 ,028071616,"서울특별시 금천구 금하로1라길 35, 1층 (독산동)",8600.0,조아동물병원,2018-08-31,126.89037747517803,37.45379496462346
1126,317000001020170001,1,영업/정상,0,정상,,서울특별시 금천구 독산동 145-13번지 ,02-855-8575,서울특별시 금천구 시흥대로 483 (독산동),8531.0,24시 글로리 동물병원,2019-07-20,126.89828790880583,37.47674614847843
1127,317000001020170002,1,영업/정상,0,정상,,서울특별시 금천구 시흥동 999-1 ,02-808-2475,"서울특별시 금천구 시흥대로 251 (시흥동, 도일산호시티빌)",8614.0,금천 24시 K동물의료센터,2021-10-02,126.89953472056764,37.45611833655831
1128,317000001020180001,1,영업/정상,0,정상,,서울특별시 금천구 시흥동 904-6 서우빌딩 ,802-2811,"서울특별시 금천구 시흥대로 172, 서우빌딩 (시흥동)",8631.0,더조은 동물의료센터,2022-02-12,126.9033109101346,37.449517057806226
1129,317000001020190001,1,영업/정상,0,정상,,서울특별시 금천구 가산동 550-1번지 IT캐슬 ,6978-9500,"서울특별시 금천구 가산디지털2로 98, IT캐슬 2동 210호 (가산동)",8506.0,나비셀 동물의료센터,2019-11-03,126.88060747926603,37.476786986914135
1142,317000001020130001,1,영업/정상,0,정상,,서울특별시 금천구 독산동 950-3 ,853-7582,서울특별시 금천구 남부순환로 1386 (독산동),8547.0,우리동물메디컬센터,2021-10-08,126.90472722739585,37.479730346104304
1158,318000001020180004,1,영업/정상,0,정상,,서울특별시 영등포구 양평동1가 28-3 ,02-2676-7582,"서울특별시 영등포구 영등포로 85-1, 1, 2, 지층 (양평동1가)",7262.0,24시 수 동물메디컬센터,2021-01-10,126.89116891920372,37.522339302710094
1159,318000001020000002,1,영업/정상,0,정상,,서울특별시 영등포구 신길동 95-39번지 ,841-0075,서울특별시 영등포구 영등포로76길 1 (신길동),7352.0,참 동물병원,2018-08-31,126.91984859561856,37.51364670333751
1160,318000001020010002,1,영업/정상,0,정상,,서울특별시 영등포구 신길동 232-15 ,849-6509,서울특별시 영등포구 신길로 168 (신길동),7362.0,우신종합동물병원,2021-07-25,126.91122934969374,37.50720801783041
1161,318000001020020001,1,영업/정상,0,정상,,서울특별시 영등포구 신길동 829-1번지 ,847-6759,서울특별시 영등포구 여의대방로 201 (신길동),7360.0,한국동물병원,2018-08-31,126.92201754856274,37.50498188306434
1162,318000001020170003,1,영업/정상,0,정상,,"서울특별시 영등포구 당산동5가 11-30 1,2층 ",02-2635-2475,"서울특별시 영등포구 양평로 5, 1,2층 (당산동5가, 성원빌딩)",7214.0,이든동물의료센터,2020-06-27,126.90504031848113,37.53209169669206
1163,318000001020170004,1,영업/정상,0,정상,,서울특별시 영등포구 신길동 2039 상가동 C119호,02-848-7975,"서울특별시 영등포구 신풍로 77, 상가동 C119호 (신길동, 래미안에스티움)",7390.0,신길 온동물병원,2020-08-08,126.9141127069776,37.50160525481392
1164,318000001020140001,1,영업/정상,0,정상,,서울특별시 영등포구 영등포동8가 72 미소로 ,2679-9997,"서울특별시 영등포구 영신로 238, 미소로 107,108,204호 (영등포동8가)",7228.0,미소로동물병원,2021-10-31,126.90421315565013,37.52856042279884
1165,318000001020160001,1,영업/정상,0,정상,,서울특별시 영등포구 영등포동 423-44 1층 ,02-571-8275,"서울특별시 영등포구 경인로 832, 1층 (영등포동, 대성빌딩)",7306.0,경인동물의료센터,2021-03-07,126.90541338487256,37.51568524714472
1166,318000001020160003,1,영업/정상,0,정상,,서울특별시 영등포구 신길동 162-10번지 ,02-835-7975,"서울특별시 영등포구 도신로 225-1, 1층 (신길동, 정일빌딩)",7316.0,아람동물병원,2018-08-31,126.91596374898879,37.512152856659725
1167,318000001020170002,1,영업/정상,0,정상,,서울특별시 영등포구 여의도동 53-3번지 미라클빌딩 4층 ,02-783-7580,"서울특별시 영등포구 국제금융로 108, 4층 (여의도동, 미라클빌딩)",7343.0,여의도 동물병원,2020-03-04,126.93355935609414,37.51872325195303
1168,318000001020100003,1,영업/정상,0,정상,,서울특별시 영등포구 신길동 4824 ,833-7554,서울특별시 영등포구 여의대방로 11 (신길동),7437.0,유석동물병원,2020-08-27,126.90980685167776,37.493469364570394
1169,318000001020110001,1,영업/정상,0,정상,,서울특별시 영등포구 여의도동 47번지 자이상가 501동 109호 ,786-7582,"서울특별시 영등포구 여의동로3길 10 (여의도동,자이상가 501동 109호)",,I-pet 동물병원,2019-01-09,126.9260536378654,37.518172331452924
1170,318000001020120001,1,영업/정상,0,정상,,서울특별시 영등포구 대림동 776-2번지 ,02-834-7582,서울특별시 영등포구 가마산로 324 (대림동),7411.0,왈츠동물병원,2018-08-31,126.8955202196719,37.49842369664751
1171,318000001020120002,1,영업/정상,0,정상,,서울특별시 영등포구 문래동3가 55-3번지 4층 ,02-2069-0082,"서울특별시 영등포구 당산로 42, 4층 (문래동3가, 삼성홈플러스빌딩)",7297.0,도그플러스동물병원,2018-08-31,126.89592407354473,37.51822700678245
1172,318000001020130001,1,영업/정상,0,정상,,서울특별시 영등포구 당산동1가 40-18번지 ,2633-9991,서울특별시 영등포구 영등포로 131-2 (당산동1가),7266.0,영등포동물병원,2018-08-31,126.89625372312429,37.52155065543766
1173,318000001020130004,1,영업/정상,0,정상,,서울특별시 영등포구 신길동 100-12번지 중양빌딩 ,02-844-7775,서울특별시 영등포구 도신로 252 (신길동),7352.0,한가람동물의료센터,2019-04-25,126.91853415718955,37.51343239977925
1174,318000001020040002,1,영업/정상,0,정상,,서울특별시 영등포구 영등포동7가 64-48번지 ,2632-8687,서울특별시 영등포구 영중로27길 10 (영등포동7가),7245.0,서울동물병원,2018-08-31,126.9042458515635,37.524342566401735
1175,318000001020060003,1,영업/정상,0,정상,,서울특별시 영등포구 양평동2가 1-1번지 신동아하이팰리스상가 104동 131호,2068-2277,"서울특별시 영등포구 선유서로 67, 104동 131호 (양평동2가,신동아하이팰리스상가)",,애드펫동물병원,2019-04-25,126.88466373727249,37.521885072473644
1176,318000001020070001,1,영업/정상,0,정상,,서울특별시 영등포구 당산동5가 11-33번지 당산디오빌 1층 103-3 ,02-2671-0026,"서울특별시 영등포구 당산로 222 (당산동5가,당산디오빌 1층 103-3)",,디오빌 동물병원,2018-08-31,126.90226798234052,37.53323409806268
1177,318000001020070002,1,영업/정상,0,정상,,서울특별시 영등포구 여의도동 42-1번지 롯데슈퍼 2층 ,02-785-7582,"서울특별시 영등포구 국제금융로 79 (여의도동,롯데슈퍼 2층)",,Dr.수동물병원,2018-08-31,126.9333435821104,37.520510101846355
1178,318000001020100001,1,영업/정상,0,정상,,서울특별시 영등포구 신길동 214-55 2층 ,845-0780,"서울특별시 영등포구 도신로 186 (신길동,2층)",,온누리 종합동물병원,2021-01-16,126.91204193927632,37.51083558625552
1179,318000001020200001,1,영업/정상,0,정상,,서울특별시 영등포구 양평동4가 281 르네상스 한강 오피스텔 ,,"서울특별시 영등포구 양평로12가길 14, 르네상스 한강 오피스텔 1층 103호 (양평동4가)",7222.0,플러스동물메디컬센터,2021-04-16,126.89964500333166,37.536813664988955
1180,318000001020210001,1,영업/정상,0,정상,,서울특별시 영등포구 신길동 4937 신길뉴타운 한화 꿈에그린 ,,"서울특별시 영등포구 신길로 119, 112동 비104,105호 (신길동, 신길뉴타운 한화 꿈에그린)",7400.0,시그널동물병원,2021-04-15,126.90960776541552,37.50296343510514
1181,318000001020180005,1,영업/정상,0,정상,,서울특별시 영등포구 당산동4가 94-1번지 당산2차삼성아파트 ,02-6933-0113,"서울특별시 영등포구 당산로36길 12, 111호 (당산동4가, 당산2차삼성아파트)",7220.0,그림책 읽어주는 동물병원,2019-03-08,126.8984320440843,37.52785310452243
1182,318000001020210003,1,영업/정상,0,정상,,서울특별시 영등포구 도림동 216-2 ,028497582,"서울특별시 영등포구 도영로 31, 1층 (도림동)",7373.0,도림하나동물병원,2021-07-15,126.89661809921621,37.509007500813766
