번호,MANAGEMENT_NUMBER,영업상태구분코드,영업상태명,상세영업상태코드,상세영업상태명,SUB_ZIPCODE,SUB_ADDRESS,ADDRESS,ZIP_CODE,NAME,데이터갱신일자,LONGITUDE,LATITUDE
4412,362000001020120003,1,영업/정상,0000,정상,,광주광역시 북구 일곡동 843-5번지,광주광역시 북구 양일로305번길 8 (일곡동),61040.0,일곡동물병원,2018-08-31 23:59:59.0,126.89717558477851,35.203169957500734
4413,362000001020150001,1,영업/정상,0000,정상,,광주광역시 북구 임동 5-16번지,광주광역시 북구 태봉로 37-6 (임동),61244.0,우리동물병원,2019-04-25 02:40:00.0,126.90334787336604,35.161558401564825
4414,362000001020150002,1,영업/정상,0000,정상,,광주광역시 북구 양산동 254-123,"광주광역시 북구 하서로 371, 1층 (양산동)",61074.0,참좋은 동물병원,2021-05-20 02:40:00.0,126.87345272433218,35.208093514641185
4415,362000001020150003,1,영업/정상,0000,정상,,광주광역시 북구 오치동 1028-27,광주광역시 북구 서하로 319-1 (오치동),61124.0,김앤강 동물병원,2021-01-16 02:40:00.0,126.9155580298426,35.18708840100704
4416,362000001020150004,1,영업/정상,0000,정상,,광주광역시 북구 우산동 609-3,광주광역시 북구 중문로 74 (우산동),61172.0,빛고을 동물의료센터,2022-01-21 02:40:00.0,126.9206171175803,35.1791039423986
4417,362000001020160002,1,영업/정상,0000,정상,,광주광역시 북구 매곡동 370-7번지,광주광역시 북구 하백로5번길 1 (매곡동),61066.0,24시 언제나 동물병원,2019-04-25 02:40:00.0,126.8904250968161,35.18788521636871
4418,362000001019960001,1,영업/정상,0000,정상,,광주광역시 북구 우산동 232-10번지,광주광역시 북구 동문대로 79 (우산동),,말바우동물병원,2018-08-31 23:59:59.0,126.9225646441534,35.17130560501347
4419,362000001019960002,1,영업/정상,0000,정상,,광주광역시 북구 신안동 479-36,광주광역시 북구 서암대로 167 (신안동),,유동물병원,2021-01-16 02:40:00.0,126.90251226420438,35.169321341543665
4420,362000001020170002,1,영업/정상,0000,정상,,광주광역시 북구 삼각동 780-1,광주광역시 북구 설죽로471번길 101-102 (삼각동),61057.0,이든동물병원,2021-10-27 02:40:00.0,126.89893553216832,35.20134103816335
4421,362000001020170003,1,영업/정상,0000,정상,,광주광역시 북구 지야동 802-35번지,"광주광역시 북구 하서로 652-6, 103호 (지야동)",61027.0,소담동물병원,2019-03-19 02:40:00.0,126.8868524959121,35.230778611393156
4422,362000001020180001,1,영업/정상,0000,정상,,광주광역시 북구 본촌동 378-6 동물보호소,"광주광역시 북구 본촌마을길 27, 동물보호소 (본촌동)",61027.0,광주동물보호소 부속동물병원,2021-07-08 02:40:00.0,126.88143943271453,35.2224928534869
4423,345000001019840001,1,영업/정상,0000,정상,,대구광역시 북구 산격동 1370-1 경북대학교 수의과대학,"대구광역시 북구 대학로 80 (산격동, 경북대학교 수의과대학)",41566.0,경북대학교 수의과대학 부속동물병원,2021-10-14 02:40:00.0,128.61001942024507,35.890706531540154
4424,345000001019920002,1,영업/정상,0000,정상,,대구광역시 북구 검단동 700-2,대구광역시 북구 검단북로 154 (검단동),,대구축협동물병원,2022-01-12 02:40:00.0,128.62303434953984,35.9157549906753
4425,345000001020010001,1,영업/정상,0000,정상,,대구광역시 북구 관음동 1383-14,대구광역시 북구 칠곡중앙대로 483 (관음동),,강동물병원,2021-10-15 02:40:00.0,128.54926642261069,35.93884348350583
4426,345000001020150002,1,영업/정상,0000,정상,,대구광역시 북구 태전동 1113,대구광역시 북구 칠곡중앙대로 189 (태전동),41471.0,다온동물병원,2021-10-15 02:40:00.0,128.5480593521532,35.912969421873754
4427,345000001020170001,1,영업/정상,0000,정상,,대구광역시 북구 칠성동2가 2-2,"대구광역시 북구 침산로21길 23 (칠성동2가, 침산1차푸르지오)",41593.0,신한동물병원,2021-10-15 02:40:00.0,128.58797471693345,35.88524461892046
4428,345000001019810001,1,영업/정상,0000,정상,,대구광역시 북구 읍내동 781-1,대구광역시 북구 칠곡중앙대로 531 (읍내동),41442.0,동명동물병원,2021-10-15 02:40:00.0,128.55042047241758,35.9431471601394
4429,345000001020030003,1,영업/정상,0000,정상,,대구광역시 북구 동천동 932-4,대구광역시 북구 대천로 72-1 (동천동),,굿모닝동물병원,2021-10-15 02:40:00.0,128.5571748611147,35.93697317181045
4430,345000001020030004,1,영업/정상,0000,정상,,대구광역시 북구 산격동 1216-4,대구광역시 북구 산격로 109 (산격동),,가나동물병원,2021-10-15 02:40:00.0,128.60824690754976,35.89932388838385
4431,345000001020030005,1,영업/정상,0000,정상,,대구광역시 북구 관음동 1386-7,대구광역시 북구 칠곡중앙대로 471 (관음동),,늘푸른종합동물병원,2021-10-15 02:40:00.0,128.54892198017404,35.937772486650296
4432,345000001020040001,1,영업/정상,0000,정상,,대구광역시 북구 동천동 668-1 13통5반 칠곡홈플러스 301호,"대구광역시 북구 동암로12길 8, 2층 (동천동, 칠곡홈플러스)",41422.0,도그플러스 동물병원(미유펫 대구점),2021-10-15 02:40:00.0,128.55593952768146,35.944849218281774
4433,345000001020050003,1,영업/정상,0000,정상,,대구광역시 북구 태전동 1195,"대구광역시 북구 학정로 149, 한우리메디타워 2층 204호 (태전동)",41467.0,순풍동물병원,2021-10-15 02:40:00.0,128.55113110746305,35.921474390029815
4434,318000001020210002,1,영업/정상,0000,정상,,서울특별시 영등포구 신길동 324-49 영민빌딩 1층,"서울특별시 영등포구 가마산로 449-1, 영민빌딩 1층 (신길동)",7383.0,다움동물병원,2021-07-02 00:23:01.0,126.90632026206501,37.50578087752379
4435,541000001019750001,1,영업/정상,0000,정상,,경상남도 창녕군 남지읍 남지리 534-11 2통2반,경상남도 창녕군 남지읍 동포로 9,50358.0,남지가축병원,2021-01-20 02:40:00.0,128.48149779824175,35.3900640286942
4436,541000001020040001,1,영업/정상,0000,정상,,경상남도 창녕군 창녕읍 하리 421-1,경상남도 창녕군 창녕읍 갈전길 153,,창녕축협동물병원,2021-03-24 02:40:00.0,128.48359991940853,35.56366930694858
4437,541000001020070001,1,영업/정상,0000,정상,,경상남도 창녕군 영산면 동리 134-26번지,경상남도 창녕군 영산면 원다리길 45-2,50345.0,미래동물병원,2018-10-10 02:35:48.0,128.5290260393694,35.45372382711584
4438,541000001019940001,1,영업/정상,0000,정상,,경상남도 창녕군 창녕읍 말흘리 747-11번지,경상남도 창녕군 창녕읍 창녕대로 153-1,50333.0,광진동물병원,2018-08-31 23:59:59.0,128.50082248851345,35.53276444280508
4439,541000001020020001,1,영업/정상,0000,정상,,경상남도 창녕군 영산면 서리 216-9번지,경상남도 창녕군 영산면 영산장마로 745,50342.0,김수의과병원&lt;산업동물출장진료전문병원&gt;,2018-08-31 23:59:59.0,128.5253640243024,35.45748574994534
4440,541000001019690001,1,영업/정상,0000,정상,,경상남도 창녕군 창녕읍 술정리 294-7,경상남도 창녕군 창녕읍 창녕대로 54,,남창가축병원,2021-08-13 02:40:00.0,128.49309815346362,35.53899374382188
4441,541000001019630001,1,영업/정상,0000,정상,,경상남도 창녕군 영산면 서리 110-3번지 5통3반,경상남도 창녕군 영산면 로터리길 38,50345.0,영산가축병원<산업동물출장진료전문병원>,2018-08-31 23:59:59.0,128.5301632902908,35.454599473055794
4442,542000001020120001,1,영업/정상,0000,정상,,경상남도 고성군 고성읍 송학리 416-58번지,경상남도 고성군 고성읍 송학고분로 317,52931.0,미소종합동물병원,2020-03-08 02:40:00.0,128.32470267191957,34.98157726358756
4443,542000001020140001,1,영업/정상,0000,정상,,경상남도 고성군 고성읍 수남리 542-31번지,경상남도 고성군 고성읍 남포로 75-3,52935.0,서울동물병원,2019-09-06 02:40:00.0,128.32026085061884,34.96981949378549
4444,546000001020030001,1,영업/정상,0000,정상,,경상남도 함양군 함양읍 교산리 189-1번지 6통2반,경상남도 함양군 함양읍 함양로 1182-1,50033.0,현대동물병원(출장진료전문병원),2018-08-31 23:59:59.0,127.7289429902865,35.52414296825061
4445,546000001020030002,1,영업/정상,0000,정상,,경상남도 함양군 안의면 금천리 115-5번지,경상남도 함양군 안의면 종로길 11-6,50011.0,이수의과동물병원,2019-01-18 02:40:00.0,127.81336959236674,35.62805546012291
4446,546000001020030006,1,영업/정상,0000,정상,,경상남도 함양군 함양읍 교산리 396-1번지,경상남도 함양군 함양읍 함양로 1271,50031.0,진동물병원,2019-03-08 02:40:00.0,127.73386617560665,35.530718620918705
4447,546000001020030007,1,영업/정상,0000,정상,,경상남도 함양군 함양읍 용평리 646-2번지,경상남도 함양군 함양읍 중앙시장길 17 (신성가축병원),50046.0,신성가축병원,2019-01-18 02:40:00.0,127.73014977281062,35.51780888180697
4448,546000001020030008,1,영업/정상,0000,정상,,경상남도 함양군 함양읍 백연리 340,경상남도 함양군 함양읍 돌북1길 27,50044.0,형제동물병원,2020-11-01 02:40:00.0,127.7217021225067,35.51659959637567
4449,546000001020170001,1,영업/정상,0000,정상,,경상남도 함양군 함양읍 용평리 628-7번지 105호,"경상남도 함양군 함양읍 용평중앙길 43, 1층 105호",50039.0,함양동물병원,2018-08-31 23:59:59.0,127.73134267188954,35.519257871664664
4450,461000001019770001,1,영업/정상,0000,정상,,충청남도 예산군 예산읍 주교리 225-1번지 2통우영연립 A동 203호,충청남도 예산군 예산읍 예산로 31,32431.0,새마을동물병원,2018-08-31 23:59:59.0,126.8300230291696,36.6856772155136
4451,461000001019860001,1,영업/정상,0000,정상,,충청남도 예산군 덕산면 읍내리 234-12번지 2통,충청남도 예산군 덕산면 예덕로 8,32406.0,김태오 동물병원,2018-08-31 23:59:59.0,126.66944623299004,36.70468160286582
4452,461000001019900001,1,영업/정상,0000,정상,,충청남도 예산군 예산읍 예산리 182,충청남도 예산군 예산읍 아리랑로 236,32434.0,흙 동물병원,2021-08-12 02:40:00.0,126.85214431659782,36.681026758956435
4453,461000001019960001,1,영업/정상,0000,정상,,충청남도 예산군 고덕면 대천리 663번지 1통삼미아파트 B동 603호,충청남도 예산군 고덕면 고덕중앙로 86,32403.0,중앙 동물병원,2018-08-31 23:59:59.0,126.70240177945465,36.746723603205176
4454,461000001019980001,1,영업/정상,0000,정상,,충청남도 예산군 예산읍 주교리 240-5번지 1통,충청남도 예산군 예산읍 역전로 51,32431.0,예산 동물병원,2018-08-31 23:59:59.0,126.82907604259583,36.683717180477295
4455,461000001020060001,1,영업/정상,0000,정상,,충청남도 예산군 삽교읍 송산리 73-5번지,충청남도 예산군 삽교읍 충의로 170,340901.0,한솔가축병원,2018-08-31 23:59:59.0,126.68693445967068,36.69487857893271
4456,461000001020090002,1,영업/정상,0000,정상,,충청남도 예산군 예산읍 예산리 880번지 한양아파트 30동 1103호,충청남도 예산군 예산읍 사직로 24,32435.0,협동동물병원,2018-08-31 23:59:59.0,126.84848660528863,36.68159648446592
4457,461000001020100002,1,영업/정상,0000,정상,,충청남도 예산군 광시면 광시리 657-2번지 104호,충청남도 예산군 광시면 예당로 190 (104호),,강이동물병원,2018-08-31 23:59:59.0,126.77596639885047,36.55147923529309
4458,449000001019960001,1,영업/정상,0000,정상,,충청남도 천안시 동남구 청당동 511,충청남도 천안시 동남구 청수11로 12 (청당동),31198.0,천안축산업협동조합 부설동물병원,2020-11-07 02:40:00.0,127.15362265511251,36.7825250755526
4459,449000001019980001,1,영업/정상,0000,정상,,충청남도 천안시 서북구 쌍용동 1169번지,충청남도 천안시 서북구 쌍용대로 51 (쌍용동),31155.0,우리동물병원,2018-08-31 23:59:59.0,127.13139647975831,36.80205468662638
4460,449000001019980002,1,영업/정상,0000,정상,,충청남도 천안시 동남구 원성동 587-10번지,충청남도 천안시 동남구 충무로 475 (원성동),31186.0,장원동물병원,2019-03-09 02:40:00.0,127.15798614475563,36.79888866459971
4461,449000001020000002,1,영업/정상,0000,정상,,충청남도 천안시 서북구 성환읍 매주리 330-1,충청남도 천안시 서북구 성환읍 매주4길 20,31011.0,하나동물병원,2021-10-03 02:40:00.0,127.12793159698364,36.91164914702276
4462,449000001020020006,1,영업/정상,0000,정상,,충청남도 천안시 동남구 성황동 10-16번지,충청남도 천안시 동남구 대흥로 320 (성황동),,그림동물병원,2018-08-31 23:59:59.0,127.15076732989735,36.81627989385125
4463,449000001020030001,1,영업/정상,0000,정상,,충청남도 천안시 동남구 신부동 816번지 대흥빌딩,충청남도 천안시 동남구 터미널2로 8 (신부동),31119.0,에니펫동물병원,2018-08-31 23:59:59.0,127.15849724644616,36.819637381008675
4464,449000001020040001,1,영업/정상,0000,정상,,충청남도 천안시 서북구 두정동 1263번지 주차빌딩101,"충청남도 천안시 서북구 두정로 203 (두정동,주차빌딩101)",,펫프렌즈동물병원,2018-08-31 23:59:59.0,127.13960840011433,36.83396937138421
4465,449000001020040004,1,영업/정상,0000,정상,,충청남도 천안시 서북구 쌍용동 1544-1번지 쌍용메디칼,"충청남도 천안시 서북구 월봉로 85, 쌍용메디칼 (쌍용동)",31171.0,김수영 동물병원,2019-01-17 02:40:00.0,127.1178911576417,36.79837310402305
4466,461000001020130002,1,영업/정상,0000,정상,,충청남도 예산군 예산읍 대회리 1 공주대학교 산업과학대학 내,충청남도 예산군 예산읍 대학로 54 (공주대학교 산업과학대학 내),,충남야생동물구조센터,2021-05-27 02:40:00.0,126.8596662843271,36.670080946128444
4467,461000001020160002,1,영업/정상,0000,정상,,충청남도 예산군 예산읍 산성리,충청남도 예산군 예산읍 벚꽃로 153,32428.0,KU건국동물병원,2018-08-31 23:59:59.0,126.83632351998992,36.69418360018789
4468,461000001020170001,1,영업/정상,0000,정상,,충청남도 예산군 고덕면 대천리 728-18번지,충청남도 예산군 고덕면 황금뜰로 215,32403.0,윤동물병원·약품(출장진료전문),2019-05-01 02:40:00.0,126.70429997127385,36.746430388609845
4469,461000001020180001,1,영업/정상,0000,정상,,충청남도 예산군 덕산면 신평리 91-5,충청남도 예산군 덕산면 수암산로 160,32406.0,마일스톤피그클리닉(출장진료전문),2020-09-20 02:40:00.0,126.67132377199434,36.68993643565965
4470,565000001020130001,1,영업/정상,0000,정상,,충청남도 천안시 동남구 신부동 319-37번지,충청남도 천안시 동남구 중앙로 281-2 (신부동),31117.0,고려동물병원,2018-08-31 23:59:59.0,127.15244726476882,36.82345212362789
4471,565000001020130003,1,영업/정상,0000,정상,,충청남도 천안시 동남구 청수동 262번지 청솔LG아파트 상가 지하1층 2호,"충청남도 천안시 동남구 청수로 98 (청수동, 청솔LG아파트 상가 지하1층 2호)",31194.0,서현동물병원,2018-08-31 23:59:59.0,127.15621981740667,36.79127423916805
4472,565000001020130004,1,영업/정상,0000,정상,,충청남도 천안시 동남구 청수동 261번지 청솔LG아파트 상가 지하1층1호,"충청남도 천안시 동남구 청수로 98 (청수동, 청솔LG아파트 상가 지하1층1호)",31194.0,다산동물병원,2018-08-31 23:59:59.0,127.1577024168119,36.79189892947143
4474,565000001020150004,1,영업/정상,0000,정상,,충청남도 천안시 동남구 청당동 153-15,"충청남도 천안시 동남구 남부대로 344, 1층 (청당동)",31211.0,가온동물병원,2021-12-23 02:40:00.0,127.15506799411403,36.78089665247989
4475,565000001020160002,1,영업/정상,0000,정상,,충청남도 천안시 동남구 신부동 388-5번지 천광빌딩,"충청남도 천안시 동남구 대흥로 339, 천광빌딩 (신부동)",31121.0,열린동물병원,2019-07-20 02:40:00.0,127.15151605041001,36.818066097928465
4477,449000001019850001,1,영업/정상,0000,정상,,충청남도 천안시 서북구 성환읍 성환리 449-118번지,충청남도 천안시 서북구 성환읍 성환1로 235,,충일,2018-08-31 23:59:59.0,127.12787556607708,36.91569442265721
4478,449000001019860001,1,영업/정상,0000,정상,,충청남도 천안시 동남구 신방동 263-3번지,충청남도 천안시 동남구 풍세로 614 (신방동),,유일동물병원(산업동물에 대한 출장진료를 전문으로 함.),2018-08-31 23:59:59.0,127.13236107271884,36.76798054754239
4479,449000001019910001,1,영업/정상,0000,정상,,충청남도 천안시 서북구 성환읍 성환리 449-342번지,충청남도 천안시 서북구 성환읍 성환1로 275,,태성동물병원,2019-05-01 02:40:00.0,127.12744303070303,36.919319132510864
4480,565000001020160003,1,영업/정상,0000,정상,,충청남도 천안시 동남구 신방동 1536번지,충청남도 천안시 동남구 통정10로 33-10 (신방동),31208.0,나음동물병원,2018-08-31 23:59:59.0,127.13216123649721,36.773764258958835
4481,565000001020160005,1,영업/정상,0000,정상,,충청남도 천안시 동남구 신방동 49-14번지 이화빌딩,"충청남도 천안시 동남구 수곡2길 8-3, 이화빌딩 (신방동)",31176.0,다솜동물병원,2019-12-01 02:40:00.0,127.12843052509467,36.78900019525088
4482,565000001020170001,1,영업/정상,0000,정상,,충청남도 천안시 동남구 봉명동 32-1,"충청남도 천안시 동남구 봉정로 6, 2층 (봉명동)",31153.0,치유동물병원,2021-04-11 02:40:00.0,127.13946772741141,36.80277500954816
4483,565000001020170002,1,영업/정상,0000,정상,,충청남도 천안시 동남구 수신면 속창리 134-6번지,충청남도 천안시 동남구 수신면 수신로 455,31251.0,다나동물병원(산업동물에 대한 출장진료를 전문으로 함.),2019-05-01 02:40:00.0,127.28339497903629,36.73218407972647
4484,565000001020180001,1,영업/정상,0000,정상,,충청남도 천안시 동남구 신부동 88-3,충청남도 천안시 동남구 충절로 35 (신부동),31125.0,서울88동물의료원,2021-12-23 02:40:00.0,127.15859604764873,36.81584025315082
4485,449000001019910002,1,영업/정상,0000,정상,,충청남도 천안시 서북구 성정동 434-9,충청남도 천안시 서북구 쌍용대로 317 (성정동),,늘푸른동물병원두정의료센터,2020-08-30 02:40:00.0,127.137020304026,36.82523067386261
4486,449000001019920001,1,영업/정상,0000,정상,,충청남도 천안시 동남구 원성동 601-1번지,충청남도 천안시 동남구 원거리7길 2 (원성동),,중앙동물병원,2018-08-31 23:59:59.0,127.1537777527634,36.798960659352204
4487,449000001019940001,1,영업/정상,0000,정상,,충청남도 천안시 동남구 영성동 67-3번지 18통3반,충청남도 천안시 동남구 대흥로 94-1 (영성동),31131.0,녹십자,2018-08-31 23:59:59.0,127.15193842621153,36.7993451789702
4488,449000001019940002,1,영업/정상,0000,정상,,충청남도 천안시 서북구 성환읍 매주리 435-1번지,충청남도 천안시 서북구 성환읍 성환1로 116,31019.0,천안공주낙농축산업협동조합부설동물병원,2018-08-31 23:59:59.0,127.12938451477403,36.904772918271966
4489,449000001019950003,1,영업/정상,0000,정상,,충청남도 천안시 동남구 다가동 373-3번지,충청남도 천안시 동남구 차돌로 50 (다가동),,대전충남 양돈축산업협동조합 부설동물병원,2020-04-19 02:40:00.0,127.13613829141092,36.80074357556604
4490,566000001020120002,1,영업/정상,0000,정상,,충청남도 천안시 서북구 불당동 1220 1층호,"충청남도 천안시 서북구 불당7길 25, 1층 (불당동)",31164.0,동물병원닥터스,2021-03-13 02:40:00.0,127.11203356932555,36.80314438470302
4491,440000001020070001,1,영업/정상,0000,정상,,충청북도 제천시 명동 11-9번지,충청북도 제천시 의병대로 55-3 (명동),27169.0,한일동물병원,2018-08-31 23:59:59.0,128.20706086480524,37.137365279587996
4492,440000001020160001,1,영업/정상,0000,정상,,충청북도 제천시 하소동 165-59번지,충청북도 제천시 원뜰로 34 (하소동),27187.0,명진동물병원,2018-08-31 23:59:59.0,128.19502584020847,37.13323977162482
4493,440000001020170001,1,영업/정상,0000,정상,,충청북도 제천시 장락동 635-27,"충청북도 제천시 죽하로 5, 1층 (장락동)",27148.0,제천 그레이스 동물병원,2020-09-04 02:40:00.0,128.2224806817857,37.1522991394015
4494,447000001019840001,1,영업/정상,0000,정상,,충청북도 음성군 삼성면 덕정리 525-19번지,충청북도 음성군 삼성면 대성로 613,27652.0,삼성가축병원,2019-04-17 02:40:00.0,127.49831180108752,37.01839736070893
4495,447000001019870001,1,영업/정상,0000,정상,,충청북도 음성군 음성읍 읍내리 549-12 6통3반,충청북도 음성군 음성읍 중앙로 142,27695.0,음성동물병원,2020-09-23 02:40:00.0,127.68998906201568,36.93657272572594
4496,447000001019900001,1,영업/정상,0000,정상,,충청북도 음성군 금왕읍 금석리 275-10번지,충청북도 음성군 금왕읍 대금로 1498,,금왕동물병원,2018-08-31 23:59:59.0,127.5984641885438,36.98920105265763
4497,447000001019990001,1,영업/정상,0000,정상,,충청북도 음성군 음성읍 읍내리 398-7번지,충청북도 음성군 음성읍 중앙로40번길 24,27706.0,남영가축병원 (출장진료전문병원),2018-08-31 23:59:59.0,127.69206716787797,36.9275443179154
4499,447000001020070002,1,영업/정상,0000,정상,,충청북도 음성군 대소면 대풍리 524-2번지,충청북도 음성군 대소면 대금로54번길 8,27671.0,반석가금진료연구소,2018-08-31 23:59:59.0,127.45188146493447,36.98554855267367
4500,447000001020160002,1,영업/정상,0000,정상,,,"충청북도 음성군 대소면 대금로 822, A단지 나동 104호 (대왕하이텍공구타운A단지)",27663.0,전동물병원 (출장진료전문병원),2018-08-31 23:59:59.0,127.527557006562,36.98024195920055
4501,447000001020160004,1,영업/정상,0000,정상,,충청북도 음성군 대소면 태생리 519번지,충청북도 음성군 대소면 대금로 502,27666.0,대소동물병원,2018-08-31 23:59:59.0,127.49361295588768,36.9667986805351
4502,447000001020180001,1,영업/정상,0000,정상,,충청북도 음성군 맹동면 동성리 501,"충청북도 음성군 맹동면 대하1길 4, 위너스타워 2층 205, 206호",27738.0,그린벨동물의료센터,2020-10-14 02:40:00.0,127.54106945938065,36.907802572859694
4503,447000001020110001,1,영업/정상,0000,정상,,충청북도 음성군 음성읍 읍내리 314-9,충청북도 음성군 음성읍 시장로 99,,음성축산업협동조합 동물병원,2021-12-09 02:40:00.0,127.6920853762945,36.93629804676653
4504,440000001019900001,1,영업/정상,0000,정상,,충청북도 제천시 중앙로2가 27-10번지 9통3반,충청북도 제천시 의림대로15길 24 (중앙로2가),27169.0,진주동물병원,2018-08-31 23:59:59.0,128.20992259438273,37.13961996127
4505,301000001019920001,1,영업/정상,0000,정상,,서울특별시 중구 신당동 336-3번지 명덕빌딩,"서울특별시 중구 다산로 175, 명덕빌딩 (신당동)",4608.0,바우미우동물병원,2019-03-08 02:40:00.0,127.01284124782988,37.55929228742125
4506,301000001019950001,1,영업/정상,0000,정상,,서울특별시 중구 묵정동 32-1번지,서울특별시 중구 퇴계로 254-1 (묵정동),4619.0,황동물병원,2019-03-08 02:40:00.0,127.00000557791046,37.56237081582202
4507,307000001020000004,1,영업/정상,0000,정상,,서울특별시 성북구 보문동2가 49번지,서울특별시 성북구 보문로 137 (보문동2가),2871.0,서울종합동물병원,2019-04-26 02:40:00.0,127.01819663689125,37.58710366186877
4508,307000001020010002,1,영업/정상,0000,정상,,서울특별시 성북구 장위동 8-2 석계역 한일노벨리아시티 210호,"서울특별시 성북구 화랑로 299, 2층 210호 (장위동, 석계역 한일노벨리아시티)",2779.0,대학동물병원,2021-02-19 02:40:00.0,127.06112204514807,37.613586860560694
4509,307000001020010004,1,영업/정상,0000,정상,,서울특별시 성북구 종암동 19-1번지,서울특별시 성북구 종암로 65 (종암동),2810.0,강북동물병원,2018-08-31 23:59:59.0,127.03516529068199,37.596207131734644
4510,311000001020140001,1,영업/정상,0000,정상,,서울특별시 은평구 응암동 194-23,서울특별시 은평구 백련산로 145 (응암동),3463.0,스머프동물병원,2021-07-21 02:40:00.0,126.92509008100402,37.59820183150988
4511,311000001020140002,1,영업/정상,0000,정상,,서울특별시 은평구 불광동 554-1번지 1층,"서울특별시 은평구 불광로 60, 1층 (불광동)",3365.0,다루동물병원,2019-03-08 02:40:00.0,126.93210903366534,37.61237727447961
4512,311000001020150001,1,영업/정상,0000,정상,,서울특별시 은평구 역촌동 51-22번지,서울특별시 은평구 역말로 7 (역촌동),3415.0,도담동물병원,2019-03-08 02:40:00.0,126.91114786197579,37.60572433432684
4513,311000001020000002,1,영업/정상,0000,정상,,서울특별시 은평구 갈현동 498-3번지,서울특별시 은평구 서오릉로 192 (갈현동),3335.0,미래동물병원,2020-05-29 02:40:00.0,126.9123339996811,37.61377603047329
4514,311000001020010001,1,영업/정상,0000,정상,,서울특별시 은평구 대조동 224-24번지,서울특별시 은평구 서오릉로 140 (대조동),3394.0,더독동물병원,2018-08-31 23:59:59.0,126.91761506837422,37.611361985112644
4515,303000001020030007,1,영업/정상,0000,정상,,서울특별시 성동구 행당동 322-100번지,서울특별시 성동구 행당로8길 41-2 (행당동),,오렌지동물병원,2019-03-08 02:40:00.0,127.03396825279908,37.556041798710716
4516,301000001020110001,1,영업/정상,0000,정상,,서울특별시 중구 신당동 373-64번지,서울특별시 중구 동호로 178 (신당동),4590.0,웰펫동물병원,2019-03-08 02:40:00.0,127.01148586242802,37.554310875875096
4517,321000001019970001,1,영업/정상,0000,정상,,서울특별시 서초구 방배동 809-1,서울특별시 서초구 방배로34길 12 (방배동),6585.0,남서울동물병원,2020-11-21 02:40:00.0,126.99165388713577,37.492438464484984
4518,321000001019980001,1,영업/정상,0000,정상,,서울특별시 서초구 서초동 1603-66,서울특별시 서초구 효령로57길 4 (서초동),6643.0,서초동물병원,2021-09-05 02:40:00.0,127.01704199496831,37.48546208642987
4519,321000001020130004,1,영업/정상,0000,정상,,서울특별시 서초구 서초동 1648-9번지,"서울특별시 서초구 사임당로 97, 1층 (서초동)",6637.0,강남서초 동물병원,2019-01-16 02:40:00.0,127.0203709015289,37.49028116741579
4520,321000001020130005,1,영업/정상,0000,정상,,서울특별시 서초구 서초동 1534-2번지 명성빌딩,"서울특별시 서초구 반포대로 45, 1층 (서초동, 명성빌딩)",6671.0,아델 동물병원,2019-01-16 02:40:00.0,127.0108068629211,37.48452751426248
4521,321000001020130006,1,영업/정상,0000,정상,,서울특별시 서초구 방배동 894-2 선빌딩 101호,"서울특별시 서초구 서초대로 124, 101호 (방배동, 선빌딩)",6661.0,동물제중원금손이 동물병원,2021-04-10 02:40:00.0,126.99606923528796,37.48810929295221
4522,321000001020050004,1,영업/정상,0000,정상,,서울특별시 서초구 서초동 1486-2 삼양빌딩,"서울특별시 서초구 효령로 214, 삼양빌딩 2층 (서초동)",6709.0,다니엘동물병원,2020-10-23 02:40:00.0,127.00771293043425,37.48312431517286
4523,314000001019900001,1,영업/정상,0000,정상,,서울특별시 양천구 신월동 501-12,서울특별시 양천구 중앙로 295 (신월동),8028.0,우신동물병원,2021-03-19 02:40:00.0,126.85140818000619,37.52256808755128
4524,314000001019900002,1,영업/정상,0000,정상,,서울특별시 양천구 목동 657-16,서울특별시 양천구 등촌로 160 (목동),7951.0,강현림 종합동물병원,2020-11-12 02:40:00.0,126.86244561584718,37.54407146277603
4525,314000001019940001,1,영업/정상,0000,정상,,서울특별시 양천구 신정동 1020-17번지,서울특별시 양천구 은행정로 10 (신정동),8087.0,해성동물병원,2019-01-18 02:40:00.0,126.86013661376049,37.52062648086817
4526,321000001020090004,1,영업/정상,0000,정상,,서울특별시 서초구 반포동 18-3 래미안퍼스티지 중심상가 147-8호,"서울특별시 서초구 반포대로 287, 래미안퍼스티지 중심상가 1층 147,148호 (반포동)",6547.0,두리종합동물병원,2021-06-11 02:40:00.0,127.00085234056733,37.504339411656005
4527,321000001020100001,1,영업/정상,0000,정상,,서울특별시 서초구 방배동 925-8번지,"서울특별시 서초구 방배로 119, 1층 (방배동)",6682.0,디아나동물병원,2019-01-13 02:40:00.0,126.99524757420139,37.484656258409444
4528,321000001020040009,1,영업/정상,0000,정상,,서울특별시 서초구 잠원동 50-5 신사쇼핑센터 102-2호,"서울특별시 서초구 나루터로 37, 신사쇼핑센터 1층 102-2호 (잠원동)",6515.0,이상록동물병원,2020-11-21 02:40:00.0,127.01470934846878,37.51615919924254
4529,314000001020080002,1,영업/정상,0000,정상,,서울특별시 양천구 신월동 446-4번지,서울특별시 양천구 월정로 46 (신월동),7936.0,햇살동물병원,2019-01-18 02:40:00.0,126.84232688297311,37.52382510565391
4530,314000001020080004,1,영업/정상,0000,정상,,서울특별시 양천구 목동 917-6 지하2층,서울특별시 양천구 목동동로 309 (목동),7997.0,행복한세상동물병원,2021-06-12 02:40:00.0,126.87608387631663,37.52937306036368
4531,303000001020160002,1,영업/정상,0000,정상,,서울특별시 성동구 성수동2가 339-23번지,서울특별시 성동구 뚝섬로 395 (성수동2가),4781.0,제인동물병원,2019-03-08 02:40:00.0,127.05468973777707,37.539048135296795
4532,311000001020120001,1,영업/정상,0000,정상,,서울특별시 은평구 대조동 187-24번지,서울특별시 은평구 통일로 817 (대조동),3385.0,Dr.윤24시동물병원,2019-07-25 02:40:00.0,126.92317437285449,37.61654637330091
4533,303000001020040004,1,영업/정상,0000,정상,,서울특별시 성동구 금호동2가 485-1,서울특별시 성동구 금호산길 58(금호동2가),4726.0,한빛동물병원,2021-07-03 02:40:00.0,127.01955086204356,37.553342999830484
4534,303000001020060001,1,영업/정상,0000,정상,,서울특별시 성동구 금호동4가 1108번지 지상1층,"서울특별시 성동구 독서당로 289 (금호동4가,지상1층)",,아지동물병원,2019-06-29 02:40:00.0,127.0210454761018,37.54803772365852
4535,303000001020070002,1,영업/정상,0000,정상,,서울특별시 성동구 행당동 318-36,서울특별시 성동구 고산자로 207 (행당동),4714.0,24시센트럴동물메디컬센터,2021-10-20 02:40:00.0,127.03369130811237,37.55867906954862
4536,314000001020070002,1,영업/정상,0000,정상,,서울특별시 양천구 신정동 117-37,서울특별시 양천구 신목로 78 (신정동),8009.0,리더스 동물병원,2020-11-12 02:40:00.0,126.8742488195778,37.52166108197909
4537,303000001020160001,1,영업/정상,0000,정상,,서울특별시 성동구 옥수동 561번지 래미안옥수리버젠 상가동 420호,"서울특별시 성동구 매봉길 13, 1층 420호 (옥수동, 래미안옥수리버젠상가)",4733.0,오석헌동물병원,2018-08-31 23:59:59.0,127.01384637588882,37.544959671100266
4538,311000001020120002,1,영업/정상,0000,정상,,서울특별시 은평구 진관동 20번지 상림마을 821동 101호,"서울특별시 은평구 진관3로 70 (진관동, 상림마을 821동 101호)",3302.0,뉴타운동물병원,2019-03-08 02:40:00.0,126.92264647484882,37.64222121985453
4539,311000001020120003,1,영업/정상,0000,정상,,"서울특별시 은평구 갈현동 431-5번지 지층, 2층","서울특별시 은평구 연서로29길 24, 지, 2층 (갈현동, 정운빌딩)",3330.0,도그원 동물의료센터,2020-02-20 02:40:00.0,126.91773190250292,37.61964051994443
4540,311000001020130001,1,영업/정상,0000,정상,,서울특별시 은평구 응암동 91-5,서울특별시 은평구 은평로 93 (응암동),3461.0,24시스마트동물메디컬센터,2021-11-06 02:40:00.0,126.91812718374206,37.5997808116223
4541,321000001019950001,1,영업/정상,0000,정상,,서울특별시 서초구 잠원동 8-24 크레신타워 1층,"서울특별시 서초구 강남대로 631, 1층 (잠원동, 크레신타워)",6524.0,유림동물안과병원,2021-09-05 02:40:00.0,127.0185020575718,37.51808590567029
4542,306000001020030002,1,영업/정상,0000,정상,,서울특별시 중랑구 상봉동 137-7,서울특별시 중랑구 중랑천로 71 (상봉동),,서울우유협동조합유우진료소,2022-01-23 02:40:00.0,127.07236927303308,37.591725506331315
4543,303000001020140003,1,영업/정상,0000,정상,,서울특별시 성동구 상왕십리동 811번지 텐즈힐몰 221동 134호,"서울특별시 성동구 마장로 137, 221동 134호 (상왕십리동, 텐즈힐몰)",4700.0,텐즈힐링동물병원,2019-05-31 02:40:00.0,127.02471570439893,37.56936235475645
4544,303000001020150002,1,영업/정상,0000,정상,,서울특별시 성동구 금호동4가 1338번지 10통4반 현대ESA아파트 910호,서울특별시 성동구 독서당로 328 (금호동4가),4737.0,펫365동물병원,2019-06-16 02:40:00.0,127.02528561789737,37.547909124826425
4545,314000001019990002,1,영업/정상,0000,정상,,서울특별시 양천구 신월동 50-5번지,서울특별시 양천구 남부순환로 347 (신월동),7905.0,민병철동물병원,2018-08-31 23:59:59.0,126.8284454735834,37.53619168645123
4546,303000001020120001,1,영업/정상,0000,정상,,서울특별시 성동구 성수동2가 333-3번지 1층,서울특별시 성동구 뚝섬로 386 (성수동2가),4775.0,서울숲동물병원,2019-03-08 02:40:00.0,127.05322913582887,37.539097360483986
4547,303000001020120002,1,영업/정상,0000,정상,,서울특별시 성동구 옥수동 560 어울림상가 지하 301~4호,"서울특별시 성동구 독서당로40길 39, 어울림상가 지하 301~304호 (옥수동)",4739.0,옥수수 동물병원,2022-01-19 02:40:00.0,127.01819184208978,37.54230828056336
4548,314000001020090003,1,영업/정상,0000,정상,,서울특별시 양천구 목동 962 목동트라팰리스,"서울특별시 양천구 오목로 299, 목동트라팰리스 (목동)",8001.0,쿨펫이마트 목동점 동물병원,2021-06-11 02:40:00.0,126.8703832327781,37.52599265464741
4549,311000001020160002,1,영업/정상,0000,정상,,서울특별시 은평구 불광동 104-94번지,"서울특별시 은평구 연서로 317 (불광동, 동윤빌딩)",3343.0,둘레길동물병원,2019-03-08 02:40:00.0,126.92769830939649,37.62375568619959
4550,311000001020160004,1,영업/정상,0000,정상,,서울특별시 은평구 대조동 14-27번지 2층,"서울특별시 은평구 통일로 727-5, 2층 (대조동)",3397.0,개와냥이동물병원,2019-03-08 02:40:00.0,126.92921668712795,37.610205866247874
4551,311000001020160005,1,영업/정상,0000,정상,,서울특별시 은평구 응암동 244-212번지,서울특별시 은평구 백련산로 29 (응암동),3470.0,참좋은동물병원,2019-03-08 02:40:00.0,126.9224592211116,37.58821366614415
4552,311000001020030005,1,영업/정상,0000,정상,,서울특별시 은평구 역촌동 22-49번지 101호,"서울특별시 은평구 연서로 72, 1층 101호 (역촌동)",3402.0,우신동물병원,2018-08-31 23:59:59.0,126.91571126971901,37.60556916227849
4553,311000001020040004,1,영업/정상,0000,정상,,서울특별시 은평구 갈현동 394-27번지,서울특별시 은평구 통일로 885 (갈현동),3329.0,메디펫동물병원,2018-08-31 23:59:59.0,126.91952304317797,37.621981471448315
4554,301000001019900001,1,영업/정상,0000,정상,,서울특별시 중구 필동2가 53번지,서울특별시 중구 퇴계로 226 (필동2가),4624.0,윤신근박사동물병원,2019-03-08 02:40:00.0,126.99685617660289,37.56162783707299
4555,314000001019960001,1,영업/정상,0000,정상,,서울특별시 양천구 신정동 294-62번지,서울특별시 양천구 목동동로10길 6 (신정동),8014.0,노아동물병원,2018-10-15 23:59:59.0,126.87069201296468,37.518448196237934
4556,314000001019970002,1,영업/정상,0000,정상,,서울특별시 양천구 신월동 444-11번지,서울특별시 양천구 오목로 45 (신월동),7930.0,양천종합동물병원,2019-07-07 02:40:00.0,126.84263853513743,37.522290334884104
4557,311000001020050004,1,영업/정상,0000,정상,,서울특별시 은평구 증산동 174-6번지 103호,"서울특별시 은평구 증산로 267, 103호 (증산동)",3500.0,한수24시동물병원,2020-06-24 02:40:00.0,126.90704410912123,37.581799945524914
4558,311000001020060001,1,영업/정상,0000,정상,,서울특별시 은평구 구산동 1-1번지,서울특별시 은평구 연서로 137 (구산동),3412.0,로얄동물병원,2020-06-07 02:40:00.0,126.91680367487373,37.611152011164926
4559,321000001020060001,1,영업/정상,0000,정상,,서울특별시 서초구 서초동 1690-2번지 지상1층,"서울특별시 서초구 서초대로 325 (서초동,지상1층)",,교대동물병원,2019-01-13 02:40:00.0,127.01704473928663,37.49495396000263
4560,314000001020020002,1,영업/정상,0000,정상,,서울특별시 양천구 목동 805-1,서울특별시 양천구 등촌로 16 (목동),7966.0,필동물종합병원,2021-07-16 02:40:00.0,126.86413086087543,37.53144093533825
4561,321000001020110003,1,영업/정상,0000,정상,,서울특별시 서초구 반포동 20-51 베리스타운102/108호,서울특별시 서초구 사평대로45길 10-25 (반포동),6544.0,반포자이동물병원,2021-09-05 02:40:00.0,127.0139390782194,37.50667827649944
4562,321000001020120001,1,영업/정상,0000,정상,,서울특별시 서초구 신원동 412-5번지 힐스테이트서초잰트리스 103호,"서울특별시 서초구 헌릉로8길 10-12, 1층 3호 (신원동, 힐스테이트서초잰트리스)",6798.0,하나동물병원,2019-01-16 02:40:00.0,127.05636590712746,37.45550003159731
4563,314000001020090005,1,영업/정상,0000,정상,,서울특별시 양천구 목동 907번지 현대월드타워 160호,"서울특별시 양천구 목동서로 77, 현대월드타워 160호 (목동)",7983.0,가나종합동물병원,2019-12-20 02:40:00.0,126.87804190753381,37.535985825351695
4564,314000001020110002,1,영업/정상,0000,정상,,서울특별시 양천구 목동 919-7 홈플러스목동점,"서울특별시 양천구 목동서로 170, 홈플러스목동점 (목동)",7992.0,닥터펫동물병원,2020-11-12 02:40:00.0,126.87327676479877,37.53032739664525
4565,303000001020170001,1,영업/정상,0000,정상,,,"서울특별시 성동구 왕십리로 410, 127동 지하층 030호 (하왕십리동, 센트라스)",4701.0,바라봄동물병원,2019-03-08 02:40:00.0,127.0248064825946,37.5653386857363
4566,311000001020170001,1,영업/정상,0000,정상,,"서울특별시 은평구 불광동 643 북한산 힐스테이트7차, 상가동 지하2층 128호, 지하1층 228호","서울특별시 은평구 통일로 796, 상가동 지하2층 128호, 지하1층 228호 (불광동, 북한산 힐스테이트7차)",3357.0,담은동물병원,2021-08-27 02:40:00.0,126.92668627008092,37.61653119605321
4567,314000001020030006,1,영업/정상,0000,정상,,서울특별시 양천구 신정동 987-3 1층,"서울특별시 양천구 오목로 198-1 (신정동,1층)",,신정 동물병원,2020-11-12 02:40:00.0,126.8594648634971,37.52526924074305
4568,314000001020030007,1,영업/정상,0000,정상,,서울특별시 양천구 목동 657-21번지 등촌빌딩,"서울특별시 양천구 등촌로 172, 등촌빌딩 A동 102호 (목동)",7951.0,토론토 동물병원,2019-01-18 02:40:00.0,126.86261071944517,37.54501975520965
4569,303000001020180001,1,영업/정상,0000,정상,,서울특별시 성동구 하왕십리동 1070번지 센트라스,"서울특별시 성동구 왕십리로 410 (하왕십리동, 센트라스)",4701.0,다온동물병원,2019-04-27 02:40:00.0,127.02764676008371,37.566110066411376
4570,303000001020180002,1,영업/정상,0000,정상,,서울특별시 성동구 성수동1가 718번지 트리마제,"서울특별시 성동구 왕십리로 16 (성수동1가, 트리마제)",4773.0,달링동물병원,2019-04-27 02:40:00.0,127.04504609444602,37.538823612115586
4571,301000001020160002,1,영업/정상,0000,정상,,서울특별시 중구 황학동 2523 황학 아크로타워,"서울특별시 중구 퇴계로 447, 1층 131호 (황학동, 황학 아크로타워)",4575.0,바른동물병원,2020-07-18 02:40:00.0,127.0219095592132,37.56617117473982
4572,311000001019990002,1,영업/정상,0000,정상,,서울특별시 은평구 응암동 589-12번지 2층,"서울특별시 은평구 가좌로 239, 2층 (응암동, 스타이루)",3484.0,오거리동물병원,2018-08-31 23:59:59.0,126.9159716194825,37.590796204786606
4573,311000001020000001,1,영업/정상,0000,정상,,서울특별시 은평구 응암동 74-14번지,서울특별시 은평구 은평로 208 (응암동),3472.0,LOVE MY PET 동물병원,2019-03-08 02:40:00.0,126.93073740100807,37.601043666778786
4574,321000001020130001,1,영업/정상,0000,정상,,서울특별시 서초구 양재동 215번지 이마트 양재점 지하1층,"서울특별시 서초구 매헌로 16, 지하1층 (양재동, 이마트 양재점)",6771.0,이리온 양재점,2019-01-16 02:40:00.0,127.03701360050702,37.46339491997585
4575,321000001020130002,1,영업/정상,0000,정상,,서울특별시 서초구 반포동 30-25번지 반포리체상가 106호,"서울특별시 서초구 서초중앙로 238, 106호 (반포동, 반포리체상가)",6597.0,꿈꾸는 동물병원,2019-01-16 02:40:00.0,127.0120638252947,37.50295290735631
4576,321000001020130003,1,영업/정상,0000,정상,,서울특별시 서초구 양재동 4-14,서울특별시 서초구 바우뫼로 211 (양재동),6740.0,에이블 동물병원,2021-01-31 02:40:00.0,127.04166814261698,37.48091787316066
4577,303000001020160006,1,영업/정상,0000,정상,,서울특별시 성동구 성수동1가 22-28번지 1층,"서울특별시 성동구 성수일로 33, 1층 (성수동1가, 정인숙보습학원)",4779.0,포레동물병원,2019-03-08 02:40:00.0,127.04919998538276,37.54363085658912
4578,321000001019990002,1,영업/정상,0000,정상,,서울특별시 서초구 서초동 1332-7,"서울특별시 서초구 사임당로 139, 104호 (서초동)",6624.0,서이동물병원,2021-11-06 02:40:00.0,127.02485855823532,37.49176960677366
4579,321000001020040004,1,영업/정상,0000,정상,,서울특별시 서초구 우면동 66-2 우면세신상가 201호,"서울특별시 서초구 바우뫼로7길 8, 201호 (우면동,우면세신상가)",,우면동물병원,2021-09-05 02:40:00.0,127.02537640031413,37.470848945185914
4580,303000001020140001,1,영업/정상,0000,정상,,서울특별시 성동구 하왕십리동 892-4번지,서울특별시 성동구 왕십리로 381 (하왕십리동),4710.0,왕십리조은동물병원,2019-02-10 02:40:00.0,127.02787876519929,37.56456612849738
4581,303000001020140002,1,영업/정상,0000,정상,,서울특별시 성동구 용답동 74-2번지,서울특별시 성동구 천호대로 288 (용답동),4804.0,24시LC동물의료센터,2018-11-07 02:36:02.0,127.05274725711315,37.566405146499335
4582,314000001020170003,1,영업/정상,0000,정상,,"서울특별시 양천구 신정동 329 목동신시가지아파트14단지 B상가 117,호","서울특별시 양천구 목동동로 130, 117, 118호 (신정동, 목동신시가지아파트14단지)",8018.0,페토브 동물병원,2021-06-04 02:40:00.0,126.87033767740742,37.51619054707439
4583,314000001020170004,1,영업/정상,0000,정상,,서울특별시 양천구 신정동 1182-11,"서울특별시 양천구 중앙로 237, 1층 (신정동)",8073.0,24시 서울 탑 동물병원,2020-09-30 02:40:00.0,126.85362620605018,37.51772834954818
4584,321000001020030002,1,영업/정상,0000,정상,,서울특별시 서초구 방배동 790-27번지,서울특별시 서초구 방배중앙로 149 (방배동),6560.0,수동물병원,2019-01-13 02:40:00.0,126.98645339222108,37.49249392477322
4585,321000001020030003,1,영업/정상,0000,정상,,서울특별시 서초구 방배동 898-3,"서울특별시 서초구 서초대로 108, 2층 (방배동)",6664.0,내방동물병원,2020-11-12 02:40:00.0,126.99412771956825,37.48746406332549
4586,303000001020160007,1,영업/정상,0000,정상,,서울특별시 성동구 옥수동 528번지 이편한세상옥수파크힐스,"서울특별시 성동구 매봉길 50 (옥수동, 이편한세상옥수파크힐스)",4731.0,스테이동물병원,2019-04-27 02:40:00.0,127.01389101589268,37.548332163755404
4587,321000001019990003,1,영업/정상,0000,정상,,서울특별시 서초구 반포동 56-1번지,서울특별시 서초구 서초중앙로 245 (반포동),,신반포종합동물병원,2019-01-13 02:40:00.0,127.01079327227474,37.503353216614514
4588,314000001020170005,1,영업/정상,0000,정상,,서울특별시 양천구 목동 507-2 덕수프라자,"서울특별시 양천구 목동중앙북로 73, 덕수프라자 2층 (목동)",7947.0,두암동물병원,2020-11-03 02:40:00.0,126.87137627627406,37.546872343503416
4589,314000001020170006,1,영업/정상,0000,정상,,서울특별시 양천구 신정동 202-13 쌍용빌딩 4층,"서울특별시 양천구 목동남로2길 21, 쌍용빌딩 4층 (신정동)",8104.0,캐슬동물종합병원,2020-11-14 02:40:00.0,126.86454628727381,37.50780309335151
4590,321000001020110002,1,영업/정상,0000,정상,,서울특별시 서초구 반포동 20-45 반포자이프라자 133호,"서울특별시 서초구 잠원로 24 (반포동,반포자이프라자 133호)",,24시예스동물병원,2020-11-17 02:40:00.0,127.00984135564536,37.50712638121803
4591,312000001020040004,1,영업/정상,0000,정상,,서울특별시 서대문구 영천동 299,서울특별시 서대문구 통일로 197 (영천동),3734.0,우리동물병원,2021-07-30 02:40:00.0,126.96128904248437,37.5709241705687
4592,312000001020040006,1,영업/정상,0000,정상,,서울특별시 서대문구 홍제동 90-67번지,서울특별시 서대문구 통일로 375 (홍제동),3730.0,빛가온동물병원,2019-01-13 02:40:00.0,126.94930049700092,37.583524478908764
4593,321000001020000001,1,영업/정상,0000,정상,,서울특별시 서초구 양재동 2-43 동리빌딩,"서울특별시 서초구 논현로 173, 동리빌딩 1층 (양재동)",6739.0,레스펫동물병원,2021-06-16 02:40:00.0,127.04126988525675,37.48492915462196
4594,314000001020150002,1,영업/정상,0000,정상,,"서울특별시 양천구 목동 903번지 목동신시가지아파트3단지 상가동 105호, 204호","서울특별시 양천구 목동서로 100, 상가동 105, 204호 (목동, 목동신시가지아파트3단지)",7982.0,파리스동물병원,2019-08-10 02:40:00.0,126.87294923009618,37.53435881380113
4595,314000001020150003,1,영업/정상,0000,정상,,서울특별시 양천구 신정동 1320-2번지 신정프라자 203호,"서울특별시 양천구 신정이펜2로 22, 203호 (신정동, 신정프라자)",8049.0,구름동물병원,2018-08-31 23:59:59.0,126.83255112031841,37.51289835088027
4596,314000001020150004,1,영업/정상,0000,정상,,서울특별시 양천구 신정동 321-6번지 센트럴프라자 104호,"서울특별시 양천구 목동서로 349, 104호 (신정동, 센트럴프라자)",8095.0,공원옆동물병원,2018-08-31 23:59:59.0,126.86549778409403,37.51749382286476
4597,314000001020160001,1,영업/정상,0000,정상,,서울특별시 양천구 신정동 1028-4번지,서울특별시 양천구 신월로 320 (신정동),8082.0,밀리언동물병원,2019-03-08 02:40:00.0,126.85646489712119,37.52132405784508
4598,314000001020160002,1,영업/정상,0000,정상,,서울특별시 양천구 목동 408-115,"서울특별시 양천구 오목로 280, 1층 (목동)",8003.0,리베동물메디컬센터,2021-08-14 02:40:00.0,126.86822535571504,37.52516011336869
4599,321000001020160003,1,영업/정상,0000,정상,,"서울특별시 서초구 방배동 442-3 대광빌딩 1,2층","서울특별시 서초구 동작대로 36, 1,2층 (방배동, 대광빌딩)",6691.0,VIP동물의료센터 서초동작점,2022-01-13 02:40:00.0,126.9821564685737,37.479673701006
4600,321000001020160004,1,영업/정상,0000,정상,,서울특별시 서초구 서초동 1624-1 영빌딩,"서울특별시 서초구 서초중앙로 72, 영빌딩 1층 105호,  층 2층 205호 (서초동)",6640.0,서초M동물의료센터,2021-01-30 02:40:00.0,127.01489690468495,37.488236892971976
4601,321000001020170001,1,영업/정상,0000,정상,,서울특별시 서초구 방배동 464-11번지,"서울특별시 서초구 방배천로8길 34, 1층 (방배동)",6691.0,이삭동물병원,2019-01-16 02:40:00.0,126.98439284520697,37.480417504382274
4602,303000001020080001,1,영업/정상,0000,정상,,서울특별시 성동구 행당동 346번지 한진노변상가 109호,"서울특별시 성동구 행당로 76, 한진노변상가 1,2층 108호109호203호 (행당동)",4717.0,이윤세동물병원,2019-03-08 02:40:00.0,127.02920759017604,37.55588008227517
4603,303000001020100001,1,영업/정상,0000,정상,,서울특별시 성동구 행당동 226-3번지,서울특별시 성동구 왕십리로 282 (행당동),4751.0,한양동물메디컬센터,2019-03-08 02:40:00.0,127.03701412125886,37.559661366177785
4604,301000001020110002,1,영업/정상,0000,정상,,서울특별시 중구 만리동2가 288번지 서울역한라비발디센트럴,"서울특별시 중구 만리재로 177, 105호 (만리동2가, 서울역한라비발디센트럴)",4501.0,백슬동물병원,2019-03-08 02:40:00.0,126.9657719525189,37.554369451477434
4605,314000001020020004,1,영업/정상,0000,정상,,서울특별시 양천구 목동 613-8번지 혜인빌딩,"서울특별시 양천구 등촌로 218, 혜인빌딩 (목동)",7946.0,혜인종합 동물병원,2019-01-18 02:40:00.0,126.86390631680372,37.54915027814789
4606,314000001020170001,1,영업/정상,0000,정상,,서울특별시 양천구 신정동 1052-3,서울특별시 양천구 중앙로 230 (신정동),8091.0,다온동물병원,2021-01-29 02:40:00.0,126.85463743973422,37.5171873826196
4607,311000001020090002,1,영업/정상,0000,정상,,서울특별시 은평구 응암동 107-12번지,서울특별시 은평구 응암로 286 (응암동),3465.0,야옹동물병원,2019-03-08 02:40:00.0,126.92005672528293,37.596970086175965
4608,321000001020180001,1,영업/정상,0000,정상,,서울특별시 서초구 반포동 18-3번지 래미안퍼스티지 중심상가 143호,"서울특별시 서초구 반포대로 287, 래미안퍼스티지 중심상가 1층 143호 (반포동)",6547.0,신세계 동물병원,2019-01-16 02:40:00.0,127.00085234056733,37.504339411656005
4609,311000001020160001,1,영업/정상,0000,정상,,서울특별시 은평구 진관동 82번지 은평뉴타운우물골아파트 두산위브 202동 B01호,"서울특별시 은평구 진관2로 67, 202동 B층 01호 (진관동, 은평뉴타운우물골아파트)",3306.0,서울햇빛동물병원,2019-03-08 02:40:00.0,126.92455202993597,37.63458224409836
4610,321000001020060004,1,영업/정상,0000,정상,,서울특별시 서초구 반포동 91-10,서울특별시 서초구 서래로 38 (반포동),6577.0,서래동물병원,2020-11-21 02:40:00.0,126.99852467635516,37.49835689479564
4611,311000001020100001,1,영업/정상,0000,정상,,서울특별시 은평구 진관동 5번지 은평뉴타운상림마을 629동 116호,"서울특별시 은평구 진관4로 87, 629동 116호 (진관동, 은평뉴타운상림마을)",3304.0,한빛동물병원,2018-08-31 23:59:59.0,126.92884739644738,37.647960049949084
4612,321000001020180002,1,영업/정상,0000,정상,,서울특별시 서초구 방배동 871-3 동오빌딩,"서울특별시 서초구 서초대로15길 8-10, 동오빌딩 1층 (방배동)",6571.0,HELP 유기동물 의료센터,2021-11-14 02:40:00.0,126.99068129088006,37.487163450427666
4613,321000001020180004,1,영업/정상,0000,정상,,서울특별시 서초구 방배동 951-3 대진빌딩,"서울특별시 서초구 서초대로4길 4, 대진빌딩 1층 (방배동)",6675.0,심바동물병원,2021-07-21 02:40:00.0,126.985213480374,37.48546936376338
4614,321000001020180005,1,영업/정상,0000,정상,,서울특별시 서초구 잠원동 58-24 뉴타운,"서울특별시 서초구 신반포로 257, 뉴타운 지하1층 (잠원동)",6523.0,해뜨는 동물병원 해질녘책방,2021-06-11 02:40:00.0,127.0132782958515,37.50962008828644
4615,306000001020130001,1,영업/정상,0000,정상,,서울특별시 중랑구 상봉동 99-10,"서울특별시 중랑구 망우로 315, 2층 (상봉동)",2098.0,닥터 아이펫 동물병원,2021-06-03 02:40:00.0,127.08747301427874,37.597228548154035
4616,306000001020140001,1,영업/정상,0000,정상,,서울특별시 중랑구 신내동 645번지 홈플러스 2층,"서울특별시 중랑구 신내로 201, 2층 (신내동, 홈플러스)",2024.0,도그플러스 동물병원,2018-08-31 23:59:59.0,127.09376348048148,37.61579426870758
4617,306000001020140002,1,영업/정상,0000,정상,,서울특별시 중랑구 신내동 405-5번지,"서울특별시 중랑구 봉화산로 232, B동 1층 (신내동)",2067.0,행복이 있는 동물병원,2018-08-31 23:59:59.0,127.09836122504194,37.60781904808747
4618,306000001020160001,1,영업/정상,0000,정상,,서울특별시 중랑구 면목동 17-31번지,"서울특별시 중랑구 용마산로 434 (면목동, 청파빌딩)",2189.0,보담동물병원,2018-08-31 23:59:59.0,127.09740434139536,37.58995031062684
4619,303000001020160004,1,영업/정상,0000,정상,,서울특별시 성동구 금호동2가 1217번지 래미안하이리버 상가동 비201호,"서울특별시 성동구 금호로 105, 비201호 (금호동2가, 래미안하이리버 상가동)",4728.0,금호동물병원,2019-06-30 02:40:00.0,127.02454159618597,37.55129205557067
4620,314000001020130005,1,영업/정상,0000,정상,,서울특별시 양천구 목동 603-2번지 대우마이빌 102호,"서울특별시 양천구 공항대로 552 (목동, 대우마이빌 102호)",7946.0,오라고동물병원,2018-08-31 23:59:59.0,126.86690665269262,37.549504163073436
4621,314000001020140002,1,영업/정상,0000,정상,,서울특별시 양천구 목동 799-1번지 1층,"서울특별시 양천구 목동중앙서로 42, 1층 (목동)",7967.0,팜랜드동물병원,2018-08-31 23:59:59.0,126.86848945893885,37.53283703846157
4622,314000001020140003,1,영업/정상,0000,정상,,서울특별시 양천구 목동 531-13번지 101호,"서울특별시 양천구 목동중앙본로 100, 101호 (목동)",7973.0,대현동물병원,2018-08-31 23:59:59.0,126.87089563644513,37.544474801405485
4623,314000001020140004,1,영업/정상,0000,정상,,서울특별시 양천구 신월동 130-5번지 1층,"서울특별시 양천구 남부순환로 421, 1층 (신월동)",7921.0,서서울호수동물병원,2019-03-08 02:40:00.0,126.83241954266343,37.530291775129555
4624,303000001020130006,1,영업/정상,0000,정상,,서울특별시 성동구 금호동4가 800번지 금호동대우아파트 상가동 206호,"서울특별시 성동구 독서당로 270, 상가동 2층 206호 (금호동4가, 금호동 대우아파트)",4738.0,바른동물병원,2018-08-31 23:59:59.0,127.01968348724336,37.54597236212357
4625,303000001020130007,1,영업/정상,0000,정상,,서울특별시 성동구 마장동 791-9번지,서울특별시 성동구 마장로 296 (마장동),4758.0,기린동물병원,2018-08-31 23:59:59.0,127.04277619750852,37.56569116475638
4626,321000001020140001,1,영업/정상,0000,정상,,서울특별시 서초구 방배동 758-2번지,"서울특별시 서초구 방배로 269, 109호 (방배동)",6553.0,한나동물병원,2019-01-16 02:40:00.0,126.98773506130954,37.496639064923976
4627,321000001020140003,1,영업/정상,0000,정상,,서울특별시 서초구 우면동 737 6단지상가 104호,서울특별시 서초구 태봉로2길 30 (우면동),6764.0,서초힐스동물병원,2020-11-21 02:40:00.0,127.02649086702657,37.46144942366281
4628,311000001019960001,1,영업/정상,0000,정상,,서울특별시 은평구 신사동 20-24번지,서울특별시 은평구 은평로 29 (신사동),3423.0,늘푸른동물병원,2020-05-31 02:40:00.0,126.91100867925421,37.59826127404779
4629,321000001020070002,1,영업/정상,0000,정상,,서울특별시 서초구 방배동 984-1 머리재빌딩 105호,"서울특별시 서초구 방배로 76, 머리재빌딩 1층 105호 (방배동)",6704.0,프렌즈동물병원,2020-09-18 02:40:00.0,126.99833617032799,37.48119342303325
4630,321000001020100005,1,영업/정상,0000,정상,,서울특별시 서초구 방배동 915-10 우성빌딩,"서울특별시 서초구 효령로 95, 우성빌딩 1층 (방배동)",6687.0,반려동물 의료센터 다울,2021-02-04 02:40:00.0,126.99460373956877,37.48076764399909
4631,321000001020030011,1,영업/정상,0000,정상,,서울특별시 서초구 서초동 1343-1,서울특별시 서초구 효령로 384 (서초동),,메디펫 동물병원,2021-09-10 02:40:00.0,127.02593614341953,37.48757148228627
4632,321000001020150001,1,영업/정상,0000,정상,,서울특별시 서초구 반포동 19-1 르본시티 2층,"서울특별시 서초구 신반포로 162 (반포동, 르본시티 2층)",6546.0,헬릭스동물메디컬센터,2021-05-01 02:40:00.0,127.00209092831498,37.504888262129114
4633,321000001020160001,1,영업/정상,0000,정상,,서울특별시 서초구 서초동 1538-9 유민빌딩 1층,"서울특별시 서초구 반포대로 89, 1층 (서초동, 유민빌딩)",6657.0,에이원동물병원,2020-09-24 02:40:00.0,127.00909950134955,37.48813630175695
4634,311000001019960002,1,영업/정상,0000,정상,,서울특별시 은평구 녹번동 117-112번지,서울특별시 은평구 통일로 697 (녹번동),3375.0,녹번동물병원,2018-08-31 23:59:59.0,126.9317416390366,37.60808948052213
4635,314000001020040005,1,영업/정상,0000,정상,,서울특별시 양천구 신월동 546-25,서울특별시 양천구 신월로 149 (신월동),8032.0,파란종합 동물병원,2020-10-18 02:40:00.0,126.84027889030733,37.51756722900199
4636,311000001020070004,1,영업/정상,0000,정상,,서울특별시 은평구 대조동 179-8번지,서울특별시 은평구 서오릉로 86 (대조동),3392.0,은평동물병원,2019-11-24 02:40:00.0,126.9217929785551,37.607879712474265
4637,321000001020040005,1,영업/정상,0000,정상,,서울특별시 서초구 양재동 257-2,서울특별시 서초구 마방로6길 18 (양재동),6777.0,사랑의동물병원,2020-11-07 02:40:00.0,127.04216754289511,37.474829707594466
4638,321000001020040006,1,영업/정상,0000,정상,,서울특별시 서초구 양재동 377-4,서울특별시 서초구 동산로 66 (양재동),,한 동물병원,2020-11-17 02:40:00.0,127.04598068853795,37.47187389456844
4639,303000001020030001,1,영업/정상,0000,정상,,서울특별시 성동구 옥수동 263-1번지,서울특별시 성동구 독서당로 200 (옥수동),,함께하는동물병원,2019-03-08 02:40:00.0,127.01312725860524,37.5430179846842
4640,321000001020000006,1,영업/정상,0000,정상,,서울특별시 서초구 반포동 722-29,서울특별시 서초구 강남대로 525-3 (반포동),6536.0,라파엘동물병원,2020-10-17 02:40:00.0,127.02189656624576,37.50877735901917
4641,314000001020060001,1,영업/정상,0000,정상,,서울특별시 양천구 신월동 972-6,서울특별시 양천구 지양로 52 (신월동),8040.0,일오삼동물병원,2020-11-12 02:40:00.0,126.83492340347753,37.5205195145598
4642,314000001020060003,1,영업/정상,0000,정상,,서울특별시 양천구 목동 515-1,서울특별시 양천구 공항대로 636 (목동),7968.0,행복한동물병원,2020-11-12 02:40:00.0,126.87539133943346,37.54669708730574
4643,314000001020120001,1,영업/정상,0000,정상,,서울특별시 양천구 신정동 995-4번지,서울특별시 양천구 목동로 181 (신정동),8022.0,상아동물병원,2018-08-31 23:59:59.0,126.86439934753271,37.52466179465174
4644,314000001020120002,1,영업/정상,0000,정상,,서울특별시 양천구 목동 907-10번지,서울특별시 양천구 목동서로 57 (목동),7983.0,목동 동물병원,2019-04-28 02:40:00.0,126.87984897894222,37.53667312894154
4645,306000001020170001,1,영업/정상,0000,정상,,서울특별시 중랑구 중화동 207-6번지,"서울특별시 중랑구 망우로 241, 지하1층 (중화동, 영해빌딩)",2117.0,한국동물영상의학센터,2018-08-31 23:59:59.0,127.07942292625174,37.59504167551191
4646,306000001020180001,1,영업/정상,0000,정상,,서울특별시 중랑구 상봉동 137-16번지,서울특별시 중랑구 중랑천로 81 (상봉동),2118.0,중랑차 동물병원,2019-07-03 02:40:00.0,127.0726366487587,37.59243765423165
4647,301000001020140001,1,영업/정상,0000,정상,,서울특별시 중구 신당동 44-17번지,"서울특별시 중구 다산로36길 83, 1층 (신당동)",4584.0,좋아요 동물병원,2019-11-29 02:40:00.0,127.019110156621,37.560525733996116
4648,303000001020120003,1,영업/정상,0000,정상,,서울특별시 성동구 행당동 344번지 111호,"서울특별시 성동구 독서당로59길 84, 신동아아파트상가동 1층 111호 (행당동)",4716.0,도담동물병원(출장진료전문 동물병원),2019-03-08 02:40:00.0,127.03283713002088,37.55437068893645
4649,303000001020130001,1,영업/정상,0000,정상,,서울특별시 성동구 홍익동 398-2번지,서울특별시 성동구 무학로 16 (홍익동),4707.0,라임동물병원,2019-03-08 02:40:00.0,127.03031744052933,37.565538481706795
4650,306000001019910001,1,영업/정상,0000,정상,,서울특별시 중랑구 묵동 175-2번지 3층,"서울특별시 중랑구 동일로 920, 3층 (묵동)",2033.0,태능동물병원,2019-04-04 02:40:00.0,127.07757959202667,37.61259557520975
4651,306000001019920001,1,영업/정상,0000,정상,,서울특별시 중랑구 면목동 497-7번지 혜원동물병원,"서울특별시 중랑구 면목로 341, 혜원동물병원 (면목동)",2228.0,혜원동물병원,2018-10-12 23:59:59.0,127.0882923758487,37.582348860088544
4652,306000001019950001,1,영업/정상,0000,정상,,서울특별시 중랑구 면목동 353-4번지,서울특별시 중랑구 면목로 269 (면목동),2240.0,보람동물병원,2019-03-08 02:40:00.0,127.08575241773325,37.57702501706219
4653,306000001019960001,1,영업/정상,0000,정상,,서울특별시 중랑구 면목동 102-51번지,서울특별시 중랑구 겸재로 187 (면목동),2161.0,엔젤동물병원,2019-03-08 02:40:00.0,127.08837097020273,37.5887962999143
4654,306000001019970001,1,영업/정상,0000,정상,,서울특별시 중랑구 묵동 239-76번지,"서울특별시 중랑구 동일로 899, 1층 (묵동)",2006.0,홍상희동물병원,2018-08-31 23:59:59.0,127.0773901402776,37.610664686460346
4655,306000001020000001,1,영업/정상,0000,정상,,서울특별시 중랑구 면목동 225-7,"서울특별시 중랑구 면목로 442-1, 1층 (면목동)",2160.0,하스펫탈동물병원,2021-06-20 02:40:00.0,127.08695825723379,37.59157154950199
4656,314000001020060004,1,영업/정상,0000,정상,,서울특별시 양천구 목동 601-6,서울특별시 양천구 목동중앙북로 37 (목동),7947.0,미니주동물병원,2020-11-12 02:40:00.0,126.86783864791728,37.54805443326707
4657,306000001020000002,1,영업/정상,0000,정상,,서울특별시 중랑구 중화동 11-36번지 삼일시티빌 1층,"서울특별시 중랑구 봉화산로 103, 1층 (중화동, 삼일시티빌)",2048.0,신내동물병원,2018-08-31 23:59:59.0,127.08571759237023,37.602715293996
4658,306000001020010003,1,영업/정상,0000,정상,,서울특별시 중랑구 중화동 303-16번지 진정훈동물병원,"서울특별시 중랑구 동일로 777, 진정훈동물병원 (중화동)",2102.0,진정훈동물병원,2018-10-12 23:59:59.0,127.07950317761657,37.59996714768403
4659,306000001020010004,1,영업/정상,0000,정상,,서울특별시 중랑구 면목동 634-5,서울특별시 중랑구 면목로 311 (면목동),2238.0,성지동물병원,2021-08-01 02:40:00.0,127.08777369131046,37.579912928675505
4660,306000001020020003,1,영업/정상,0000,정상,,서울특별시 중랑구 망우동 364-27번지 금란동물병원,"서울특별시 중랑구 용마산로 532, 금란동물병원 (망우동)",2176.0,금란동물병원,2019-04-12 02:40:00.0,127.10059702442348,37.59844978401133
4661,306000001020020004,1,영업/정상,0000,정상,,서울특별시 중랑구 중화동 207 지하1층,"서울특별시 중랑구 망우로 247, 지하1층 (중화동, 로얄스포츠센터)",2117.0,24시 동물응급의료센터,2021-08-13 02:40:00.0,127.0800199915333,37.59543524713102
4662,312000001020030005,1,영업/정상,0000,정상,,서울특별시 서대문구 연희동 89-9번지,서울특별시 서대문구 연희로25길 101 (연희동),3699.0,연희동물병원,2019-01-13 02:40:00.0,126.93208487076544,37.56916007202678
4663,321000001020080005,1,영업/정상,0000,정상,,서울특별시 서초구 잠원동 49-8번지,"서울특별시 서초구 잠원로 221, 상가동 2층 (잠원동, 한강아파트)",6514.0,리즈동물병원,2019-06-16 02:40:00.0,127.0151307765254,37.52131797797236
4664,303000001020030006,1,영업/정상,0000,정상,,서울특별시 성동구 행당동 346번지 한진노변상가 110호,"서울특별시 성동구 행당로 76, 110호 (행당동, 한진노변상가)",4717.0,평화와생명동물병원,2019-03-08 02:40:00.0,127.02920759017604,37.55588008227517
4665,314000001020030011,1,영업/정상,0000,정상,,서울특별시 양천구 목동 773-3 106호,"서울특별시 양천구 목동중앙로 43 (목동,106호)",,리즈동물병원,2020-11-12 02:40:00.0,126.86948999825825,37.53353741052197
4666,314000001020040001,1,영업/정상,0000,정상,,서울특별시 양천구 신정동 337-7,서울특별시 양천구 목동남로4길 6-11 (신정동),8104.0,참사랑동물병원,2021-06-01 02:40:00.0,126.86509944273722,37.50822144235273
4667,311000001020020003,1,영업/정상,0000,정상,,서울특별시 은평구 갈현동 462-25번지,서울특별시 은평구 연서로 185 (갈현동),3334.0,금쪽같은내새끼 동물병원,2018-08-31 23:59:59.0,126.91782754284344,37.61535816271286
4668,311000001020020004,1,영업/정상,0000,정상,,서울특별시 은평구 신사동 9-34번지,서울특별시 은평구 갈현로 35 (신사동),3435.0,한마음동물병원,2018-08-31 23:59:59.0,126.91011812686773,37.600993061598366
4669,311000001020170002,1,영업/정상,0000,정상,,서울특별시 은평구 진관동 83번지 은평뉴타운우물골 205동 B104호,"서울특별시 은평구 진관2로 77, 205동 지하1층 B104호 (진관동, 은평뉴타운우물골)",3306.0,우리덕구동물병원,2019-03-08 02:40:00.0,126.92756833064308,37.63456332105256
4670,311000001020170003,1,영업/정상,0000,정상,,서울특별시 은평구 증산동 202-27번지 지하1층,"서울특별시 은평구 증산로9길 26-23, 지하1층 (증산동)",3496.0,가든펫동물병원,2019-03-08 02:40:00.0,126.90856403532443,37.586936772224526
4671,311000001019750002,1,영업/정상,0000,정상,,서울특별시 은평구 응암동 119-17번지,서울특별시 은평구 응암로 261 (응암동),3455.0,응암동물병원,2018-08-31 23:59:59.0,126.91834306634304,37.59526379555422
4672,311000001019880001,1,영업/정상,0000,정상,,서울특별시 은평구 갈현동 394-19번지,서울특별시 은평구 통일로 879 (갈현동),3329.0,김정복동물병원,2019-03-08 02:40:00.0,126.9195683865066,37.62137969045684
4673,311000001019900001,1,영업/정상,0000,정상,,서울특별시 은평구 불광동 274-10번지,서울특별시 은평구 불광로 37 (불광동),3358.0,불광동물병원,2020-05-30 02:40:00.0,126.92978168250433,37.61132093494809
4674,311000001019950001,1,영업/정상,0000,정상,,서울특별시 은평구 응암동 576-25번지,서울특별시 은평구 응암로 226 (응암동),3467.0,한얼동물병원,2018-08-31 23:59:59.0,126.9179157556196,37.59204382585548
4675,318000001020000001,1,영업/정상,0000,정상,,서울특별시 영등포구 신길동 3611번지,서울특별시 영등포구 신길로 70 (신길동),7436.0,신풍동물종합병원,2020-04-29 02:40:00.0,126.90856574842428,37.49864894763237
4676,318000001019880002,1,영업/정상,0000,정상,,서울특별시 영등포구 신길동 628번지,서울특별시 영등포구 여의대방로35길 1 (신길동),,대방동물병원,2018-08-31 23:59:59.0,126.92042871069584,37.50143219557538
4677,306000001020050003,1,영업/정상,0000,정상,,서울특별시 중랑구 신내동 646번지 금강리빙스텔 119호,"서울특별시 중랑구 신내로 211, 119호 (신내동, 금강리빙스텔)",2024.0,쥬라기동물병원,2018-08-31 23:59:59.0,127.0926776288489,37.616325292339596
4678,306000001020060001,1,영업/정상,0000,정상,,서울특별시 중랑구 면목동 353-25번지,서울특별시 중랑구 면목로 273 (면목동),,주연동물병원,2018-08-31 23:59:59.0,127.0857069910914,37.577294349821656
4679,306000001020060002,1,영업/정상,0000,정상,,서울특별시 중랑구 신내동 571-8번지,서울특별시 중랑구 신내로10길 7 (신내동),2069.0,진서동물병원,2019-03-08 02:40:00.0,127.09592385426615,37.604698578690304
4680,306000001020060003,1,영업/정상,0000,정상,,서울특별시 중랑구 망우동 490-7번지 신인빌딩,"서울특별시 중랑구 망우로 396, 신인빌딩 (망우동)",2163.0,세진동물병원,2019-03-08 02:40:00.0,127.09625467702588,37.59868072606502
4681,306000001020060006,1,영업/정상,0000,정상,,서울특별시 중랑구 면목동 103-4 1층,"서울특별시 중랑구 겸재로 207, 1층 (면목동)",2162.0,숲속동물병원,2021-08-01 02:40:00.0,127.09056194168562,37.58931419327644
4682,312000001020050001,1,영업/정상,0000,정상,,서울특별시 서대문구 북아현동 136-21번지 e편한세상신촌 4단지,"서울특별시 서대문구 신촌로35길 10, 지하1층 424호 (북아현동, e편한세상신촌 4단지)",3772.0,마음을 나누는 동물병원,2018-10-03 02:35:32.0,126.95536902414057,37.55782644065232
4683,312000001020010002,1,영업/정상,0000,정상,,서울특별시 서대문구 홍은동 217-30번지 나호,서울특별시 서대문구 통일로 489 (홍은동),3647.0,신영동물병원,2019-05-25 02:40:00.0,126.9409308806265,37.591664023435264
4684,306000001020080001,1,영업/정상,0000,정상,,서울특별시 중랑구 중화동 207,서울특별시 중랑구 망우로 247 (중화동),2117.0,로얄동물메디컬센터,2021-08-13 02:40:00.0,127.0800199915333,37.59543524713102
4685,306000001020090001,1,영업/정상,0000,정상,,서울특별시 중랑구 면목동 606-6번지,서울특별시 중랑구 사가정로 363 (면목동),2227.0,면목동물병원,2018-11-01 02:36:04.0,127.08490216347255,37.581215057413154
4686,306000001020100001,1,영업/정상,0000,정상,,서울특별시 중랑구 신내동 648번지 디아뜨갤러리,"서울특별시 중랑구 신내로 225, 디아뜨갤러리 142호 (신내동)",2024.0,하니동물병원,2018-10-12 23:59:59.0,127.09129224532043,37.61695703521488
4687,306000001020100002,1,영업/정상,0000,정상,,"서울특별시 중랑구 면목동 119-10 1,2층","서울특별시 중랑구 겸재로 165, 1,2층 (면목동)",2145.0,한국동물메디컬센터(KAMC),2021-06-03 02:40:00.0,127.08589976809442,37.588194301145
4688,312000001020020001,1,영업/정상,0000,정상,,서울특별시 서대문구 연희동 88-20번지,서울특별시 서대문구 연희로 132 (연희동),3723.0,라파엘종합동물병원,2019-01-13 02:40:00.0,126.93305295468114,37.569211747837876
4689,312000001020020002,1,영업/정상,0000,정상,,서울특별시 서대문구 남가좌동 381번지,"서울특별시 서대문구 거북골로 120 (남가좌동, DMC센트레빌아파트)",3690.0,프란다스동물병원,2019-01-13 02:40:00.0,126.91565932067749,37.57597347284714
4690,373000001020180002,1,영업/정상,0000,정상,,울산광역시 울주군 삼동면 하잠리 818번지,"울산광역시 울주군 삼동면 삼동로 751, 2층",44956.0,삼동종합가축병원약품,2020-04-23 02:40:00.0,129.156811583462,35.52123215081798
4691,563000001020180003,1,영업/정상,0000,정상,,경기도 용인시 기흥구 신갈동 69-7번지,"경기도 용인시 기흥구 중부대로 364, 2층 (신갈동)",17064.0,24시 쓰담쓰담 동물메디컬 센터,2019-01-18 02:40:00.0,127.10743050858652,37.27123898267644
4692,511000001020180001,1,영업/정상,0000,정상,,경상북도 상주시 사벌국면 덕담리 444-2번지,경상북도 상주시 사벌국면 덕담1길 86,37127.0,더존 동물병원,2020-05-30 02:40:00.0,128.21126651685694,36.46926616218872
4693,323000001020180010,1,영업/정상,0000,정상,,서울특별시 송파구 송파동 15-6번지,서울특별시 송파구 송파대로 450 (송파동),5625.0,샤인동물메디컬센터,2020-05-28 02:40:00.0,127.10616319026119,37.50684980751343
4694,309000001020180006,1,영업/정상,0000,정상,,서울특별시 도봉구 도봉동 562-26번지,서울특별시 도봉구 도봉로 875 (도봉동),1304.0,도담동물병원,2019-05-01 02:40:00.0,127.04554040672481,37.682675563363105
4696,573500001020190001,1,영업/정상,0000,정상,,충청북도 청주시 청원구 오창읍 양청리 769-5번지 보람타운(103호),"충청북도 청주시 청원구 오창읍 양청1길 21, 보람타운",28115.0,오성동물병원,2019-01-17 02:20:51.0,127.42648827744868,36.719821562545135
4697,363000001020190002,1,영업/정상,0000,정상,,광주광역시 광산구 월계동 893-9번지,"광주광역시 광산구 월계로 203, 123호 (월계동)",62277.0,비타민동물병원,2019-09-01 02:40:00.0,126.84781977422588,35.2138502183873
4698,525000001020190001,1,영업/정상,0000,정상,,경상북도 울진군 울진읍 읍내리 219-6 킴스동물병원,"경상북도 울진군 울진읍 울진중앙로 39, 킴스동물병원",36326.0,킴스동물병원,2021-03-28 02:40:00.0,129.39735283850212,36.985750009807326
4699,378000001020190002,1,영업/정상,0000,정상,,경기도 성남시 분당구 백현동 564-5번지 (주)코레드디엔씨 201호,"경기도 성남시 분당구 판교역로14번길 20, (주)코레드디엔씨 2층 201호 (백현동)",13536.0,365동판교동물병원,2019-11-24 02:40:00.0,127.11143881716596,37.38547645267566
4700,314000001020190001,1,영업/정상,0000,정상,,서울특별시 양천구 목동 721-1번지 목동한강팰리스,"서울특별시 양천구 등촌로 114, 목동한강팰리스 1층 (목동)",7957.0,가온동물병원,2019-01-31 02:21:05.0,126.86407114997095,37.54016171339788
4701,651000001020190002,1,영업/정상,0000,정상,,제주특별자치도 제주시 노형동 1897-5,제주특별자치도 제주시 월산남길 131 (노형동),63078.0,제주오름동물병원,2021-11-11 02:40:00.0,126.47095239054788,33.46361693509999
4702,560000001020190002,1,영업/정상,0000,정상,,경기도 포천시 영중면 양문리 550-6번지,경기도 포천시 영중면 호국로 2924,11128.0,큰동물병원,2019-03-09 02:40:00.0,127.24725416931022,38.00323720555595
4703,506000001020190001,1,영업/정상,0000,정상,,경상북도 김천시 율곡동 780번지 율곡스퀘어Ⅲ,"경상북도 김천시 혁신3로 5, 율곡스퀘어Ⅲ 1층 110호 (율곡동)",39660.0,율곡동물병원,2019-03-07 02:40:00.0,128.1832989639755,36.11796896640377
4704,394000001020180003,1,영업/정상,0000,정상,,경기도 고양시 덕양구 화전동 219-14번지,"경기도 고양시 덕양구 중앙로 136, 102호 (화전동)",10538.0,경서동물병원,2019-04-30 02:40:00.0,126.87290701441627,37.60077447848061
4706,362000001020190002,1,영업/정상,0000,정상,,광주광역시 북구 운암동 68번지 벽산 블루밍 메가씨티 214호,"광주광역시 북구 서강로54번길 50, 214호 (운암동, 벽산 블루밍 메가씨티)",61260.0,24시 블루밍 동물병원,2020-02-26 02:40:00.0,126.87679499465152,35.174611487656364
4707,526000001020190001,1,영업/정상,0000,정상,,경상북도 울릉군 서면 남양리 608-5번지,경상북도 울릉군 서면 남양1길 8,40237.0,우산동물병원,2019-01-27 02:21:01.0,130.83625321984292,37.47095887844767
4708,308000001020190001,1,영업/정상,0000,정상,,서울특별시 강북구 미아동 42-11 덕신빌딩 4층,"서울특별시 강북구 월계로 3, 덕신빌딩 4층 (미아동)",1220.0,24시루시드동물메디컬센터,2021-10-24 02:40:00.0,127.03063103484294,37.60957066895599
4709,361000001020190001,1,영업/정상,0000,정상,,광주광역시 남구 진월동 264-3,광주광역시 남구 서문대로 665 (진월동),61727.0,은하수 동물병원,2020-10-21 02:40:00.0,126.89860566650958,35.11897580002644
4710,407000001020190001,1,영업/정상,0000,정상,,경기도 이천시 중리동 468-24,"경기도 이천시 중리천로 135, 미래캐슬2동 (중리동)",17373.0,24시큰사랑동물병원,2021-06-12 02:40:00.0,127.4496609695711,37.275326632324735
4711,573500001020190002,1,영업/정상,0000,정상,,충청북도 청주시 청원구 오창읍 장대리 294-2번지,충청북도 청주시 청원구 오창읍 오창시내5길 7,28129.0,새솔동물병원,2019-01-18 02:20:52.0,127.45629597995365,36.742077338897644
4712,502000001020190001,1,영업/정상,0000,정상,,경상북도 포항시 남구 효자동 594-4번지,경상북도 포항시 남구 형산강북로 99 (효자동),37836.0,관문동물병원,2019-02-17 02:40:00.0,129.33767699756132,36.004867753871586
4713,386000001020190002,1,영업/정상,0000,정상,,경기도 부천시 중동 1128 그린프라자,"경기도 부천시 부흥로303번길 62, 그린프라자 (중동)",14582.0,24시 웰니스 동물 의료센터,2020-12-05 02:40:00.0,126.77595826746857,37.49734127192021
4714,304000001020190001,1,영업/정상,0000,정상,,서울특별시 광진구 자양동 681번지,"서울특별시 광진구 자양로 48, 104호 (자양동)",5112.0,아이본 동물병원,2019-03-17 02:21:52.0,127.08575267425928,37.532374225134234
4715,531000001020190001,1,영업/정상,0000,정상,,경상남도 진주시 주약동 100-9번지,경상남도 진주시 진주대로 850 (주약동),52727.0,예스동물의료원,2019-03-30 02:40:00.0,128.09257016354172,35.17663907872449
4716,406000001020190001,1,영업/정상,0000,정상,,경기도 파주시 목동동 1136-3번지,"경기도 파주시 심학산로423번길 7-33, 준프라자 2층 201호 (목동동)",10900.0,산내동물병원,2019-02-27 02:21:34.0,126.73722523441548,37.71943191260524
4717,542000001020190001,1,영업/정상,0000,정상,,경상남도 고성군 회화면 배둔리 435-30번지,경상남도 고성군 회화면 배둔로 40,52915.0,유병국 동물병원,2019-11-09 02:40:00.0,128.37027131087737,35.05762093317148
4718,322000001020190002,1,영업/정상,0000,정상,,서울특별시 강남구 역삼동 834-45번지 동광빌딩 1층,"서울특별시 강남구 역삼로 138, 동광빌딩 1층 (역삼동)",6250.0,하나카동물병원,2019-02-21 02:40:00.0,127.03471026827745,37.49422545999676
4719,366000001020190001,1,영업/정상,0000,정상,,대전광역시 서구 둔산동 1383번지 햇님아파트 상가 112호,"대전광역시 서구 둔산북로 175, 1층 112호 (둔산동, 햇님아파트)",35243.0,다정한 동물병원,2019-03-08 02:40:00.0,127.39268038900336,36.35629615563227
4720,565000001020190001,1,영업/정상,0000,정상,,충청남도 천안시 동남구 신방동 1586,충청남도 천안시 동남구 통정12로 65 (신방동),31204.0,드림동물병원,2020-08-30 02:40:00.0,127.13484414334717,36.77666864683016
4721,347000001020190001,1,영업/정상,0000,정상,,대구광역시 달서구 월성동 1540-2번지 원더풀스파랜드 203호,"대구광역시 달서구 조암로 48, 원더풀스파랜드 203호 (월성동)",42754.0,돌봄동물메디컬클리닉,2019-02-27 02:21:34.0,128.52419905136964,35.82431806660658
4722,335000001020190001,1,영업/정상,0000,정상,,부산광역시 금정구 장전동 607-37,"부산광역시 금정구 식물원로 11, 2층 (장전동)",46301.0,휴동물의료센터,2021-08-05 02:40:00.0,129.0867067312132,35.2238406005501
4723,362000001020190001,1,영업/정상,0000,정상,,광주광역시 북구 신용동 710번지,"광주광역시 북구 첨단연신로91번길 30, 106, 107호 (신용동)",61087.0,마음동물병원,2019-03-19 02:40:00.0,126.86122661644355,35.20650927596733
4724,322000001020190001,1,영업/정상,0000,정상,,서울특별시 강남구 압구정동 426번지 현대아파트 상가 1동 201호,"서울특별시 강남구 압구정로 151, 상가 1동 201호 (압구정동, 현대아파트)",6001.0,튼튼동물병원,2019-01-31 02:40:00.0,127.02447959736269,37.52622216669919
4727,548000001020190001,1,영업/정상,0000,정상,,경상남도 합천군 합천읍 합천리 494-29번지,경상남도 합천군 합천읍 옥산로 26,50232.0,나라 동물병원,2019-11-13 02:40:00.0,128.15795438366652,35.568614522540315
4728,479000001020190001,1,영업/정상,0000,정상,,전라북도 부안군 부안읍 서외리 432-21번지,전라북도 부안군 부안읍 번영로 82-1,56311.0,닥터 홍 동물병원,2019-04-17 02:40:00.0,126.72937968627168,35.726403443481715
4729,535000001020190002,1,영업/정상,0000,정상,,경상남도 김해시 삼계동 1505-4번지 코아루센텀 오피스텔,"경상남도 김해시 해반천로130번길 39, 코아루센텀 오피스텔 2층 (삼계동)",50902.0,다봄 동물의료센터,2019-03-14 02:40:00.0,128.8716166438235,35.260376966614764
4730,362000001020190003,1,영업/정상,0000,정상,,광주광역시 북구 오치동 785-6,"광주광역시 북구 설죽로 298, 1,2층 (오치동)",61119.0,동행동물병원,2021-01-01 02:40:00.0,126.89859090825499,35.18618269659059
4731,554000001020190002,1,영업/정상,0000,정상,,경기도 광주시 태전동 162-5번지,"경기도 광주시 태전동로 25, 퍼스트타워 1층 104호 (태전동)",12787.0,하하동물병원,2019-01-10 02:20:44.0,127.2344432488749,37.386655179128354
4732,378000001020190001,1,영업/정상,0000,정상,,경기도 성남시 분당구 정자동 117-1번지 스포라이프 스포츠센타 107호,"경기도 성남시 분당구 내정로 58, 스포라이프 스포츠센타 107호 (정자동)",13607.0,분당데이지동물병원,2019-03-01 02:40:00.0,127.11519630023224,37.365386283922604
4733,324000001020190001,1,영업/정상,0000,정상,,서울특별시 강동구 강일동 679-2번지 MIDC빌딩,"서울특별시 강동구 아리수로 421, MIDC빌딩 101호 (강일동)",5211.0,아프리카동물병원,2019-03-31 02:20:09.0,127.17486482807927,37.567380654312224
4734,352000001020190001,1,영업/정상,0000,정상,,인천광역시 연수구 송도동 21-24,"인천광역시 연수구 신송로 165-19, 2층 201,202호 (송도동)",22002.0,라파엘 동물병원,2021-12-29 02:40:00.0,126.64712526567168,37.39661767925287
4735,353000001020190001,1,영업/정상,0000,정상,,인천광역시 남동구 논현동 733-5번지,"인천광역시 남동구 논고개로 80, 202호 (논현동)",21667.0,해와달동물병원,2019-03-27 02:20:05.0,126.72655262424355,37.39919630265845
4736,535000001020190001,1,영업/정상,0000,정상,,경상남도 김해시 삼계동 1413-3번지,경상남도 김해시 가야로 26 (삼계동),50896.0,성모동물병원,2019-02-09 02:21:15.0,128.86340458158574,35.2696001737624
4737,347000001019960001,1,영업/정상,0000,정상,,대구광역시 달서구 상인동 240-9번지,대구광역시 달서구 월곡로 249 (상인동),42786.0,가람동물병원,2019-05-11 02:40:00.0,128.53939361321264,35.81671873081065
4738,347000001019920001,1,영업/정상,0000,정상,,대구광역시 달서구 상인동 188-4번지,대구광역시 달서구 월배로39길 4-1 (상인동),42781.0,제이엘동물병원,2019-01-16 02:40:00.0,128.534443640845,35.81848272953636
4739,347000001019950001,1,영업/정상,0000,정상,,대구광역시 달서구 두류동 487-25번지,대구광역시 달서구 달구벌대로 1736 (두류동),42646.0,광장동물병원,2019-04-19 02:40:00.0,128.5551910607354,35.85672154313005
4740,347000001019970001,1,영업/정상,0000,정상,,대구광역시 달서구 감삼동 105-1,대구광역시 달서구 달구벌대로 1658 (감삼동),42642.0,용산종합동물병원,2020-07-15 02:40:00.0,128.54747665435542,35.85374732844985
4741,347000001019990002,1,영업/정상,0000,정상,,대구광역시 달서구 이곡동 541-9번지,대구광역시 달서구 달구벌대로 1220 (이곡동),42703.0,온누리동물병원,2019-05-11 02:40:00.0,128.50081798710167,35.85142422872156
4742,347000001020000003,1,영업/정상,0000,정상,,대구광역시 달서구 이곡동 1000-125번지,대구광역시 달서구 달구벌대로 1328 (이곡동),42696.0,문종합동물병원,2019-01-16 02:40:00.0,128.51248257080522,35.85052229390973
4743,347000001020020002,1,영업/정상,0000,정상,,대구광역시 달서구 송현동 56-1번지 나동 2층,"대구광역시 달서구 구마로 218, 2층 (송현동)",42736.0,세림종합동물병원,2019-05-11 02:40:00.0,128.55152652490517,35.83678685373567
4744,347000001020050002,1,영업/정상,0000,정상,,대구광역시 달서구 이곡동 538-3,대구광역시 달서구 달구벌대로 1223 (이곡동),42612.0,미르동물병원,2020-12-11 02:40:00.0,128.50122005797286,35.85205774858707
4745,342000001019900001,1,영업/정상,0000,정상,,대구광역시 동구 신암동 1476번지,대구광역시 동구 아양로 227 (신암동),,박동물병원,2019-03-10 02:40:00.0,128.63801078677983,35.88671962645757
4746,342000001019960001,1,영업/정상,0000,정상,,대구광역시 동구 효목동 80-7번지,대구광역시 동구 아양로 246 (효목동),,박순복동물병원,2019-03-10 02:40:00.0,128.63984155145857,35.88686513246565
4747,342000001020100003,1,영업/정상,0000,정상,,대구광역시 동구 신기동 179-5번지,대구광역시 동구 반야월로 140 (신기동),41110.0,이스턴24시동물병원,2019-03-10 02:40:00.0,128.70379190110492,35.872897531643986
4748,342000001020120001,1,영업/정상,0000,정상,,대구광역시 동구 신서동 520-1번지 이마트 2층,"대구광역시 동구 안심로 389-2 (신서동, 이마트 2층)",41084.0,쿨펫동물병원,2019-03-09 02:40:00.0,128.7274117461041,35.87079117845933
4749,342000001020130001,1,영업/정상,0000,정상,,대구광역시 동구 율하동 1117 롯데마트 4층 동물병원,"대구광역시 동구 안심로 80 (율하동,롯데마트 4층 동물병원)",,쿨펫동물병원,2020-07-12 02:40:00.0,128.6933672269045,35.86860213681458
4750,342000001020140001,1,영업/정상,0000,정상,,대구광역시 동구 신서동 621-22번지,대구광역시 동구 반야월로 334 (신서동),41083.0,앨리스동물병원,2019-06-28 02:40:00.0,128.72501573145001,35.87193173923974
4751,347000001020000004,1,영업/정상,0000,정상,,대구광역시 달서구 이곡동 1248-5,대구광역시 달서구 이곡공원로 36 (이곡동),42620.0,성서종합동물병원,2021-11-04 02:40:00.0,128.5113356906549,35.85494510389999
4752,347000001020050004,1,영업/정상,0000,정상,,대구광역시 달서구 월성동 1832번지,대구광역시 달서구 조암로 42 (월성동),42753.0,오 동물병원,2019-01-16 02:40:00.0,128.52524769158995,35.82465277576874
4753,347000001020030006,1,영업/정상,0000,정상,,대구광역시 달서구 성당동 211-3번지,대구광역시 달서구 성당로 21 (성당동),42680.0,두류동물병원,2019-05-11 02:40:00.0,128.55850546917438,35.83935875876967
4754,342000001020010004,1,영업/정상,0000,정상,,대구광역시 동구 방촌동 1118-120번지,대구광역시 동구 화랑로 413 (방촌동),41164.0,킴스동물병원,2019-03-10 02:40:00.0,128.66925889003653,35.87694024272523
4755,342000001020020001,1,영업/정상,0000,정상,,대구광역시 동구 검사동 957-41번지,대구광역시 동구 동촌로 154 (검사동),41157.0,변수의과의원,2019-03-09 02:40:00.0,128.65765931270764,35.88398529359406
4756,342000001020040003,1,영업/정상,0000,정상,,대구광역시 동구 효목동 64-6번지,대구광역시 동구 아양로 216 (효목동),,21세기종합동물병원,2018-08-31 23:59:59.0,128.63675036399232,35.885950904616614
4757,342000001020050001,1,영업/정상,0000,정상,,대구광역시 동구 신암동 1196-57번지,"대구광역시 동구 신암로 86-1, 1층 (신암동)",41205.0,다사랑종합동물병원,2019-03-10 02:40:00.0,128.61000661355612,35.87864006614521
4758,342000001020060002,1,영업/정상,0000,정상,,대구광역시 동구 신천동 137-4번지,대구광역시 동구 동대구로 425 (신천동),,대경동물병원,2019-03-09 02:40:00.0,128.62587029957348,35.86840723583903
4759,342000001020150001,1,영업/정상,0000,정상,,대구광역시 동구 방촌동 1118-109,대구광역시 동구 화랑로 429 (방촌동),41165.0,이끌림동물병원,2020-12-18 02:40:00.0,128.67111105274455,35.87660444346882
4760,342000001020150002,1,영업/정상,0000,정상,,대구광역시 동구 신천동 538-22번지,"대구광역시 동구 동부로 34, 2층 (신천동)",41264.0,대구동물병원,2018-08-31 23:59:59.0,128.61643677347593,35.87404046854157
4761,342000001020150003,1,영업/정상,0000,정상,,대구광역시 동구 율하동 1292번지,"대구광역시 동구 율하서로 54, 101,102호 (율하동)",41108.0,율하동물병원,2018-08-31 23:59:59.0,128.6909171277949,35.86490498280527
4762,347000001020020001,1,영업/정상,0000,정상,,대구광역시 달서구 본동 821-1번지,"대구광역시 달서구 구마로 136, 1층 (본동)",42734.0,박물관옆동물병원,2020-04-01 02:40:00.0,128.54243911919585,35.836958038818615
4763,347000001020020003,1,영업/정상,0000,정상,,대구광역시 달서구 송현동 798-244 1층,"대구광역시 달서구 월배로 330-1, 1층 (송현동)",42824.0,25시종합동물병원,2021-02-18 02:40:00.0,128.54692911032015,35.82484319993754
4764,347000001020030002,1,영업/정상,0000,정상,,대구광역시 달서구 용산동 499-1번지,대구광역시 달서구 선원로 262 (용산동),42617.0,헬로우동물병원,2019-05-11 02:40:00.0,128.52131969056484,35.85849378587835
4765,347000001020030003,1,영업/정상,0000,정상,,대구광역시 달서구 상인동 255-2번지,대구광역시 달서구 월배로 182 (상인동),42787.0,어진종합동물병원,2019-05-11 02:40:00.0,128.53398794578993,35.81738566824626
4766,342000001020140003,1,영업/정상,0000,정상,,대구광역시 동구 봉무동 1520-1번지 106호,"대구광역시 동구 팔공로 320-1, 1층 106호 (봉무동)",41020.0,이시아동물병원,2018-08-31 23:59:59.0,128.6420060388921,35.927345792476814
4767,342000001020140004,1,영업/정상,0000,정상,,대구광역시 동구 신암동 799-1번지,대구광역시 동구 아양로 17 (신암동),41196.0,열린동물병원,2018-08-31 23:59:59.0,128.61603574368894,35.88164336069253
4768,342000001020170001,1,영업/정상,0000,정상,,대구광역시 동구 각산동 444-7번지,대구광역시 동구 경안로 826 (각산동),41073.0,봄이온동물병원,2018-12-29 02:40:00.0,128.71418351042797,35.87614317754548
4769,346000001020050004,1,영업/정상,0000,정상,,대구광역시 수성구 수성동4가 1186-76번지 77호,"대구광역시 수성구 달구벌대로 2287-1, 77호 (수성동4가)",,캣츠&독스동물병원,2019-01-12 02:40:00.0,128.61276579343206,35.860162599043186
4770,346000001020060001,1,영업/정상,0000,정상,,대구광역시 수성구 지산동 1157-22번지,대구광역시 수성구 지범로 69 (지산동),,이수의과동물병원,2019-01-15 02:40:00.0,128.6287386099784,35.82693093760597
4771,346000001020060002,1,영업/정상,0000,정상,,대구광역시 수성구 수성동2가 60-1번지 4호,"대구광역시 수성구 명덕로 421, 4호 (수성동2가)",,허동물병원,2018-08-31 23:59:59.0,128.61636772610512,35.85463252916714
4772,346000001020060003,1,영업/정상,0000,정상,,대구광역시 수성구 중동 400-10번지,대구광역시 수성구 수성로 151 (중동),,수성동물병원,2018-08-31 23:59:59.0,128.61194330913094,35.839129301824784
4773,347000001020140005,1,영업/정상,0000,정상,,대구광역시 달서구 진천동 595-26,대구광역시 달서구 월배로 79 (진천동),42760.0,초록동물병원,2021-11-04 02:40:00.0,128.5231499963483,35.81404869360517
4774,346000001020100001,1,영업/정상,0000,정상,,대구광역시 수성구 상동 279-2,대구광역시 수성구 수성로 85 (상동),,올펫 동물병원,2021-10-31 02:40:00.0,128.61125781423283,35.833306429467434
4775,346000001020100002,1,영업/정상,0000,정상,,대구광역시 수성구 신매동 183번지,대구광역시 수성구 달구벌대로 3258 (신매동),42277.0,다원 동물병원,2018-08-31 23:59:59.0,128.7122370522117,35.83804859573468
4776,346000001020100003,1,영업/정상,0000,정상,,대구광역시 수성구 만촌동 950-1번지,대구광역시 수성구 국채보상로 1006 (만촌동),,메트로 동물병원,2019-01-18 02:40:00.0,128.6403099735472,35.86581111550253
4777,347000001020110003,1,영업/정상,0000,정상,,대구광역시 달서구 진천동 576-1번지,대구광역시 달서구 월배로 93 (진천동),42784.0,위드동물병원,2019-01-16 02:40:00.0,128.52488385705578,35.81438650607649
4778,347000001020140003,1,영업/정상,0000,정상,,대구광역시 달서구 진천동 657-1,대구광역시 달서구 월배로 48 (진천동),42770.0,두남자동물병원,2021-11-06 02:40:00.0,128.5200590493371,35.813022422726156
4779,347000001020140004,1,영업/정상,0000,정상,,대구광역시 달서구 상인동 1595-3번지,대구광역시 달서구 조암남로 9 (상인동),42780.0,하나동물병원,2019-01-16 02:40:00.0,128.53186176757526,35.82230981345113
4780,347000001020140001,1,영업/정상,0000,정상,,대구광역시 달서구 도원동 1436-9번지,대구광역시 달서구 한실로 99 (도원동),42833.0,이룸동물병원,2019-03-13 02:40:00.0,128.53775124562452,35.80694580038096
4781,347000001020160004,1,영업/정상,0000,정상,,대구광역시 달서구 진천동 574-1번지,"대구광역시 달서구 진천로 78, 2층 (진천동)",42784.0,애플동물병원,2019-12-14 02:40:00.0,128.52379024078132,35.81542246648727
4782,347000001020170001,1,영업/정상,0000,정상,,대구광역시 달서구 본리동 62-6번지,대구광역시 달서구 장기로 207 (본리동),42674.0,라파동물병원,2019-01-16 02:40:00.0,128.53765413855777,35.843287108656085
4783,347000001020130001,1,영업/정상,0000,정상,,"대구광역시 달서구 용산동 208-27 k타워 1,2층","대구광역시 달서구 달구벌대로 1521, 1,2층 (용산동, k타워)",42633.0,(주)죽전동물메디컬센터,2021-09-09 02:40:00.0,128.53325408276606,35.85003068776261
4784,347000001020140002,1,영업/정상,0000,정상,,대구광역시 달서구 감삼동 171-4번지,대구광역시 달서구 와룡로 156 (감삼동),42652.0,미소동물병원,2019-01-16 02:40:00.0,128.53756289188752,35.846484639559264
4785,347000001020150001,1,영업/정상,0000,정상,,대구광역시 달서구 대곡동 964번지,대구광역시 달서구 비슬로 2746 (대곡동),42765.0,24시프라임동물병원,2019-02-14 02:40:00.0,128.515460730249,35.81019778848297
4786,347000001020150002,1,영업/정상,0000,정상,,대구광역시 달서구 대곡동 7-6,대구광역시 달서구 비슬로 2692 (대곡동),42769.0,이솝동물병원,2021-06-17 02:40:00.0,128.51018895993417,35.80798630661395
4787,347000001020160001,1,영업/정상,0000,정상,,대구광역시 달서구 월성동 1811 그루메디컬 105호,"대구광역시 달서구 조암로 4, 105호 (월성동, 그루메디컬)",42752.0,앨리스in동물병원,2021-11-04 02:40:00.0,128.529207632658,35.8262217622281
4788,347000001020160002,1,영업/정상,0000,정상,,대구광역시 달서구 도원동 1435번지,대구광역시 달서구 도원로 11 (도원동),42833.0,THE나은동물병원,2019-01-16 02:40:00.0,128.5363990095958,35.808623893716685
4789,347000001020170002,1,영업/정상,0000,정상,,대구광역시 달서구 장기동 566-4번지,대구광역시 달서구 용산로 52 (장기동),42690.0,본리종합동물병원,2019-08-15 02:40:00.0,128.5308818315529,35.84219151842249
4790,347000001020170003,1,영업/정상,0000,정상,,대구광역시 달서구 진천동 44-4,대구광역시 달서구 월배로 165 (진천동),42783.0,본 동물메디컬센터 외과동물병원,2021-12-09 02:40:00.0,128.5320436593486,35.81713995311996
4791,347000001020040007,1,영업/정상,0000,정상,,대구광역시 달서구 진천동 508번지 진천역 대성스키이렉스 상가1층 401동 127호,"대구광역시 달서구 월배로 80, 401동 1층 127호 (진천동, 진천역 대성스카이렉스 상가)",42773.0,해맑은동물병원,2019-01-16 02:40:00.0,128.52378286415387,35.81323314134858
4792,347000001020040009,1,영업/정상,0000,정상,,대구광역시 달서구 두류동 472-11번지,대구광역시 달서구 두류공원로 267 (두류동),42647.0,한마음종합동물병원,2019-01-16 02:40:00.0,128.55762469880474,35.85692017908056
4793,347000001020170004,1,영업/정상,0000,정상,,대구광역시 달서구 상인동 1439-1,"대구광역시 달서구 월배로 166, 1, 2, 5층 (상인동)",42788.0,탑스동물메디컬센터,2021-11-14 02:40:00.0,128.53222372063365,35.816561149620846
4794,347000001020040005,1,영업/정상,0000,정상,,대구광역시 달서구 이곡동 1238-6번지,대구광역시 달서구 이곡공원로 19 (이곡동),42619.0,이곡종합동물병원,2019-01-16 02:40:00.0,128.50957189813067,35.855417941811474
4795,345000001020080001,1,영업/정상,0000,정상,,대구광역시 북구 침산동 241-1,대구광역시 북구 침산로 116 (침산동),,아프리카 동물병원,2021-10-22 02:40:00.0,128.5916945373703,35.886427133352534
4796,345000001020100001,1,영업/정상,0000,정상,,대구광역시 북구 대현동 229-19,대구광역시 북구 대현로 27 (대현동),,북부동물병원,2021-10-15 02:40:00.0,128.60353576158147,35.88580782482703
4797,345000001020110002,1,영업/정상,0000,정상,,대구광역시 북구 태전동 1049-4,대구광역시 북구 칠곡중앙대로 344 (태전동),41461.0,강북동물병원,2021-10-15 02:40:00.0,128.5476892095045,35.92626322799448
4798,345000001020110003,1,영업/정상,0000,정상,,대구광역시 북구 복현동 209-1,대구광역시 북구 공항로 12 (복현동),41526.0,준 동물병원,2021-10-15 02:40:00.0,128.61671005551622,35.897564926416194
4799,345000001020120001,1,영업/정상,0000,정상,,대구광역시 북구 침산동 269-10 명성푸르지오 101동 A1호,"대구광역시 북구 침산로 153, 101동 1층 A1호 (침산동, 명성푸르지오)",41559.0,라라(Lara) 동물병원,2021-10-15 02:40:00.0,128.59048273054606,35.88905770319493
4800,345000001020120002,1,영업/정상,0000,정상,,대구광역시 북구 칠성동2가 371-2,"대구광역시 북구 중앙대로 526, 2층 (칠성동2가)",41579.0,플러스동물의료센터,2021-10-16 02:40:00.0,128.59665285228408,35.87963785738793
4801,345000001020130001,1,영업/정상,0000,정상,,대구광역시 북구 태전동 1068,대구광역시 북구 칠곡중앙대로 373 (태전동),41452.0,태전동물병원,2021-10-15 02:40:00.0,128.54743194765643,35.92912740278477
4802,345000001020130003,1,영업/정상,0000,정상,,대구광역시 북구 구암동 765-2 동재빌딩 101호,"대구광역시 북구 학정로 440, 101호 (구암동, 동재빌딩)",41424.0,키다리동물병원,2021-10-15 02:40:00.0,128.56424463007244,35.943737947076976
4803,345000001020130004,1,영업/정상,0000,정상,,대구광역시 북구 산격동 1838,"대구광역시 북구 동북로 131, 105동 108,9호 (산격동, 양우내안에아파트 상가)",41519.0,올리브동물병원,2021-10-15 02:40:00.0,128.60815276176842,35.90159040991849
4804,345000001020140001,1,영업/정상,0000,정상,,대구광역시 북구 노원동1가 1-8,대구광역시 북구 침산남로 61 (노원동1가),41553.0,대구24시동물병원,2021-10-15 02:40:00.0,128.58271692080072,35.88955635859676
4805,345000001020150001,1,영업/정상,0000,정상,,대구광역시 북구 서변동 1746-9,대구광역시 북구 서변로 65-1 (서변동),41477.0,가온동물병원,2021-10-15 02:40:00.0,128.59647441377322,35.921450152549276
4806,345000001019940001,1,영업/정상,0000,정상,,대구광역시 북구 노원동2가 290-3,대구광역시 북구 팔달로41길 12 (노원동2가),41558.0,경북가축병원,2021-10-15 02:40:00.0,128.57337882326723,35.88831481867006
4807,345000001019990001,1,영업/정상,0000,정상,,대구광역시 북구 태전동 415-1 102호,"대구광역시 북구 칠곡중앙대로 301, 102호 (태전동)",,칠곡종합동물병원,2021-10-15 02:40:00.0,128.54656552136254,35.92249426056002
4808,506000001019980001,1,영업/정상,0000,정상,,경상북도 김천시 황금동 17-12번지,경상북도 김천시 양금로 249 (황금동),,가람가축병원,2019-01-17 02:40:00.0,128.12390822242924,36.11640620945543
4809,506000001019980002,1,영업/정상,0000,정상,,경상북도 김천시 성내동 181-6번지,경상북도 김천시 자산로 104 (성내동),39588.0,두산동물병원,2019-03-07 02:40:00.0,128.12082231755295,36.12064928179645
4810,506000001019980003,1,영업/정상,0000,정상,,경상북도 김천시 평화동 245-12번지,경상북도 김천시 김천로 65 (평화동),39598.0,삼양가축병원,2019-03-07 02:40:00.0,128.1103141379475,36.12623657120846
4811,506000001019990001,1,영업/정상,0000,정상,,경상북도 김천시 평화동,경상북도 김천시 구름다리2길 33 (평화동),39585.0,우정 팜 크리닉,2018-08-31 23:59:59.0,128.11760027382303,36.12593469067615
4812,506000001020000001,1,영업/정상,0000,정상,,경상북도 김천시 남산동 12-3번지,경상북도 김천시 김천로 188 (남산동),39596.0,가야동물병원,2020-06-17 02:40:00.0,128.12096033746073,36.11937935887624
4813,506000001020010001,1,영업/정상,0000,정상,,경상북도 김천시 부곡동 1504번지,경상북도 김천시 부곡맛고을1길 87 (부곡동),,지수애완동물병원,2019-01-17 02:40:00.0,128.09356409280753,36.124215356268
4814,506000001020030001,1,영업/정상,0000,정상,,경상북도 김천시 황금동 102-1번지,경상북도 김천시 양금로 231-1 (황금동),39616.0,녹십자동물병원,2019-01-17 02:40:00.0,128.1236922438683,36.11490019628152
4816,506000001020040002,1,영업/정상,0000,정상,,경상북도 김천시 대광동 1088번지,경상북도 김천시 공단1길 164 (대광동),,금오산낙농축협동물병원,2019-12-06 02:40:00.0,128.13691134761459,36.14901669541362
4817,506000001020100001,1,영업/정상,0000,정상,,경상북도 김천시 성내동 10-23번지,경상북도 김천시 자산로 184 (성내동),39583.0,미래동물병원,2019-03-07 02:40:00.0,128.11826513465724,36.12661609954016
4818,506000001020150001,1,영업/정상,0000,정상,,경상북도 김천시 신음동 1313번지 대신휴먼시아,"경상북도 김천시 시청로 95, 휴먼시아A동 상가2층 (신음동, 대신휴먼시아)",39546.0,김천연합동물병원,2019-03-30 02:40:00.0,128.11595017928397,36.13691789520699
4819,507000001019740003,1,영업/정상,0000,정상,,경상북도 안동시 풍천면 구담리 488-2번지,경상북도 안동시 풍천면 구담배나들길 33-3,36760.0,구담가축병원,2019-01-20 02:40:00.0,128.46596657779983,36.542084687466804
4820,507000001019790002,1,영업/정상,0000,정상,,경상북도 안동시 금곡동 124-1번지 0통0반,경상북도 안동시 제비원로 172 (금곡동),36690.0,경북가축병원,2018-08-31 23:59:59.0,128.72049963282734,36.56769161772058
4821,507000001020060001,1,영업/정상,0000,정상,,경상북도 안동시 옥야동 340-49번지,경상북도 안동시 제비원로 118 (옥야동),,서울종합동물병원,2018-08-31 23:59:59.0,128.72104078870245,36.562767011233696
4822,507000001020060002,1,영업/정상,0000,정상,,경상북도 안동시 당북동 333-120번지,"경상북도 안동시 제비원로 113-16, 333동 120호 (당북동)",36674.0,보경종합동물병원,2018-08-31 23:59:59.0,128.72035321543407,36.56267364917577
4823,507000001020060003,1,영업/정상,0000,정상,,경상북도 안동시 옥동 796-1번지,경상북도 안동시 옥동1길 2 (옥동),36663.0,안동제1 동물병원,2018-08-31 23:59:59.0,128.6993865426274,36.55849381690542
4824,507000001020120001,1,영업/정상,0000,정상,,,경상북도 안동시 도산면 퇴계로 2150-44,36605.0,경상북도 야생동물 구조관리센터,2021-10-28 02:40:00.0,128.82658537953427,36.706349593885164
4825,507000001020160001,1,영업/정상,0000,정상,,,경상북도 안동시 풍산읍 풍산태사로 1077-2,36621.0,풍산동물병원,2018-08-31 23:59:59.0,128.5757765581877,36.576955182844536
4826,507000001020170002,1,영업/정상,0000,정상,,경상북도 안동시 정하동 371-4번지,"경상북도 안동시 운동장길 10, 106호 (정하동)",36747.0,BAC 바른동물병원,2019-01-18 02:40:00.0,128.72044513750873,36.5511675197399
4827,507000001019830001,1,영업/정상,0000,정상,,경상북도 안동시 옥동 920-4번지 104동 703호,"경상북도 안동시 옥서1길 70, 104동 703호 (옥동, 호반 베르디움)",36638.0,대구가축병원,2018-08-31 23:59:59.0,128.6934025399135,36.56231775767429
4828,507000001019920001,1,영업/정상,0000,정상,,경상북도 안동시 당북동 311-7번지,경상북도 안동시 제비원로 135 (당북동),36671.0,연합가축병원,2018-08-31 23:59:59.0,128.72046408250168,36.564256973994695
4829,507000001019990001,1,영업/정상,0000,정상,,경상북도 안동시 당북동 333-93번지,경상북도 안동시 제비원로 109 (당북동),36674.0,황동물병원,2019-03-07 02:40:00.0,128.72047146773676,36.562018447118184
4830,507000001020000003,1,영업/정상,0000,정상,,경상북도 안동시 안기동 235-17번지,경상북도 안동시 제비원로 289-1 (안기동),,보우종합동물병원,2018-08-31 23:59:59.0,128.71729113126023,36.577334664013705
4831,507000001020020001,1,영업/정상,0000,정상,,경상북도 안동시 광석동 20-4번지 안동봉화축협,"경상북도 안동시 제비원로 152, 안동봉화축협 (광석동)",36697.0,안동봉화축협동물병원,2020-04-04 02:40:00.0,128.72118860441876,36.56578957255783
4832,507000001020030001,1,영업/정상,0000,정상,,경상북도 안동시 송현동 419-1번지,경상북도 안동시 경북대로 555 (송현동),36632.0,영민동물병원,2018-08-31 23:59:59.0,128.69766369816458,36.578161728698
4833,507000001020030002,1,영업/정상,0000,정상,,경상북도 안동시 명륜동 328-4번지,경상북도 안동시 퇴계로 127 (명륜동),,신세계동물병원,2018-08-31 23:59:59.0,128.73102134265727,36.56879264400551
4834,352000001020130001,1,영업/정상,0000,정상,,인천광역시 연수구 송도동 23-4번지 더샵센트럴파크2차상가 C동 128호,"인천광역시 연수구 센트럴로 194, C동 128호 (송도동, 더샵센트럴파크2차상가)",22003.0,Central 동물병원,2019-01-19 02:40:00.0,126.64101458153426,37.39451024719094
4835,478000001019850001,1,영업/정상,0000,정상,,전라북도 고창군 고창읍 읍내리 212-19번지,전라북도 고창군 고창읍 성산5길 9,56433.0,연합,2018-08-31 23:59:59.0,126.70003290448184,35.43601281281131
4836,478000001019880001,1,영업/정상,0000,정상,,전라북도 고창군 흥덕면 흥덕리 558번지,전라북도 고창군 흥덕면 선운대로 3734,56415.0,흥덕,2019-05-10 02:40:00.0,126.69915212001676,35.518476900517385
4837,478000001019940001,1,영업/정상,0000,정상,,전라북도 고창군 대산면 매산리 244-19번지,전라북도 고창군 대산면 사거1길 77,56468.0,대산,2020-03-19 02:40:00.0,126.59548562873195,35.341505169731995
4838,478000001019940002,1,영업/정상,0000,정상,,전라북도 고창군 고창읍 교촌리 501번지,전라북도 고창군 고창읍 중앙로 321,56430.0,한국,2019-03-10 02:40:00.0,126.71073300685909,35.435066134447645
4839,478000001019990001,1,영업/정상,0000,정상,,전라북도 고창군 고창읍 읍내리 964-1번지,전라북도 고창군 고창읍 고인돌대로 1775,56442.0,고창중앙 동물병원,2019-11-06 02:40:00.0,126.69220749632625,35.438454485544504
4840,478000001020010001,1,영업/정상,0000,정상,,전라북도 고창군 고창읍 읍내리 169번지,전라북도 고창군 고창읍 동리로 137,56441.0,고창,2018-08-31 23:59:59.0,126.70731343225455,35.43280666631175
4841,478000001020070001,1,영업/정상,0000,정상,,전라북도 고창군 고창읍 읍내리 1195,전라북도 고창군 고창읍 보릿골로 16,56439.0,모양동물병원,2021-01-15 02:40:00.0,126.69481310180878,35.42676023563421
4842,478000001020070002,1,영업/정상,0000,정상,,전라북도 고창군 흥덕면 신덕리 35-6번지,전라북도 고창군 흥덕면 부안로 423,56411.0,고창부안축협동물병원,2018-08-31 23:59:59.0,126.69600608029234,35.55706861449199
4843,478000001020130001,1,영업/정상,0000,정상,,전라북도 고창군 고창읍 교촌리 233-11번지,전라북도 고창군 고창읍 성산8길 39-10,56433.0,더나은동물병원,2019-03-10 02:40:00.0,126.69952500211936,35.43799502674097
4844,478000001020140001,1,영업/정상,0000,정상,,전라북도 고창군 흥덕면 흥덕리 54-12번지,전라북도 고창군 흥덕면 선운대로 3771,56413.0,한길동물병원,2018-08-31 23:59:59.0,126.7032392337443,35.521636860396974
4845,478000001020140002,1,영업/정상,0000,정상,,전라북도 고창군 고창읍 덕산리 207-3 (유)충만건설,전라북도 고창군 고창읍 중거리당산로 60,56448.0,치산동물병원,2021-06-30 02:40:00.0,126.69558629498539,35.42593291628721
4846,478000001020160001,1,영업/정상,0000,정상,,전라북도 고창군 고창읍 덕산리 256번지 101호,"전라북도 고창군 고창읍 보릿골로 57-10, 101호",56438.0,인우 동물병원,2020-04-23 02:40:00.0,126.69423018983215,35.430660080823046
4847,472000001019860001,1,영업/정상,0000,정상,,전라북도 완주군 봉동읍 장기리 225번지,전라북도 완주군 봉동읍 봉동로 133,55326.0,박동물병원,2019-03-21 02:40:00.0,127.1681280021277,35.936967579962584
4848,472000001020150002,1,영업/정상,0000,정상,,전라북도 완주군 이서면 금평리 산 145-5 국립축산과학원,"전라북도 완주군 이서면 콩쥐팥쥐로 1500, 국립축산과학원",55365.0,국립축산과학원 동물병원,2020-11-18 02:40:00.0,127.06592967496604,35.82469858761253
4849,472000001020150003,1,영업/정상,0000,정상,,전라북도 완주군 이서면 이문리 711-3번지,전라북도 완주군 이서면 콩쥐팥쥐로 1047,55367.0,광희동물병원,2019-01-18 02:40:00.0,127.01448532864187,35.8208695442896
4850,472000001020150004,1,영업/정상,0000,정상,,전라북도 완주군 이서면 상개리 590,전라북도 완주군 이서면 이서로 42,55366.0,이서동물병원,2021-10-31 02:40:00.0,127.02138914844446,35.81985838257013
4851,394000001020030007,1,영업/정상,0000,정상,,경기도 고양시 일산서구 주엽동 110-2번지 가람상가 208호,"경기도 고양시 일산서구 중앙로 1443, 가람상가 208호 (주엽동)",10387.0,반딧불 동물병원,2019-03-10 02:40:00.0,126.75974439402027,37.67041073471761
4852,394000001020110001,1,영업/정상,0000,정상,,경기도 고양시 일산서구 가좌동 308-1번지 마루프라자 나동 102.103호,"경기도 고양시 일산서구 가좌3로 7-1 (가좌동, 마루프라자 나동 102.103호)",10209.0,가좌동물병원,2019-07-11 02:40:00.0,126.72022795232266,37.685317090762666
4853,470000001019890001,1,영업/정상,0000,정상,,전라북도 남원시 동충동 44-7번지 청원동물병원,"전라북도 남원시 용성로 95, 청원동물병원 (동충동)",55760.0,청원동물병원,2020-06-14 02:40:00.0,127.38693792256646,35.40919303901045
4854,470000001020040001,1,영업/정상,0000,정상,,전라북도 남원시 왕정동 67-1번지,전라북도 남원시 남문로 403 (왕정동),55764.0,하나동물종합병원,2020-06-14 02:40:00.0,127.37554550480831,35.40664320287649
4855,470000001020050001,1,영업/정상,0000,정상,,전라북도 남원시 향교동 263-3,전라북도 남원시 붕맛길 99 (향교동),55740.0,남원축협 동물병원,2022-01-09 02:40:00.0,127.38416562341854,35.416489257305415
4856,470000001020060001,1,영업/정상,0000,정상,,전라북도 남원시 금동 278-4번지,전라북도 남원시 의총로 29 (금동),55768.0,지리산동물병원,2020-06-14 02:40:00.0,127.37589345820936,35.40330743843054
4857,470000001020150001,1,영업/정상,0000,정상,,전라북도 남원시 왕정동 218-3번지,전라북도 남원시 의서길 33 (왕정동),55747.0,신성동물약품병원,2019-04-24 02:40:00.0,127.37293321190016,35.4114868777041
4858,470000001020180001,1,영업/정상,0000,정상,,전라북도 남원시 광치동 644-7번지,"전라북도 남원시 밤티재길 14-5, 1층 (광치동)",55724.0,지리산 산업동물병원,2018-08-31 23:59:59.0,127.37198166509094,35.44816659985887
4859,470000001020180002,1,영업/정상,0000,정상,,전라북도 남원시 운봉읍 동천리 488번지 외1필지,"전라북도 남원시 운봉읍 운봉로 700, 1층",55718.0,운봉제일동물병원,2019-03-08 02:40:00.0,127.5320573690043,35.437957606766204
4860,470000001019820001,1,영업/정상,0000,정상,,전라북도 남원시 금동 252-16번지 성림장,"전라북도 남원시 의총로 61, 성림장 (금동)",55768.0,남원제일가축병원,2020-06-14 02:40:00.0,127.37592969639013,35.405890203223954
4861,470000001019860001,1,영업/정상,0000,정상,,전라북도 남원시 운봉읍 동천리 506-1,"전라북도 남원시 운봉읍 운봉로 702, 부산갈매기식당, 운봉가축병원",55718.0,운봉동물병원,2021-01-21 02:40:00.0,127.53200254182443,35.43813256082191
4862,450000001020000001,1,영업/정상,0000,정상,,충청남도 공주시 의당면 유계리 28번지,충청남도 공주시 의당면 의당전의로 463,32517.0,금강동물병원,2020-04-23 02:40:00.0,127.17733489468499,36.52189599790862
4863,450000001020030001,1,영업/정상,0000,정상,,충청남도 공주시 금흥동 35-3번지 현대아파트 404동 102호,충청남도 공주시 장기로 139-4 (금흥동),32567.0,한국동물병원,2018-12-08 02:40:00.0,127.15493030047327,36.4823673915938
4864,452000001020130003,1,영업/정상,0000,정상,,충청남도 아산시 영인면 아산리 83-2번지,충청남도 아산시 영인면 영인로 45,31432.0,수동물병원,2018-08-31 23:59:59.0,126.9568364349393,36.85421967064041
4865,452000001020160002,1,영업/정상,0000,정상,,충청남도 아산시 용화동 1581번지,충청남도 아산시 용화고길79번길 21 (용화동),31578.0,아산동물의료센터,2019-06-30 02:40:00.0,127.01159370146706,36.774426357793814
4866,452000001020160003,1,영업/정상,0000,정상,,충청남도 아산시 둔포면 둔포리 445-7번지,충청남도 아산시 둔포면 충무로 1779,31403.0,수안동물병원(출장진료전문),2019-01-23 02:40:00.0,127.03589779632306,36.93319891518218
4867,452000001020160004,1,영업/정상,0000,정상,,충청남도 아산시 모종동 578번지 8통3반 라이프아파트 103동 309호,"충청남도 아산시 번영로216번길 36, 30호 (모종동, 신정아파트상가 30호)",31521.0,선동물병원(출장진료전문),2019-01-23 02:40:00.0,127.01424585818575,36.78407574405372
4868,452000001020160005,1,영업/정상,0000,정상,,충청남도 아산시 온천동 1353 명종합동물병원,"충청남도 아산시 번영로 83, 명종합동물병원 (온천동)",31508.0,명동물병원,2021-05-29 02:40:00.0,126.99994457415215,36.78691739666878
4869,452000001020180001,1,영업/정상,0000,정상,,충청남도 아산시 모종동 580-3번지 신정아파트상가 20호,"충청남도 아산시 번영로216번길 36, 1층 20호 (모종동, 신정아파트)",31521.0,안 수의과병원,2018-08-31 23:59:59.0,127.01424585818575,36.78407574405372
4870,452000001020130002,1,영업/정상,0000,정상,,충청남도 아산시 배방읍 공수리 151-36번지,충청남도 아산시 배방읍 모산로126번길 6,31484.0,숲속동물병원,2018-08-31 23:59:59.0,127.05734175461859,36.776928255595095
4871,460000001020140001,1,영업/정상,0000,정상,,충청남도 홍성군 홍북면 신경리 895 빌앤더스오피스텔 444호,"충청남도 홍성군 홍북면 충남대로 36, 444호 (빌앤더스오피스텔)",32263.0,동안동물병원,2021-12-10 02:40:00.0,126.67477020039244,36.65593989585752
4872,460000001020150001,1,영업/정상,0000,정상,,충청남도 홍성군 홍성읍 옥암리 36번지,충청남도 홍성군 홍성읍 내포로136번길 10,32248.0,우사랑동물병원,2019-04-28 02:40:00.0,126.65545849108554,36.595831859071644
4873,460000001020150002,1,영업/정상,0000,정상,,충청남도 홍성군 홍성읍 남장리 214-14번지,충청남도 홍성군 홍성읍 충서로 1222-5,32244.0,임만수 동물병원,2018-08-31 23:59:59.0,126.6568558569121,36.58533148115643
4874,460000001020160002,1,영업/정상,0000,정상,,충청남도 홍성군 홍성읍 고암리 948,"충청남도 홍성군 홍성읍 조양로 203, 1, 2층",32220.0,대산 동물병원,2021-11-27 02:40:00.0,126.67238595907922,36.60042040986455
4876,452000001020020002,1,영업/정상,0000,정상,,충청남도 아산시 온천동 80-5번지,충청남도 아산시 온천대로 1525 (온천동),,가나동물병원,2018-08-31 23:59:59.0,127.00813275279936,36.78370450961803
4877,452000001020080001,1,영업/정상,0000,정상,,충청남도 아산시 염치읍 방현리 296-1번지,충청남도 아산시 염치읍 충무로 471-30,31446.0,아산축산업협동조합(동물병원),2018-08-31 23:59:59.0,127.00712576700907,36.820148372289644
4878,452000001020100001,1,영업/정상,0000,정상,,충청남도 아산시 둔포면 둔포리 396-1번지,충청남도 아산시 둔포면 둔포로 33,,중부벳동물병원,2018-08-31 23:59:59.0,127.03940248180064,36.93033500452974
4879,452000001020100002,1,영업/정상,0000,정상,,충청남도 아산시 둔포면 둔포리 445-7번지,충청남도 아산시 둔포면 충무로 1779,31403.0,건국동물병원(출장진료전문),2019-01-23 02:40:00.0,127.03589779632306,36.93319891518218
4880,393000001020160002,1,영업/정상,0000,정상,,경기도 안산시 단원구 초지동 734-6번지 한미타워 110호,"경기도 안산시 단원구 초지2로 67, 한미타워 110호 (초지동)",15448.0,닥터K동물병원,2019-02-16 02:40:00.0,126.81602994967042,37.30655444351566
4881,452000001019830001,1,영업/정상,0000,정상,,충청남도 아산시 둔포면 둔포리 414-14번지 414-14,충청남도 아산시 둔포면 둔포면로  12-8,,이동물병원,2019-03-09 02:40:00.0,127.0382690672446,36.93053198682278
4882,452000001019920001,1,영업/정상,0000,정상,,충청남도 아산시 권곡동 537-10번지,충청남도 아산시 청운로 159 (권곡동),31515.0,김광수동물병원,2019-03-08 02:40:00.0,127.00894077525078,36.7881984043624
4883,452000001020010001,1,영업/정상,0000,정상,,충청남도 아산시 모종동 580-3번지,충청남도 아산시 번영로216번길 36 (모종동),,정강동물병원,2019-03-09 02:40:00.0,127.01424585818575,36.78407574405372
4884,452000001020010002,1,영업/정상,0000,정상,,충청남도 아산시 온천동 1791번지,충청남도 아산시 번영로 133 (온천동),,온양동물병원,2018-08-31 23:59:59.0,127.00560697485227,36.786272704054056
4885,452000001020100003,1,영업/정상,0000,정상,,충청남도 아산시 배방읍 북수리 1213번지,충청남도 아산시 배방읍 북수서로 32,,배방동물병원,2018-08-31 23:59:59.0,127.07059799218905,36.775972541310225
4886,452000001020110001,1,영업/정상,0000,정상,,충청남도 아산시 용화동 575번지,충청남도 아산시 중앙로 10 (용화동),31573.0,주앤동물병원,2019-03-09 02:40:00.0,127.00322835609725,36.77867331755061
4887,452000001020120001,1,영업/정상,0000,정상,,충청남도 아산시 둔포면 둔포리 451-2번지,충청남도 아산시 둔포면 둔포면로17번길 18,31403.0,한원동물병원,2018-08-31 23:59:59.0,127.036602800968,36.93198015558243
4888,452000001020130001,1,영업/정상,0000,정상,,충청남도 아산시 온천동 1437번지,충청남도 아산시 시민로 467-41 (온천동),31508.0,충무가축병원,2018-08-31 23:59:59.0,126.99695759131615,36.789733610470556
4889,460000001020070001,1,영업/정상,0000,정상,,충청남도 홍성군 홍성읍 월산리 836-3번지,충청남도 홍성군 홍성읍 월산로50번길 3,32226.0,내포동물병원,2019-04-27 02:40:00.0,126.6472274866136,36.598542917627256
4890,460000001020110001,1,영업/정상,0000,정상,,충청남도 홍성군 홍성읍 옥암리 8-5,충청남도 홍성군 홍성읍 문화로57번길 19,,(주)돼지와건강,2021-01-19 02:40:00.0,126.65827621002951,36.59422442862018
4891,458000001019920001,1,영업/정상,0000,정상,,충청남도 서천군 서천읍 군사리 179-22번지 서천가축병원,"충청남도 서천군 서천읍 서천로14번길 25, 서천가축병원",33645.0,서천가축병원,2019-04-07 02:40:00.0,126.69721282562762,36.076180249577405
4892,458000001019930001,1,영업/정상,0000,정상,,충청남도 서천군 서천읍 군사리 862-10번지 서해동물병원,"충청남도 서천군 서천읍 충절로49번길 26, 서해동물병원",33642.0,서해동물병원,2019-04-07 02:40:00.0,126.68899248021644,36.07627961305461
4893,458000001020070001,1,영업/정상,0000,정상,,충청남도 서천군 한산면 지현리 243-2번지,충청남도 서천군 한산면 한마로 65,33624.0,최가축병원,2019-04-07 02:40:00.0,126.80306019676709,36.08609941704704
4894,458000001020140001,1,영업/정상,0000,정상,,충청남도 서천군 마서면 송내리 755,충청남도 서천군 마서면 금강로 1210,33657.0,국립생태원동물병원,2020-09-02 02:40:00.0,126.72392890390375,36.029311160029614
4895,457000001020170001,1,영업/정상,0000,정상,,충청남도 부여군 규암면 외리 217-16번지,"충청남도 부여군 규암면 계백로 10, 3층",33124.0,초원동물병원,2019-04-27 02:40:00.0,126.88146934987294,36.274152246645436
4896,457000001019800001,1,영업/정상,0000,정상,,충청남도 부여군 부여읍 구아리 141-3번지 3통,충청남도 부여군 부여읍 성왕로 202,33145.0,금강동물병원,2019-04-27 02:40:00.0,126.91011692606506,36.282541226617674
4897,457000001019800002,1,영업/정상,0000,정상,,충청남도 부여군 은산면 신대리 393-3번지 3통,충청남도 부여군 은산면 충의로 666-1,33113.0,서울동물병원,2019-04-27 02:40:00.0,126.8530310891006,36.308313129571935
4898,457000001019800003,1,영업/정상,0000,정상,,충청남도 부여군 부여읍 구아리 82-2번지,"충청남도 부여군 부여읍 나성로 108, 1동 1층",33139.0,부여동물병원,2019-04-27 02:40:00.0,126.90913774563288,36.28407303082283
4899,457000001019900001,1,영업/정상,0000,정상,,충청남도 부여군 부여읍 구아리 407-2번지 3통,충청남도 부여군 부여읍 성왕로 182,33144.0,백동물병원,2019-04-27 02:40:00.0,126.90866915598896,36.28100621070702
4900,457000001019950001,1,영업/정상,0000,정상,,충청남도 부여군 부여읍 구아리 141-5번지,충청남도 부여군 부여읍 성왕로 202-3,33145.0,녹십자동물병원,2019-05-03 02:40:00.0,126.91005331916105,36.28243472482251
4901,457000001020010001,1,영업/정상,0000,정상,,충청남도 부여군 부여읍 동남리 546-6번지,충청남도 부여군 부여읍 부장대로 4,33153.0,한라동물병원,2019-04-27 02:40:00.0,126.90568234589911,36.27636661629155
4902,457000001020080001,1,영업/정상,0000,정상,,충청남도 부여군 부여읍 구아리 391,충청남도 부여군 부여읍 성왕로 190-1,33145.0,남부여동물병원,2021-09-08 02:40:00.0,126.90929736161925,36.281621702102605
4903,457000001020110001,1,영업/정상,0000,정상,,충청남도 부여군 임천면 군사리 98번지,충청남도 부여군 임천면 성흥로 103,33219.0,임천동물병원,2019-04-27 02:40:00.0,126.89269484923351,36.1893552755585
4904,457000001020120001,1,영업/정상,0000,정상,,충청남도 부여군 규암면 규암리 117-5번지 금강타운 102호,충청남도 부여군 규암면 계백로 76,33124.0,심동물병원,2018-08-31 23:59:59.0,126.88821022609015,36.27569875088352
4905,455000001019720001,1,영업/정상,0000,정상,,충청남도 금산군 금산읍 중도리 337-3번지 6통5반,충청남도 금산군 금산읍 인삼로 89 (노아동물병원),32738.0,노아동물병원,2019-03-08 02:40:00.0,127.49156730255062,36.102907882399506
4906,455000001019940001,1,영업/정상,0000,정상,,충청남도 금산군 금산읍 상리 176-25번지 19통4반,충청남도 금산군 금산읍 오리정1길 45,32737.0,우신동물병원,2019-03-08 02:40:00.0,127.48804467152418,36.10492670914748
4907,455000001020060001,1,영업/정상,0000,정상,,충청남도 금산군 금산읍 상리 127-4번지,충청남도 금산군 금산읍 금산로 1444,32740.0,가믄장 동물병원,2019-03-08 02:40:00.0,127.48858221727652,36.1026382311624
4908,463000001019960003,1,영업/정상,0000,정상,,충청남도 당진시 읍내동 1252-1,충청남도 당진시 무수동로 109 (읍내동),,푸른가축병원,2021-06-23 02:40:00.0,126.63682268930407,36.89032664433251
4909,463000001019980001,1,영업/정상,0000,정상,,충청남도 당진시 신평면 상오리 418-9,"충청남도 당진시 신평면 덕평로 1273, 1층 104호",31747.0,종합동물병원,2020-11-07 02:40:00.0,126.75451756628118,36.8690232306031
4910,463000001019990001,1,영업/정상,0000,정상,,충청남도 당진시 합덕읍 소소리 513-20번지,충청남도 당진시 합덕읍 남부로 1377,31809.0,당진낙협동물병원,2019-11-06 02:40:00.0,126.73177060104787,36.83006806599424
4911,463000001020000001,1,영업/정상,0000,정상,,충청남도 당진시 읍내동 531-11번지,충청남도 당진시 당진중앙3로 89 (읍내동),31777.0,건국동물병원,2018-08-31 23:59:59.0,126.62996748570073,36.89306165637195
4912,463000001019750001,1,영업/정상,0000,정상,,충청남도 당진시 읍내동 626-9번지 10통,충청남도 당진시 당진중앙2로 17-5 (읍내동),31769.0,정가축병원,2018-08-31 23:59:59.0,126.62644689049338,36.89191694347564
4913,463000001019790001,1,영업/정상,0000,정상,,충청남도 당진시 합덕읍 운산리 263-1번지 2통,충청남도 당진시 합덕읍 합덕시장로 188,31812.0,백제 가축병원,2018-08-31 23:59:59.0,126.77452730032185,36.8087311867266
4914,463000001019950001,1,영업/정상,0000,정상,,충청남도 당진시 읍내동 1317번지,충청남도 당진시 무수동로 77 (읍내동),31776.0,백 동물병원,2018-08-31 23:59:59.0,126.63685343527291,36.88891084908465
4915,463000001019950002,1,영업/정상,0000,정상,,충청남도 당진시 채운동 310-3번지,충청남도 당진시 운학길 26 (채운동),,충남 동물병원,2018-09-13 23:59:59.0,126.62404410226316,36.893602068231
4916,463000001019960001,1,영업/정상,0000,정상,,충청남도 당진시 합덕읍 운산리 358-2번지 충청동물병원,"충청남도 당진시 합덕읍 운산로 103, 충청동물병원",31811.0,충청동물병원,2018-09-13 23:59:59.0,126.76750949625333,36.805017589344146
4917,463000001019960002,1,영업/정상,0000,정상,,충청남도 당진시 신평면 거산리 161-4번지 거산동물병원,충청남도 당진시 신평면 거산3거리길 4 (거산동물병원),31748.0,거산동물병원,2018-08-31 23:59:59.0,126.75275954813661,36.87857715309041
4918,568000001020150001,1,영업/정상,0000,정상,,충청남도 당진시 면천면 성상리 783-5번지,충청남도 당진시 면천면 동문1길 15-4,31804.0,참 좋은 동물병원,2018-08-31 23:59:59.0,126.66890129525515,36.81744669182499
4919,463000001020090001,1,영업/정상,0000,정상,,충청남도 당진시 대덕동 1652,충청남도 당진시 무수동로 36 (대덕동),,당진종합 동물병원,2020-11-07 02:40:00.0,126.63736631426922,36.88698609983868
4920,463000001020100001,1,영업/정상,0000,정상,,충청남도 당진시 읍내동 300-1번지,"충청남도 당진시 계성3길 6 (읍내동, 행담동물병원)",31770.0,행담 동물병원,2018-08-31 23:59:59.0,126.63528528590581,36.898251567234446
4921,463000001020110001,1,영업/정상,0000,정상,,충청남도 당진시 순성면 봉소리 606-15 가동,"충청남도 당진시 순성면 순성로 419, 가동",31757.0,한울 AHC동물병원,2020-11-12 02:40:00.0,126.7052226781672,36.84323182532289
4922,568000001020120001,1,영업/정상,0000,정상,,충청남도 당진시 읍내동 산 66-2번지,"충청남도 당진시 무수동7길 42, 축협배합사료공장 (읍내동)",31774.0,당진축협동물병원,2020-04-19 02:40:00.0,126.64151856714308,36.889187718685186
4923,568000001020120002,1,영업/정상,0000,정상,,충청남도 당진시 우두동 1436번지,충청남도 당진시 우두로1길 2 (우두동),31768.0,현대동물병원,2019-04-27 02:40:00.0,126.63253849648582,36.900944407748504
4924,568000001020130001,1,영업/정상,0000,정상,,충청남도 당진시 수청동 999번지 로뎀타워 104동,"충청남도 당진시 당진중앙2로 447 (수청동, 로뎀타워 104동)",31771.0,센트럴동물병원,2019-08-28 02:40:00.0,126.64702607334021,36.90073155421972
4925,568000001020140001,1,영업/정상,0000,정상,,충청남도 당진시 대덕동 1841번지,"충청남도 당진시 대덕1로 125-84 (대덕동, 카이저)",31778.0,제일팜산업동물병원,2019-08-16 02:40:00.0,126.64658385136127,36.88451177017151
4926,568000001020140002,1,영업/정상,0000,정상,,충청남도 당진시 합덕읍 소소리 465-1,충청남도 당진시 합덕읍 남부로 1409,31809.0,우리동물병원,2021-07-11 02:40:00.0,126.7331681303784,36.8269868210076
4927,568000001020180001,1,영업/정상,0000,정상,,충청남도 당진시 합덕읍 운산리 268-95,충청남도 당진시 합덕읍 중동길 32,31812.0,강한 우리동물병원,2021-10-27 02:40:00.0,126.77222615407912,36.80746021663782
4928,460000001019850001,1,영업/정상,0000,정상,,충청남도 홍성군 광천읍 신진리 522,충청남도 홍성군 광천읍 홍남로606번길 2,32296.0,김수의과동물병원,2021-11-24 02:40:00.0,126.61791012488516,36.50402381190263
4929,460000001019910003,1,영업/정상,0000,정상,,충청남도 홍성군 홍성읍 대교리 391-15번지,충청남도 홍성군 홍성읍 의사로43번길 7-5,32221.0,홍성종합동물병원,2019-04-27 02:40:00.0,126.67030072034197,36.60121824599372
4930,460000001019950001,1,영업/정상,0000,정상,,충청남도 홍성군 홍성읍 고암리 548-4번지,충청남도 홍성군 홍성읍 조양로 196,,세종동물병원,2019-04-27 02:40:00.0,126.6712408894738,36.60025562557235
4931,460000001019980001,1,영업/정상,0000,정상,,충청남도 홍성군 홍성읍 대교리 91-10번지,충청남도 홍성군 홍성읍 의사로64번길 32,,홍성낙협동물병원,2020-02-14 02:40:00.0,126.67169205940753,36.60116043698501
4932,558000001020090001,1,영업/정상,0000,정상,,충청남도 계룡시 엄사면 엄사리 184-4 지하 1층,"충청남도 계룡시 엄사면 엄사중앙로 93, 지하 1층",32805.0,충남동물병원,2021-12-24 02:40:00.0,127.24162579886314,36.28907809800351
4933,453000001020010001,1,영업/정상,0000,정상,,충청남도 서산시 동문동 1012-24,충청남도 서산시 안견로 247-1 (동문동),31991.0,신화,2020-12-13 02:40:00.0,126.45607252906609,36.777627645038784
4934,453000001020030001,1,영업/정상,0000,정상,,충청남도 서산시 읍내동 587-3,충청남도 서산시 부춘1로 47 (읍내동),31972.0,홍성낙협서산지점,2021-09-19 02:40:00.0,126.44532822851639,36.785872320712414
4935,453000001020050001,1,영업/정상,0000,정상,,충청남도 서산시 잠홍동 558-8번지,충청남도 서산시 고운로 329 (잠홍동),31966.0,정 동물병원,2019-03-08 02:40:00.0,126.47083537477492,36.78650124264749
4936,453000001020110001,1,영업/정상,0000,정상,,충청남도 서산시 동문동 987-13,충청남도 서산시 안견로 256 (동문동),31983.0,로얄동물병원,2021-01-21 02:40:00.0,126.4550984964063,36.77786388791554
4937,453000001020120001,1,영업/정상,0000,정상,,충청남도 서산시 예천동 1300-7,충청남도 서산시 호수공원12로 13 (예천동),31996.0,답21동물병원,2021-01-21 02:40:00.0,126.44786860063245,36.77209244675708
4938,453000001020120002,1,영업/정상,0000,정상,,충청남도 서산시 죽성동 74-1번지 죽성동 삼성아파트,"충청남도 서산시 남부순환로 767 (죽성동, 죽성동 삼성아파트)",32007.0,김도균동물병원,2019-03-08 02:40:00.0,126.44734802408371,36.74598241555941
4939,453000001020130001,1,영업/정상,0000,정상,,충청남도 서산시 동문동 225-1,충청남도 서산시 율지6로 42 (동문동),31993.0,한서동물의료센터,2020-12-12 02:40:00.0,126.46301571259973,36.779032887083275
4940,453000001020140001,1,영업/정상,0000,정상,,충청남도 서산시 읍내동 71-13 서원빌딩,"충청남도 서산시 안견로 312, 서원빌딩 (읍내동)",31984.0,성심동물의료센터,2021-01-21 02:40:00.0,126.44893165644447,36.777505347212994
4941,453000001020160001,1,영업/정상,0000,정상,,충청남도 서산시 대산읍 대산리 149-5번지,충청남도 서산시 대산읍 구진로 4,31909.0,대산동물병원,2019-03-08 02:40:00.0,126.43607152651938,36.9358889564712
4942,453000001020170001,1,영업/정상,0000,정상,,충청남도 서산시 동문동 1024-6,충청남도 서산시 안견로 235 (동문동),31991.0,서산동물병원,2020-12-17 02:40:00.0,126.45747209867879,36.777883107417004
4943,450000001020030012,1,영업/정상,0000,정상,,충청남도 공주시 우성면 동대리 145-6 145-6,충청남도 공주시 우성면 동대리길 78,32531.0,우성농협,2022-01-30 02:40:00.0,127.0521123837285,36.469444947195946
4944,450000001020030016,1,영업/정상,0000,정상,,충청남도 공주시 신관동 642-1번지,충청남도 공주시 번영1로 54 (신관동),32583.0,강북종합,2019-03-08 02:40:00.0,127.13429925243528,36.472372790303055
4945,451000001019860001,1,영업/정상,0000,정상,,충청남도 보령시 대천동 346-4번지,충청남도 보령시 대흥로 77 (대천동),33449.0,차동물병원,2020-06-09 02:40:00.0,126.59134644216849,36.3539559997723
4946,451000001019910001,1,영업/정상,0000,정상,,충청남도 보령시 대천동 434-6번지,충청남도 보령시 중앙로 105 (대천동),33455.0,김동물병원,2019-01-18 02:40:00.0,126.59324598891116,36.35429424789357
4947,451000001019910002,1,영업/정상,0000,정상,,충청남도 보령시 천북면 하만리 628-4,충청남도 보령시 천북면 홍보로 417-1,33402.0,충남동물병원,2020-11-05 02:40:00.0,126.52514525870254,36.47458066554581
4948,451000001019990001,1,영업/정상,0000,정상,,충청남도 보령시 대천동 435-20번지,충청남도 보령시 번영로 30 (대천동),33455.0,제일동물병원,2019-04-04 02:40:00.0,126.59358984395735,36.3542035559624
4949,450000001020140001,1,영업/정상,0000,정상,,충청남도 공주시 사곡면 호계리 300-1,충청남도 공주시 사곡면 마곡사로 106,32523.0,한우사랑동물병원,2020-10-21 02:40:00.0,127.02576941665953,36.50248532478366
4950,450000001020150001,1,영업/정상,0000,정상,,충청남도 공주시 금성동 19-29번지,충청남도 공주시 웅진로 235 (금성동),32538.0,중앙동물병원,2018-08-31 23:59:59.0,127.12391744770986,36.46085261663206
4951,450000001020150002,1,영업/정상,0000,정상,,충청남도 공주시 우성면 상서리 704번지,충청남도 공주시 우성면 우성길 162,32530.0,한울메디벳,2019-07-10 02:40:00.0,127.07883734866454,36.47733819772572
4952,450000001020150003,1,영업/정상,0000,정상,,충청남도 공주시 정안면 내촌리 146-1번지,충청남도 공주시 정안면 보물길 7-12,32512.0,태성동물병원,2019-04-27 02:40:00.0,127.11629457530395,36.59282730830142
4953,450000001020160001,1,영업/정상,0000,정상,,충청남도 공주시 신관동 256-6,충청남도 공주시 관골1길 63 (신관동),32575.0,금비동물병원,2021-05-14 02:40:00.0,127.13542960196924,36.47385528493458
4954,453000001019890001,1,영업/정상,0000,정상,,충청남도 서산시 동문동 293-11,충청남도 서산시 안견로 203 (동문동),31992.0,김신환동물병원,2020-12-11 02:40:00.0,126.4595475354094,36.7800659514874
4955,453000001019900001,1,영업/정상,0000,정상,,충청남도 서산시 동문동 309-3 서산공용버스터미널,"충청남도 서산시 안견로 190, 서산공용버스터미널 (동문동)",31981.0,여한경,2020-12-10 02:40:00.0,126.45862362122166,36.78158641880581
4956,453000001019950001,1,영업/정상,0000,정상,,충청남도 서산시 동문동 269-6 전망빌딩,"충청남도 서산시 안견로 231, 전망빌딩 (동문동)",31991.0,우리,2020-12-16 02:40:00.0,126.45790425237718,36.77803557744191
4957,453000001019960001,1,영업/정상,0000,정상,,충청남도 서산시 동문동 995-15,충청남도 서산시 안견로 263 (동문동),31991.0,고려동물병원,2021-10-02 02:40:00.0,126.45449135901161,36.77731595717294
4958,453000001019970001,1,영업/정상,0000,정상,,충청남도 서산시 해미면 읍내리 291-9,충청남도 서산시 해미면 남문6로 3,31960.0,해미성,2021-10-02 02:40:00.0,126.54356106014536,36.71381732547009
4959,453000001019990001,1,영업/정상,0000,정상,,충청남도 서산시 운산면 용현리 982 농협중앙회가축개량사업소별관,"충청남도 서산시 운산면 해운로 666, 농협중앙회가축개량사업소별관",31948.0,농협 한우개량사업소 가축병원,2022-01-23 02:40:00.0,126.5646693727654,36.766281683545046
4960,558000001020030001,1,영업/정상,0000,정상,,충청남도 계룡시 엄사면 엄사리 243-1번지,"충청남도 계룡시 엄사면 번영로 56, 1층",32806.0,노아동물병원,2019-03-08 02:40:00.0,127.23910388665131,36.28909630269122
4961,558000001020040001,1,영업/정상,0000,정상,,충청남도 계룡시 엄사면 엄사리 171-8 171-8,충청남도 계룡시 엄사면 전원로 8,32803.0,신도안동물병원,2020-09-27 02:40:00.0,127.24185833498036,36.29043330165429
4962,450000001020030004,1,영업/정상,0000,정상,,충청남도 공주시 금성동 184-7 184-7,충청남도 공주시 왕릉로 141-1 (금성동),32537.0,공주동물병원,2020-09-30 02:40:00.0,127.12259964346275,36.46441821704017
4963,450000001020030006,1,영업/정상,0000,정상,,충청남도 공주시 중학동 91-2번지 91-2,충청남도 공주시  웅진로  98-3 (중학동),,충남,2019-03-08 02:40:00.0,127.12381009589276,36.44915595218237
4964,450000001020030007,1,영업/정상,0000,정상,,충청남도 공주시 산성동 174-39 3통5반,충청남도 공주시 웅진로 209 (산성동),32539.0,대관령,2021-02-03 02:40:00.0,127.12468380557789,36.459161316245705
4965,450000001020030008,1,영업/정상,0000,정상,,충청남도 공주시 반죽동 194-3 2통2반,충청남도 공주시 감영길 7 (반죽동),32546.0,이기영,2021-07-03 02:40:00.0,127.12206669556704,36.45288959030023
4966,450000001020030009,1,영업/정상,0000,정상,,충청남도 공주시 신관동 197번지 3통4반 새뜸현대아파트 402동 2204호,충청남도 공주시 공주대학로 23-44 (신관동),32587.0,신동,2019-03-08 02:40:00.0,127.13573776863983,36.46852139224169
4967,460000001019980002,1,영업/정상,0000,정상,,충청남도 홍성군 광천읍 신진리 423-7번지,충청남도 홍성군 광천읍 홍남로 664,,신흥동물병원,2018-08-31 23:59:59.0,126.62454740714858,36.50311517673236
4968,460000001020000002,1,영업/정상,0000,정상,,충청남도 홍성군 광천읍 광천리 237-36번지,충청남도 홍성군 광천읍 광천로 295,,임창일동물병원,2019-04-27 02:40:00.0,126.62574895697844,36.500515238418785
4969,460000001020000003,1,영업/정상,0000,정상,,충청남도 홍성군 홍성읍 오관리 285번지,충청남도 홍성군 홍성읍 조양로 141,,충남동물병원,2019-04-27 02:40:00.0,126.6656573873117,36.60187069832474
4970,450000001020130003,1,영업/정상,0000,정상,,충청남도 공주시 신관동 601-8번지,충청남도 공주시 번영1로 42 (신관동),32584.0,세종공주축협동물병원,2019-04-27 02:40:00.0,127.13359722427413,36.47142931443709
4971,451000001020100001,1,영업/정상,0000,정상,,충청남도 보령시 동대동 1701번지,충청남도 보령시 한내로 21 (동대동),33434.0,보령동물병원,2019-06-30 02:40:00.0,126.60640361539926,36.34754299954075
4972,451000001020120001,1,영업/정상,0000,정상,,충청남도 보령시 천북면 하만리 271-2번지,충청남도 보령시 천북면 하궁길 13,33402.0,홍성낙농협동조합 천북동물병원,2020-04-05 02:40:00.0,126.52761422208951,36.48115719088865
4973,451000001020130001,1,영업/정상,0000,정상,,충청남도 보령시 궁촌동 349-4번지,충청남도 보령시 남대천로 123 (궁촌동),33459.0,바른동물병원,2019-06-20 02:40:00.0,126.5919507776093,36.34592848499191
4974,451000001020160001,1,영업/정상,0000,정상,,충청남도 보령시 동대동 1354,충청남도 보령시 동현로 12 (동대동),33435.0,훈 동물병원,2020-12-31 02:40:00.0,126.60963068800731,36.3543796318227
4975,454000001020030002,1,영업/정상,0000,정상,,충청남도 논산시 취암동 1040-16번지,충청남도 논산시 계백로 1006-3 (취암동),32974.0,캐비어동물병원,2018-08-31 23:59:59.0,127.08882117717478,36.203405187867254
4976,454000001020030003,1,영업/정상,0000,정상,,충청남도 논산시 취암동 1051-1번지,충청남도 논산시 중앙로398번길 2 (취암동),,호크종합동물병원,2018-08-31 23:59:59.0,127.08950000944212,36.1997751089992
4977,454000001020020001,1,영업/정상,0000,정상,,충청남도 논산시 연무읍 동산리 25-4,충청남도 논산시 연무읍 득안대로 467,33013.0,피그헬스동물병원,2020-09-24 02:40:00.0,127.12901501539399,36.125071769290585
4978,454000001020150001,1,영업/정상,0000,정상,,충청남도 논산시 부적면 마구평리 468-5번지,충청남도 논산시 부적면 마구평1길 6,32914.0,봉 동물병원,2019-01-17 02:40:00.0,127.1269129219277,36.21503432644654
4979,454000001020160001,1,영업/정상,0000,정상,,충청남도 논산시 취암동 581-7번지,충청남도 논산시 시민로 417 (취암동),32954.0,데일리동물병원,2019-01-17 02:40:00.0,127.08628860668982,36.20153000388776
4980,454000001020170001,1,영업/정상,0000,정상,,충청남도 논산시 내동 931번지,충청남도 논산시 시민로194번길 1 (내동),32989.0,논산계룡축협 동물병원,2019-01-17 02:40:00.0,127.09893296668058,36.18494540483829
4981,454000001020180001,1,영업/정상,0000,정상,,충청남도 논산시 벌곡면 검천리 337-3번지,충청남도 논산시 벌곡면 검천길 272,33026.0,비글구조네트워크 동물메디컬센터,2019-04-27 02:40:00.0,127.26870366009993,36.173745142292034
4982,449000001020040007,1,영업/정상,0000,정상,,충청남도 천안시 서북구 두정동 698번지,충청남도 천안시 서북구 두정로 146 (두정동),31090.0,해맑은동물병원,2018-08-31 23:59:59.0,127.13306170262292,36.833564799114896
4983,449000001020040008,1,영업/정상,0000,정상,,충청남도 천안시 서북구 성정동 1485번지 롯데마트 2층,"충청남도 천안시 서북구 성정두정로 1, 2층 (성정동, 롯데마트)",31109.0,펫가든동물병원,2018-08-31 23:59:59.0,127.14066817195994,36.82650393716877
4984,449000001020050001,1,영업/정상,0000,정상,,충청남도 천안시 서북구 백석동 872 대건플라자 108호,"충청남도 천안시 서북구 백석3로 134, 108호 (백석동,대건플라자)",,백석동물병원,2020-08-30 02:40:00.0,127.12501162922769,36.82205903563203
4985,449000001020050002,1,영업/정상,0000,정상,,충청남도 천안시 서북구 쌍용동 1176-1,"충청남도 천안시 서북구 쌍용대로 43 (쌍용동, 진주빌딩)",31155.0,굿모닝24시동물병원,2021-07-18 02:40:00.0,127.13134236613193,36.80127750180204
4986,449000001020060001,1,영업/정상,0000,정상,,충청남도 천안시 동남구 병천면 병천리 230-1번지 1통,충청남도 천안시 동남구 병천면 아우내순대길 16,31254.0,병천동물병원,2018-08-31 23:59:59.0,127.29765920353319,36.75911301461707
4987,461000001020110002,1,영업/정상,0000,정상,,충청남도 예산군 예산읍 주교리 225-9번지,충청남도 예산군 예산읍 역전로 70,,한일동물병원,2018-08-31 23:59:59.0,126.82957453926541,36.68549614476637
4988,450000001020170001,1,영업/정상,0000,정상,,충청남도 공주시 송선동 50-8,충청남도 공주시 장척로 76 (송선동),32590.0,세종팜스,2021-02-21 02:40:00.0,127.17441267238085,36.485298173423764
4989,450000001020070001,1,영업/정상,0000,정상,,충청남도 공주시 신관동 534-2번지 449-74,충청남도 공주시 신덕마을길 5 (신관동),32529.0,천안공주낙농농협동물병원,2018-08-31 23:59:59.0,127.12090083264543,36.47534702839191
4990,450000001020110001,1,영업/정상,0000,정상,,충청남도 공주시 금성동 19-29번지,충청남도 공주시 웅진로 235 (금성동),32538.0,중앙가축병원,2018-08-31 23:59:59.0,127.12391744770986,36.46085261663206
4991,460000001020010001,1,영업/정상,0000,정상,,충청남도 홍성군 홍성읍 대교리 731번지,충청남도 홍성군 홍성읍 의사로36번길 51,,한길동물병원,2018-08-31 23:59:59.0,126.6763009947392,36.602280098631624
4992,460000001020030001,1,영업/정상,0000,정상,,충청남도 홍성군 홍성읍 월산리 859-8번지 203호,"충청남도 홍성군 홍성읍 법원1길 12, 203호",,신베트,2019-04-27 02:40:00.0,126.65167236346295,36.60015489251997
4994,460000001020040002,1,영업/정상,0000,정상,,충청남도 홍성군 홍성읍 고암리 536-1번지,충청남도 홍성군 홍성읍 조양로 190,32231.0,강남동물병원,2019-04-27 02:40:00.0,126.67055995323446,36.60036694674422
4995,460000001020050001,1,영업/정상,0000,정상,,충청남도 홍성군 홍성읍 월산리 277-12번지,충청남도 홍성군 홍성읍 구항길 389,32250.0,홍성축협 동물병원,2018-08-31 23:59:59.0,126.63863918238123,36.588643723308664
4996,460000001020060001,1,영업/정상,0000,정상,,충청남도 홍성군 홍성읍 오관리 297-29번지,충청남도 홍성군 홍성읍 조양로151번길 25,32222.0,강영석동물병원,2019-04-27 02:40:00.0,126.66688138597343,36.60262488254261
4997,449000001020080001,1,영업/정상,0000,정상,,충청남도 천안시 서북구 성정동 1230번지,충청남도 천안시 서북구 성정중4길 3 (성정동),,페트로 동물병원,2018-08-31 23:59:59.0,127.13351030136617,36.8277320778275
4998,450000001020170002,1,영업/정상,0000,정상,,충청남도 공주시 유구읍 석남리 275-10번지,충청남도 공주시 유구읍 중앙1길 88,32506.0,뿌리동물병원,2019-03-08 02:40:00.0,126.95115697983624,36.552444195455166
4999,454000001019830001,1,영업/정상,0000,정상,,충청남도 논산시 대교동 112-1번지 2통,충청남도 논산시 중앙로 504 (대교동),32948.0,논산동물병원,2018-08-31 23:59:59.0,127.08263855739408,36.20759241731979
5000,454000001019870001,1,영업/정상,0000,정상,,충청남도 논산시 반월동 41-8번지 1통,충청남도 논산시 중앙로480번길 42 (반월동),32968.0,중앙동물병원,2019-01-17 02:40:00.0,127.08804691608503,36.20615639613341
5001,454000001019880001,1,영업/정상,0000,정상,,충청남도 논산시 강경읍 염천리 81번지,충청남도 논산시 강경읍 옥녀봉로19번길 38-1,32937.0,서동물병원,2018-08-31 23:59:59.0,127.01475853599506,36.158858079803345
5002,454000001019950001,1,영업/정상,0000,정상,,충청남도 논산시 연무읍 안심리 1-155번지,충청남도 논산시 연무읍 안심로127번길 11-2,33008.0,가나동물병원,2019-01-17 02:40:00.0,127.09908628437971,36.130696925085026
5003,454000001020040003,1,영업/정상,0000,정상,,충청남도 논산시 벌곡면 한삼천리 264-4번지,충청남도 논산시 벌곡면 대둔로 825-6,33026.0,연산동물병원,2019-04-28 02:40:00.0,127.26677097945955,36.207780199418714
5004,454000001020050002,1,영업/정상,0000,정상,,충청남도 논산시 부적면 덕평리 35-3,충청남도 논산시 부적면 백일헌로 25,32914.0,충남동물병원,2020-07-17 02:40:00.0,127.14412563172226,36.21489754863212
5005,454000001020080001,1,영업/정상,0000,정상,,충청남도 논산시 연무읍 안심리 289번지 8통,충청남도 논산시 연무읍 안심로 200-1,33009.0,금강축산가축병원,2019-01-17 02:40:00.0,127.08919070434473,36.131177326346545
5006,454000001020080002,1,영업/정상,0000,정상,,충청남도 논산시 내동 931번지,충청남도 논산시 시민로194번길 1 (내동),,논산계룡축협 동물병원,2018-08-31 23:59:59.0,127.09893296668058,36.18494540483829
5007,454000001020130001,1,영업/정상,0000,정상,,충청남도 논산시 취암동 1039-11번지,충청남도 논산시 관촉로 288 (취암동),32973.0,유명동물병원,2018-08-31 23:59:59.0,127.09074420329561,36.20448026370301
5008,454000001020130002,1,영업/정상,0000,정상,,충청남도 논산시 성동면 정지리 367-11,충청남도 논산시 성동면 원봉길 7,,우리생명과학동물병원,2020-07-17 02:40:00.0,127.05452136924957,36.210431500112264
5009,566000001020130001,1,영업/정상,0000,정상,,충청남도 천안시 서북구 두정동 544번지 두정빌딩 102호,"충청남도 천안시 서북구 두정로 114, 102호 (두정동, 두정빌딩)",31090.0,한빛동물병원,2018-08-31 23:59:59.0,127.12940302718489,36.83371239190816
5010,566000001020130003,1,영업/정상,0000,정상,,충청남도 천안시 서북구 불당동 1492번지 천안불당파크푸르지오 1단지 상가1동 204호,"충청남도 천안시 서북구 불당26로 144, 상가1동 204호 (불당동, 천안불당파크푸르지오 1단지)",31156.0,닥터 전 동물병원,2018-09-17 23:59:59.0,127.10850715045467,36.82099999861615
5011,566000001020130005,1,영업/정상,0000,정상,,충청남도 천안시 서북구 쌍용동 1059번지,충청남도 천안시 서북구 서부대로 408 (쌍용동),31155.0,엔젤동물병원,2018-12-07 02:40:00.0,127.12782063381054,36.80362195777155
